[{"link_title": null, "guid": "713e325d21314c1b842f9e2409dfc7fc", "description": null, "fips_class": "C1", "url": "http://townofdauphinisland.org/", "feature_id": "256", "state_name": "Alabama", "fips_county_cd": "97", "state_abbreviation": "AL", "full_county_name": "Mobile County", "county_name": "Mobile", "feat_class": "Populated Place", "primary_latitude": "30.25", "primary_longitude": "-88.1", "name": "Dauphin Island"}, {"link_title": null, "guid": "3758ab91ca46478381fd174c6c259415", "description": null, "fips_class": "H1", "url": "http://www.houstoncounty.org/", "feature_id": "36609", "state_name": "Alabama", "fips_county_cd": "69", "state_abbreviation": "AL", "full_county_name": null, "county_name": null, "feat_class": "Civil", "primary_latitude": "31.15", "primary_longitude": "-85.31", "name": "Houston County"}, {"link_title": null, "guid": "0e8c14b8fcd140d6926ddca528193c1f", "description": null, "fips_class": "H1", "url": "http://www.jeffcointouch.com/", "feature_id": "36611", "state_name": "Alabama", "fips_county_cd": "73", "state_abbreviation": "AL", "full_county_name": null, "county_name": null, "feat_class": "Civil", "primary_latitude": "33.58", "primary_longitude": "-86.86", "name": "Jefferson County"}, {"link_title": null, "guid": "8f220f996dd74482a081a7e9cce666c1", "description": null, "fips_class": "C1", "url": "http://www.digitaldecatur.com/", "feature_id": "260", "state_name": "Alabama", "fips_county_cd": "103", "state_abbreviation": "AL", "full_county_name": "Morgan County", "county_name": "Morgan", "feat_class": "Populated Place", "primary_latitude": "34.6", "primary_longitude": "-86.98", "name": "Decatur"}, {"link_title": null, "guid": "bf17cfd5c7a14c6d98cc927acf56d90b", "description": null, "fips_class": "C1", "url": "http://www.demopolisal.com/", "feature_id": "261", "state_name": "Alabama", "fips_county_cd": "91", "state_abbreviation": "AL", "full_county_name": "Marengo County", "county_name": "Marengo", "feat_class": "Populated Place", "primary_latitude": "32.51", "primary_longitude": "-87.83", "name": "Demopolis"}, {"link_title": null, "guid": "ef1222c724f348f5895d2dcedd98c7fb", "description": null, "fips_class": "H1", "url": "http://lauderdalecountyonline.com/", "feature_id": "36613", "state_name": "Alabama", "fips_county_cd": "77", "state_abbreviation": "AL", "full_county_name": null, "county_name": null, "feat_class": "Civil", "primary_latitude": "34.9", "primary_longitude": "-87.63", "name": "Lauderdale County"}, {"link_title": null, "guid": "c988fd756e9e4b33aaddd72f48871e75", "description": null, "fips_class": "C1", "url": "http://www.robertsdale.org/", "feature_id": "518", "state_name": "Alabama", "fips_county_cd": "3", "state_abbreviation": "AL", "full_county_name": "Baldwin County", "county_name": "Baldwin", "feat_class": "Populated Place", "primary_latitude": "30.55", "primary_longitude": "-87.71", "name": "Robertsdale"}, {"link_title": null, "guid": "ec8f2ec6a7ba4fcfb5492bc9ce60f291", "description": null, "fips_class": "H1", "url": "http://www.leeco.us/", "feature_id": "36615", "state_name": "Alabama", "fips_county_cd": "81", "state_abbreviation": "AL", "full_county_name": null, "county_name": null, "feat_class": "Civil", "primary_latitude": "32.6", "primary_longitude": "-85.39", "name": "Lee County"}, {"link_title": null, "guid": "1265bde9d26142ed82ff2d3fd95a8a66", "description": null, "fips_class": "H1", "url": "http://www.limestonecounty.net/", "feature_id": "36616", "state_name": "Alabama", "fips_county_cd": "83", "state_abbreviation": "AL", "full_county_name": null, "county_name": null, "feat_class": "Civil", "primary_latitude": "34.8", "primary_longitude": "-86.98", "name": "Limestone County"}, {"link_title": null, "guid": "edd6d77529f549f583c381a77c255313", "description": null, "fips_class": "C1", "url": "http://www.dothan.org/", "feature_id": "265", "state_name": "Alabama", "fips_county_cd": "69", "state_abbreviation": "AL", "full_county_name": "Houston County", "county_name": "Houston", "feat_class": "Populated Place", "primary_latitude": "31.22", "primary_longitude": "-85.39", "name": "Dothan"}, {"link_title": null, "guid": "c05ffc295e7c4050883d7e46e2375652", "description": null, "fips_class": "C1", "url": "http://www.russellvillegov.org/", "feature_id": "522", "state_name": "Alabama", "fips_county_cd": "59", "state_abbreviation": "AL", "full_county_name": "Franklin County", "county_name": "Franklin", "feat_class": "Populated Place", "primary_latitude": "34.5", "primary_longitude": "-87.72", "name": "Russellville"}, {"link_title": null, "guid": "4e9fd435233648b4ae5449691d5661ab", "description": null, "fips_class": "H1", "url": "http://www.co.madison.al.us/", "feature_id": "36619", "state_name": "Alabama", "fips_county_cd": "89", "state_abbreviation": "AL", "full_county_name": null, "county_name": null, "feat_class": "Civil", "primary_latitude": "34.73", "primary_longitude": "-86.56", "name": "Madison County"}, {"link_title": null, "guid": "3526eb76958b403c90b7b96fed8de07b", "description": null, "fips_class": "H1", "url": "http://www.sonet.net/marioncounty/", "feature_id": "36621", "state_name": "Alabama", "fips_county_cd": "93", "state_abbreviation": "AL", "full_county_name": null, "county_name": null, "feat_class": "Civil", "primary_latitude": "34.13", "primary_longitude": "-87.86", "name": "Marion County"}, {"link_title": null, "guid": "d07c02b084a0423a82ac44d0b2d3ac86", "description": null, "fips_class": "H1", "url": "http://www.marshallco.org/www/", "feature_id": "36622", "state_name": "Alabama", "fips_county_cd": "95", "state_abbreviation": "AL", "full_county_name": null, "county_name": null, "feat_class": "Civil", "primary_latitude": "34.38", "primary_longitude": "-86.33", "name": "Marshall County"}, {"link_title": null, "guid": "3ffad04fed1445d185beaa846d1d79f7", "description": null, "fips_class": "H1", "url": "http://www.mobilecountyal.gov/", "feature_id": "36623", "state_name": "Alabama", "fips_county_cd": "97", "state_abbreviation": "AL", "full_county_name": null, "county_name": null, "feat_class": "Civil", "primary_latitude": "30.78", "primary_longitude": "-88.2", "name": "Mobile County"}, {"link_title": null, "guid": "021bf983a72e49dfb3e4662376609583", "description": null, "fips_class": "C1", "url": "http://www.saraland.org/", "feature_id": "528", "state_name": "Alabama", "fips_county_cd": "97", "state_abbreviation": "AL", "full_county_name": "Mobile County", "county_name": "Mobile", "feat_class": "Populated Place", "primary_latitude": "30.82", "primary_longitude": "-88.07", "name": "Saraland"}, {"link_title": null, "guid": "d8b74c4408aa4b6d87fec71d0b0ec290", "description": null, "fips_class": "H1", "url": "http://www.monroecountyal.com/", "feature_id": "36624", "state_name": "Alabama", "fips_county_cd": "99", "state_abbreviation": "AL", "full_county_name": null, "county_name": null, "feat_class": "Civil", "primary_latitude": "31.58", "primary_longitude": "-87.33", "name": "Monroe County"}, {"link_title": null, "guid": "25756359b8e44aa9b6cde2d52c06abbc", "description": null, "fips_class": "C1", "url": "http://www.elbaalabama.net/", "feature_id": "273", "state_name": "Alabama", "fips_county_cd": "31", "state_abbreviation": "AL", "full_county_name": "Coffee County", "county_name": "Coffee", "feat_class": "Populated Place", "primary_latitude": "31.41", "primary_longitude": "-86.06", "name": "Elba"}, {"link_title": null, "guid": "6b3433f762ac40ff99e9943dd730535f", "description": null, "fips_class": "C1", "url": "http://www.sardiscity.com/", "feature_id": "529", "state_name": "Alabama", "fips_county_cd": "55", "state_abbreviation": "AL", "full_county_name": "Etowah County", "county_name": "Etowah", "feat_class": "Populated Place", "primary_latitude": "34.17", "primary_longitude": "-86.12", "name": "Sardis City"}, {"link_title": null, "guid": "27df27b9c3bd496abc4de914995e2cf6", "description": null, "fips_class": "H1", "url": "http://www.mc-ala.org/", "feature_id": "36625", "state_name": "Alabama", "fips_county_cd": "101", "state_abbreviation": "AL", "full_county_name": null, "county_name": null, "feat_class": "Civil", "primary_latitude": "32.23", "primary_longitude": "-86.23", "name": "Montgomery County"}, {"link_title": null, "guid": "43ce3847cebd42a8bf20a2e68af4d43b", "description": null, "fips_class": "C1", "url": "http://www.cityofsatsuma.com/", "feature_id": "530", "state_name": "Alabama", "fips_county_cd": "97", "state_abbreviation": "AL", "full_county_name": "Mobile County", "county_name": "Mobile", "feat_class": "Populated Place", "primary_latitude": "30.85", "primary_longitude": "-88.05", "name": "Satsuma"}, {"link_title": null, "guid": "7427ed9f01304341b98cae79dea9c852", "description": null, "fips_class": "H1", "url": "http://www.co.morgan.al.us/", "feature_id": "36626", "state_name": "Alabama", "fips_county_cd": "103", "state_abbreviation": "AL", "full_county_name": null, "county_name": null, "feat_class": "Civil", "primary_latitude": "34.45", "primary_longitude": "-86.85", "name": "Morgan County"}, {"link_title": null, "guid": "36b096c153d841f7953cb2babc70abdb", "description": null, "fips_class": "C1", "url": "http://www.cityofscottsboro.org/", "feature_id": "531", "state_name": "Alabama", "fips_county_cd": "71", "state_abbreviation": "AL", "full_county_name": "Jackson County", "county_name": "Jackson", "feat_class": "Populated Place", "primary_latitude": "34.67", "primary_longitude": "-86.03", "name": "Scottsboro"}, {"link_title": null, "guid": "d53a06c391054c90a64f42567068e612", "description": null, "fips_class": "C1", "url": "http://www.selmaalabama.com/", "feature_id": "533", "state_name": "Alabama", "fips_county_cd": "47", "state_abbreviation": "AL", "full_county_name": "Dallas County", "county_name": "Dallas", "feat_class": "Populated Place", "primary_latitude": "32.4", "primary_longitude": "-87.02", "name": "Selma"}, {"link_title": null, "guid": "c7ce9f36beda454a8dc3db7ebd7ece63", "description": null, "fips_class": "C1", "url": "http://www.sheffieldalabama.org/", "feature_id": "534", "state_name": "Alabama", "fips_county_cd": "33", "state_abbreviation": "AL", "full_county_name": "Colbert County", "county_name": "Colbert", "feat_class": "Populated Place", "primary_latitude": "34.76", "primary_longitude": "-87.69", "name": "Sheffield"}, {"link_title": null, "guid": "b0b35ffcddd640ac8634fdfa83814051", "description": null, "fips_class": "C1", "url": "http://www.cityofenterprise.net/", "feature_id": "279", "state_name": "Alabama", "fips_county_cd": "31", "state_abbreviation": "AL", "full_county_name": "Coffee County", "county_name": "Coffee", "feat_class": "Populated Place", "primary_latitude": "31.31", "primary_longitude": "-85.85", "name": "Enterprise"}, {"link_title": null, "guid": "c1c478dcc38b425a8fe01a86364437dc", "description": null, "fips_class": "C1", "url": "http://www.shorteralabama.com/", "feature_id": "536", "state_name": "Alabama", "fips_county_cd": "87", "state_abbreviation": "AL", "full_county_name": "Macon County", "county_name": "Macon", "feat_class": "Populated Place", "primary_latitude": "32.39", "primary_longitude": "-85.91", "name": "Shorter"}, {"link_title": null, "guid": "b788241986524d34873dee2c6dfc2ad1", "description": null, "fips_class": "H1", "url": "http://www.stclairco.com/", "feature_id": "36632", "state_name": "Alabama", "fips_county_cd": "115", "state_abbreviation": "AL", "full_county_name": null, "county_name": null, "feat_class": "Civil", "primary_latitude": "33.75", "primary_longitude": "-86.31", "name": "Saint Clair County"}, {"link_title": null, "guid": "3628763d75ee48a8b2d3650fcf9fdefd", "description": null, "fips_class": "H1", "url": "http://www.shelbycountyalabama.com/", "feature_id": "36633", "state_name": "Alabama", "fips_county_cd": "117", "state_abbreviation": "AL", "full_county_name": null, "county_name": null, "feat_class": "Civil", "primary_latitude": "33.26", "primary_longitude": "-86.66", "name": "Shelby County"}, {"link_title": null, "guid": "d50dc8f7594b4556bb8b2731fcea7ff8", "description": null, "fips_class": "C1", "url": "http://www.eufaulaalabama.com/", "feature_id": "282", "state_name": "Alabama", "fips_county_cd": "5", "state_abbreviation": "AL", "full_county_name": "Barbour County", "county_name": "Barbour", "feat_class": "Populated Place", "primary_latitude": "31.89", "primary_longitude": "-85.14", "name": "Eufaula"}, {"link_title": null, "guid": "96eb2349f3ed4dd0917bf353dcfb94a2", "description": null, "fips_class": "H1", "url": "http://www.tuscco.com/", "feature_id": "36637", "state_name": "Alabama", "fips_county_cd": "125", "state_abbreviation": "AL", "full_county_name": null, "county_name": null, "feat_class": "Civil", "primary_latitude": "33.3", "primary_longitude": "-87.5", "name": "Tuscaloosa County"}, {"link_title": null, "guid": "530b4be59c5747bbaf34ace66f3762e1", "description": null, "fips_class": "H1", "url": "http://www.walkercounty.com/", "feature_id": "36638", "state_name": "Alabama", "fips_county_cd": "127", "state_abbreviation": "AL", "full_county_name": null, "county_name": null, "feat_class": "Civil", "primary_latitude": "33.8", "primary_longitude": "-87.3", "name": "Walker County"}, {"link_title": null, "guid": "b62afeae44d344afb4609e216376fd1c", "description": null, "fips_class": "C1", "url": "http://www.cofairhope.com/", "feature_id": "289", "state_name": "Alabama", "fips_county_cd": "3", "state_abbreviation": "AL", "full_county_name": "Baldwin County", "county_name": "Baldwin", "feat_class": "Populated Place", "primary_latitude": "30.52", "primary_longitude": "-87.9", "name": "Fairhope"}, {"link_title": null, "guid": "ec0b38ab86784a5fa0da8bf11a67bdad", "description": null, "fips_class": "C1", "url": "http://cityoffayette.org/", "feature_id": "293", "state_name": "Alabama", "fips_county_cd": "57", "state_abbreviation": "AL", "full_county_name": "Fayette County", "county_name": "Fayette", "feat_class": "Populated Place", "primary_latitude": "33.68", "primary_longitude": "-87.83", "name": "Fayette"}, {"link_title": null, "guid": "c9eac6b9e3d349c3accb8d0be06872d4", "description": null, "fips_class": "C1", "url": "http://www.florenceal.org/", "feature_id": "297", "state_name": "Alabama", "fips_county_cd": "77", "state_abbreviation": "AL", "full_county_name": "Lauderdale County", "county_name": "Lauderdale", "feat_class": "Populated Place", "primary_latitude": "34.79", "primary_longitude": "-87.67", "name": "Florence"}, {"link_title": null, "guid": "0293bcaefdf24971a3a307fcc0660b41", "description": null, "fips_class": "C1", "url": "http://www.summerdalealabama.com/", "feature_id": "553", "state_name": "Alabama", "fips_county_cd": "3", "state_abbreviation": "AL", "full_county_name": "Baldwin County", "county_name": "Baldwin", "feat_class": "Populated Place", "primary_latitude": "30.48", "primary_longitude": "-87.69", "name": "Summerdale"}, {"link_title": null, "guid": "24d2ea999d69487bb6cbc9e0de547d74", "description": null, "fips_class": "C1", "url": "http://www.cityoffoley.org/", "feature_id": "298", "state_name": "Alabama", "fips_county_cd": "3", "state_abbreviation": "AL", "full_county_name": "Baldwin County", "county_name": "Baldwin", "feat_class": "Populated Place", "primary_latitude": "30.4", "primary_longitude": "-87.68", "name": "Foley"}, {"link_title": null, "guid": "3674fda3fc5042219bd04ff3c1acbf3a", "description": null, "fips_class": "C1", "url": "http://www.sylacauga.net/", "feature_id": "555", "state_name": "Alabama", "fips_county_cd": "121", "state_abbreviation": "AL", "full_county_name": "Talladega County", "county_name": "Talladega", "feat_class": "Populated Place", "primary_latitude": "33.17", "primary_longitude": "-86.25", "name": "Sylacauga"}, {"link_title": null, "guid": "569354bb7a1342618af62666e905a2b2", "description": null, "fips_class": "C1", "url": "http://fortdeposit.info/", "feature_id": "300", "state_name": "Alabama", "fips_county_cd": "85", "state_abbreviation": "AL", "full_county_name": "Lowndes County", "county_name": "Lowndes", "feat_class": "Populated Place", "primary_latitude": "31.98", "primary_longitude": "-86.57", "name": "Fort Deposit"}, {"link_title": null, "guid": "ed87e2cd9b814e80abf1346dad9336d4", "description": null, "fips_class": "C1", "url": "http://www.fortpayne.org/", "feature_id": "301", "state_name": "Alabama", "fips_county_cd": "49", "state_abbreviation": "AL", "full_county_name": "DeKalb County", "county_name": "DeKalb", "feat_class": "Populated Place", "primary_latitude": "34.44", "primary_longitude": "-85.71", "name": "Fort Payne"}, {"link_title": null, "guid": "128bad5f4af1437a85eb6fda09fe4389", "description": null, "fips_class": "C1", "url": "http://www.talladega.com/", "feature_id": "558", "state_name": "Alabama", "fips_county_cd": "121", "state_abbreviation": "AL", "full_county_name": "Talladega County", "county_name": "Talladega", "feat_class": "Populated Place", "primary_latitude": "33.43", "primary_longitude": "-86.1", "name": "Talladega"}, {"link_title": null, "guid": "018c63ebab4e469e84fa8e294403b331", "description": null, "fips_class": "C1", "url": "http://www.tallasseechamber.com", "feature_id": "560", "state_name": "Alabama", "fips_county_cd": "51", "state_abbreviation": "AL", "full_county_name": "Elmore County", "county_name": "Elmore", "feat_class": "Populated Place", "primary_latitude": "32.53", "primary_longitude": "-85.89", "name": "Tallassee"}, {"link_title": null, "guid": "fe24de5ebbae40b69caf3df3f6462829", "description": null, "fips_class": "C1", "url": "http://www.fultondale.com/", "feature_id": "306", "state_name": "Alabama", "fips_county_cd": "73", "state_abbreviation": "AL", "full_county_name": "Jefferson County", "county_name": "Jefferson", "feat_class": "Populated Place", "primary_latitude": "33.6", "primary_longitude": "-86.79", "name": "Fultondale"}, {"link_title": null, "guid": "cf446adb85d142889ab125caf58326dc", "description": null, "fips_class": "C1", "url": "http://www.cityofgadsden.com/", "feature_id": "308", "state_name": "Alabama", "fips_county_cd": "55", "state_abbreviation": "AL", "full_county_name": "Etowah County", "county_name": "Etowah", "feat_class": "Populated Place", "primary_latitude": "34.01", "primary_longitude": "-86", "name": "Gadsden"}, {"link_title": null, "guid": "66091dba498b43018554d2bebe7adfa2", "description": null, "fips_class": "C1", "url": "http://www.thomasvilleal.com/", "feature_id": "566", "state_name": "Alabama", "fips_county_cd": "25", "state_abbreviation": "AL", "full_county_name": "Clarke County", "county_name": "Clarke", "feat_class": "Populated Place", "primary_latitude": "31.91", "primary_longitude": "-87.73", "name": "Thomasville"}, {"link_title": null, "guid": "1e715314566047e28262ff1ca1cea5fe", "description": null, "fips_class": "C1", "url": "http://www.cityofgardendale.com/", "feature_id": "313", "state_name": "Alabama", "fips_county_cd": "73", "state_abbreviation": "AL", "full_county_name": "Jefferson County", "county_name": "Jefferson", "feat_class": "Populated Place", "primary_latitude": "33.66", "primary_longitude": "-86.81", "name": "Gardendale"}, {"link_title": null, "guid": "ac3cefa12e2a4df3b50ff52bf191caa5", "description": null, "fips_class": "C1", "url": "http://www.troyalabama.com/", "feature_id": "573", "state_name": "Alabama", "fips_county_cd": "109", "state_abbreviation": "AL", "full_county_name": "Pike County", "county_name": "Pike", "feat_class": "Populated Place", "primary_latitude": "31.8", "primary_longitude": "-85.96", "name": "Troy"}, {"link_title": null, "guid": "b0cf100263ed4e159265a3e7daed8627", "description": null, "fips_class": "C1", "url": "http://www.trussville.org/", "feature_id": "574", "state_name": "Alabama", "fips_county_cd": "73", "state_abbreviation": "AL", "full_county_name": "Jefferson County", "county_name": "Jefferson", "feat_class": "Populated Place", "primary_latitude": "33.61", "primary_longitude": "-86.6", "name": "Trussville"}, {"link_title": null, "guid": "ff9bf7bcaa6541fbb066489e3b658c98", "description": null, "fips_class": "C1", "url": "http://www.ci.tuscaloosa.al.us/", "feature_id": "575", "state_name": "Alabama", "fips_county_cd": "125", "state_abbreviation": "AL", "full_county_name": "Tuscaloosa County", "county_name": "Tuscaloosa", "feat_class": "Populated Place", "primary_latitude": "33.2", "primary_longitude": "-87.56", "name": "Tuscaloosa"}, {"link_title": null, "guid": "f74ccdcc4aee4f348082c50a0ab2301a", "description": null, "fips_class": "C1", "url": "http://www.tuskegeealabama.org/", "feature_id": "577", "state_name": "Alabama", "fips_county_cd": "87", "state_abbreviation": "AL", "full_county_name": "Macon County", "county_name": "Macon", "feat_class": "Populated Place", "primary_latitude": "32.42", "primary_longitude": "-85.69", "name": "Tuskegee"}, {"link_title": null, "guid": "35e168b5b8474f7b9d199f2d28492be6", "description": null, "fips_class": "C1", "url": "http://www.unionspringsalabama.com/", "feature_id": "580", "state_name": "Alabama", "fips_county_cd": "11", "state_abbreviation": "AL", "full_county_name": "Bullock County", "county_name": "Bullock", "feat_class": "Populated Place", "primary_latitude": "32.14", "primary_longitude": "-85.71", "name": "Union Springs"}, {"link_title": null, "guid": "3c01d0ef42d24d539f4a36b332d638bb", "description": null, "fips_class": "C1", "url": "http://www.uniontownal.org/", "feature_id": "581", "state_name": "Alabama", "fips_county_cd": "105", "state_abbreviation": "AL", "full_county_name": "Perry County", "county_name": "Perry", "feat_class": "Populated Place", "primary_latitude": "32.44", "primary_longitude": "-87.51", "name": "Uniontown"}, {"link_title": null, "guid": "9226436bf55d4ce3a057a2ca094752b6", "description": null, "fips_class": "C1", "url": "http://www.cityofvalley.com/", "feature_id": "582", "state_name": "Alabama", "fips_county_cd": "17", "state_abbreviation": "AL", "full_county_name": "Chambers County", "county_name": "Chambers", "feat_class": "Populated Place", "primary_latitude": "32.81", "primary_longitude": "-85.17", "name": "Valley"}, {"link_title": null, "guid": "a4c2a91fa6194499ba45630226972d77", "description": null, "fips_class": "C1", "url": "http://www.grantalabama.com/", "feature_id": "330", "state_name": "Alabama", "fips_county_cd": "95", "state_abbreviation": "AL", "full_county_name": "Marshall County", "county_name": "Marshall", "feat_class": "Populated Place", "primary_latitude": "34.52", "primary_longitude": "-86.25", "name": "Grant"}, {"link_title": null, "guid": "b6357777a3f7447da667806bd1dd68a5", "description": null, "fips_class": "C1", "url": "http://www.vernon.siteblast.com/", "feature_id": "586", "state_name": "Alabama", "fips_county_cd": "75", "state_abbreviation": "AL", "full_county_name": "Lamar County", "county_name": "Lamar", "feat_class": "Populated Place", "primary_latitude": "33.75", "primary_longitude": "-88.1", "name": "Vernon"}, {"link_title": null, "guid": "edbb8d297f074d169a67f2d6d5ac861d", "description": null, "fips_class": "C1", "url": "http://www.vestaviahills.net/", "feature_id": "587", "state_name": "Alabama", "fips_county_cd": "73", "state_abbreviation": "AL", "full_county_name": "Jefferson County", "county_name": "Jefferson", "feat_class": "Populated Place", "primary_latitude": "33.44", "primary_longitude": "-86.78", "name": "Vestavia Hills"}, {"link_title": null, "guid": "29ca180352e249519ee48c146ef5a903", "description": null, "fips_class": "C1", "url": "http://www.guinal.org/", "feature_id": "336", "state_name": "Alabama", "fips_county_cd": "93", "state_abbreviation": "AL", "full_county_name": "Marion County", "county_name": "Marion", "feat_class": "Populated Place", "primary_latitude": "33.96", "primary_longitude": "-87.91", "name": "Guin"}, {"link_title": null, "guid": "711756be5e1e488388c60e6fbf6f8761", "description": null, "fips_class": "C1", "url": "http://www.gulfshoresal.gov/", "feature_id": "337", "state_name": "Alabama", "fips_county_cd": "3", "state_abbreviation": "AL", "full_county_name": "Baldwin County", "county_name": "Baldwin", "feat_class": "Populated Place", "primary_latitude": "30.24", "primary_longitude": "-87.7", "name": "Gulf Shores"}, {"link_title": null, "guid": "95acc13a53a44aee946673524cc336e0", "description": null, "fips_class": "C1", "url": "http://www.guntersvilleal.org/", "feature_id": "338", "state_name": "Alabama", "fips_county_cd": "95", "state_abbreviation": "AL", "full_county_name": "Marshall County", "county_name": "Marshall", "feat_class": "Populated Place", "primary_latitude": "34.35", "primary_longitude": "-86.29", "name": "Guntersville"}, {"link_title": null, "guid": "beaa29d2899f4c7db5387a53a6f51727", "description": null, "fips_class": "C1", "url": "http://www.cityofhamilton.org/", "feature_id": "344", "state_name": "Alabama", "fips_county_cd": "93", "state_abbreviation": "AL", "full_county_name": "Marion County", "county_name": "Marion", "feat_class": "Populated Place", "primary_latitude": "34.14", "primary_longitude": "-87.98", "name": "Hamilton"}, {"link_title": null, "guid": "3b45fda6fdbc4d5db3c5b86f7b709f83", "description": null, "fips_class": "C1", "url": "http://www.hartselle.org/", "feature_id": "349", "state_name": "Alabama", "fips_county_cd": "103", "state_abbreviation": "AL", "full_county_name": "Morgan County", "county_name": "Morgan", "feat_class": "Populated Place", "primary_latitude": "34.44", "primary_longitude": "-86.93", "name": "Hartselle"}, {"link_title": null, "guid": "a8f58ccd80874c488c6b213ec4a74c4a", "description": null, "fips_class": "C1", "url": "http://www.cityofwetumpka.com/", "feature_id": "605", "state_name": "Alabama", "fips_county_cd": "51", "state_abbreviation": "AL", "full_county_name": "Elmore County", "county_name": "Elmore", "feat_class": "Populated Place", "primary_latitude": "32.54", "primary_longitude": "-86.21", "name": "Wetumpka"}, {"link_title": null, "guid": "27242be0d29c49b8bdb573249ba9316f", "description": null, "fips_class": "C1", "url": "http://www.winfieldcity.org/", "feature_id": "609", "state_name": "Alabama", "fips_county_cd": "93", "state_abbreviation": "AL", "full_county_name": "Marion County", "county_name": "Marion", "feat_class": "Populated Place", "primary_latitude": "33.92", "primary_longitude": "-87.81", "name": "Winfield"}, {"link_title": null, "guid": "c1d271d6f4e040018a545be6d4c1e3f7", "description": null, "fips_class": "C1", "url": "http://www.cityofheflin.org/", "feature_id": "354", "state_name": "Alabama", "fips_county_cd": "29", "state_abbreviation": "AL", "full_county_name": "Cleburne County", "county_name": "Cleburne", "feat_class": "Populated Place", "primary_latitude": "33.64", "primary_longitude": "-85.58", "name": "Heflin"}, {"link_title": null, "guid": "fe8425ed4e404be8ab9ffee5f9390561", "description": null, "fips_class": "C1", "url": "http://www.cityofhelena.org/", "feature_id": "355", "state_name": "Alabama", "fips_county_cd": "117", "state_abbreviation": "AL", "full_county_name": "Shelby County", "county_name": "Shelby", "feat_class": "Populated Place", "primary_latitude": "33.29", "primary_longitude": "-86.84", "name": "Helena"}, {"link_title": null, "guid": "d39c5bee1a8240af9ff361fa173e360c", "description": null, "fips_class": "C1", "url": "http://www.homewoodal.net/", "feature_id": "364", "state_name": "Alabama", "fips_county_cd": "73", "state_abbreviation": "AL", "full_county_name": "Jefferson County", "county_name": "Jefferson", "feat_class": "Populated Place", "primary_latitude": "33.47", "primary_longitude": "-86.8", "name": "Homewood"}, {"link_title": null, "guid": "a531b3997f3a492599c7e4a3eebb50b6", "description": null, "fips_class": "C1", "url": "http://www.hooveral.org/", "feature_id": "365", "state_name": "Alabama", "fips_county_cd": "73", "state_abbreviation": "AL", "full_county_name": "Jefferson County", "county_name": "Jefferson", "feat_class": "Populated Place", "primary_latitude": "33.4", "primary_longitude": "-86.81", "name": "Hoover"}, {"link_title": null, "guid": "ff7eef99b770496a8af92878359f0601", "description": null, "fips_class": "C1", "url": "http://www.hueytown.org/", "feature_id": "367", "state_name": "Alabama", "fips_county_cd": "73", "state_abbreviation": "AL", "full_county_name": "Jefferson County", "county_name": "Jefferson", "feat_class": "Populated Place", "primary_latitude": "33.45", "primary_longitude": "-86.99", "name": "Hueytown"}, {"link_title": null, "guid": "488e9206fcde4cc8ad78f8f1d47d9833", "description": null, "fips_class": "C1", "url": "http://www.hsvcity.org/", "feature_id": "368", "state_name": "Alabama", "fips_county_cd": "89", "state_abbreviation": "AL", "full_county_name": "Madison County", "county_name": "Madison", "feat_class": "Populated Place", "primary_latitude": "34.73", "primary_longitude": "-86.58", "name": "Huntsville"}, {"link_title": null, "guid": "741f5f5ae13c496aac290cf857127f0f", "description": null, "fips_class": "C1", "url": "http://www.cityofirondale.org/", "feature_id": "373", "state_name": "Alabama", "fips_county_cd": "73", "state_abbreviation": "AL", "full_county_name": "Jefferson County", "county_name": "Jefferson", "feat_class": "Populated Place", "primary_latitude": "33.53", "primary_longitude": "-86.7", "name": "Irondale"}, {"link_title": null, "guid": "955a4e1a60184522aec2fa510de6196f", "description": null, "fips_class": "C1", "url": "http://www.jacksonville-al.org/", "feature_id": "376", "state_name": "Alabama", "fips_county_cd": "15", "state_abbreviation": "AL", "full_county_name": "Calhoun County", "county_name": "Calhoun", "feat_class": "Populated Place", "primary_latitude": "33.81", "primary_longitude": "-85.76", "name": "Jacksonville"}, {"link_title": null, "guid": "c82cde0adf3d4dd8821070a0501a13b4", "description": null, "fips_class": "C1", "url": "http://www.jaspercity.com/", "feature_id": "377", "state_name": "Alabama", "fips_county_cd": "127", "state_abbreviation": "AL", "full_county_name": "Walker County", "county_name": "Walker", "feat_class": "Populated Place", "primary_latitude": "33.83", "primary_longitude": "-87.27", "name": "Jasper"}, {"link_title": null, "guid": "e6842eed13b9406a9741482d8c5f7eed", "description": null, "fips_class": "C1", "url": "http://www.leedsalabama.com/", "feature_id": "391", "state_name": "Alabama", "fips_county_cd": "73", "state_abbreviation": "AL", "full_county_name": "Jefferson County", "county_name": "Jefferson", "feat_class": "Populated Place", "primary_latitude": "33.54", "primary_longitude": "-86.54", "name": "Leeds"}, {"link_title": null, "guid": "5a893c1be59d408d84744bd9e1fb97bb", "description": null, "fips_class": "C1", "url": "http://www.leesburg-al.org/", "feature_id": "392", "state_name": "Alabama", "fips_county_cd": "19", "state_abbreviation": "AL", "full_county_name": "Cherokee County", "county_name": "Cherokee", "feat_class": "Populated Place", "primary_latitude": "34.17", "primary_longitude": "-85.76", "name": "Leesburg"}, {"link_title": null, "guid": "a352435b9d63435d9d055118c06be8b2", "description": null, "fips_class": "C1", "url": "http://www.lincolnalabama.com/", "feature_id": "398", "state_name": "Alabama", "fips_county_cd": "121", "state_abbreviation": "AL", "full_county_name": "Talladega County", "county_name": "Talladega", "feat_class": "Populated Place", "primary_latitude": "33.61", "primary_longitude": "-86.11", "name": "Lincoln"}, {"link_title": null, "guid": "e3f3fdfd12664e419ffeedc74d722db5", "description": null, "fips_class": "C1", "url": "http://www.cityoflineville.com/", "feature_id": "400", "state_name": "Alabama", "fips_county_cd": "27", "state_abbreviation": "AL", "full_county_name": "Clay County", "county_name": "Clay", "feat_class": "Populated Place", "primary_latitude": "33.31", "primary_longitude": "-85.75", "name": "Lineville"}, {"link_title": null, "guid": "cc1811400ec74a6c8c2d4d426de861af", "description": null, "fips_class": "C1", "url": "http://www.ci.livingston.al.us/", "feature_id": "404", "state_name": "Alabama", "fips_county_cd": "119", "state_abbreviation": "AL", "full_county_name": "Sumter County", "county_name": "Sumter", "feat_class": "Populated Place", "primary_latitude": "32.58", "primary_longitude": "-88.18", "name": "Livingston"}, {"link_title": null, "guid": "510737c661fb49cdaa61b013a7366bcc", "description": null, "fips_class": "C1", "url": "http://www.cityofabbeville.org/", "feature_id": "152", "state_name": "Alabama", "fips_county_cd": "67", "state_abbreviation": "AL", "full_county_name": "Henry County", "county_name": "Henry", "feat_class": "Populated Place", "primary_latitude": "31.57", "primary_longitude": "-85.25", "name": "Abbeville"}, {"link_title": null, "guid": "bef2f71f10bf4789a08645ce0cdfe770", "description": null, "fips_class": "C1", "url": "http://www.luverne.org/", "feature_id": "411", "state_name": "Alabama", "fips_county_cd": "41", "state_abbreviation": "AL", "full_county_name": "Crenshaw County", "county_name": "Crenshaw", "feat_class": "Populated Place", "primary_latitude": "31.71", "primary_longitude": "-86.26", "name": "Luverne"}, {"link_title": null, "guid": "6d50579063ab4a2cb2355cf3d4dcebc0", "description": null, "fips_class": "C1", "url": "http://www.cityofalabaster.com/", "feature_id": "156", "state_name": "Alabama", "fips_county_cd": "117", "state_abbreviation": "AL", "full_county_name": "Shelby County", "county_name": "Shelby", "feat_class": "Populated Place", "primary_latitude": "33.24", "primary_longitude": "-86.81", "name": "Alabaster"}, {"link_title": null, "guid": "b231d895610d410b8216f132a9622560", "description": null, "fips_class": "C1", "url": "http://www.alexandercityonline.com/", "feature_id": "158", "state_name": "Alabama", "fips_county_cd": "123", "state_abbreviation": "AL", "full_county_name": "Tallapoosa County", "county_name": "Tallapoosa", "feat_class": "Populated Place", "primary_latitude": "32.94", "primary_longitude": "-85.95", "name": "Alexander City"}, {"link_title": null, "guid": "8861809fa4024ec5bba2e0f15f5801bf", "description": null, "fips_class": "C1", "url": "http://www.ci.madison.al.us/", "feature_id": "414", "state_name": "Alabama", "fips_county_cd": "89", "state_abbreviation": "AL", "full_county_name": "Madison County", "county_name": "Madison", "feat_class": "Populated Place", "primary_latitude": "34.69", "primary_longitude": "-86.74", "name": "Madison"}, {"link_title": null, "guid": "93cef64f5c264596b0dca9c281cea389", "description": null, "fips_class": "C1", "url": "http://www.cityofandalusia.com/", "feature_id": "162", "state_name": "Alabama", "fips_county_cd": "39", "state_abbreviation": "AL", "full_county_name": "Covington County", "county_name": "Covington", "feat_class": "Populated Place", "primary_latitude": "31.3", "primary_longitude": "-86.48", "name": "Andalusia"}, {"link_title": null, "guid": "d0be4c94e9254d8584bb9ac37acd7bdc", "description": null, "fips_class": "C1", "url": "http://www.marionalabama.org/", "feature_id": "419", "state_name": "Alabama", "fips_county_cd": "105", "state_abbreviation": "AL", "full_county_name": "Perry County", "county_name": "Perry", "feat_class": "Populated Place", "primary_latitude": "32.63", "primary_longitude": "-87.31", "name": "Marion"}, {"link_title": null, "guid": "8c15dc2fb1e64db89ddb94508a676a4a", "description": null, "fips_class": "C1", "url": "http://www.ci.anniston.al.us/", "feature_id": "164", "state_name": "Alabama", "fips_county_cd": "15", "state_abbreviation": "AL", "full_county_name": "Calhoun County", "county_name": "Calhoun", "feat_class": "Populated Place", "primary_latitude": "33.65", "primary_longitude": "-85.83", "name": "Anniston"}, {"link_title": null, "guid": "3d14f939f40e4e90841fbc2a5ef3677d", "description": null, "fips_class": "C1", "url": "http://www.arabcity.org/", "feature_id": "165", "state_name": "Alabama", "fips_county_cd": "95", "state_abbreviation": "AL", "full_county_name": "Marshall County", "county_name": "Marshall", "feat_class": "Populated Place", "primary_latitude": "34.31", "primary_longitude": "-86.49", "name": "Arab"}, {"link_title": null, "guid": "eae754bb29394278a6b91b4b71def022", "description": null, "fips_class": "C1", "url": "http://www.cityofashland.net/", "feature_id": "171", "state_name": "Alabama", "fips_county_cd": "27", "state_abbreviation": "AL", "full_county_name": "Clay County", "county_name": "Clay", "feat_class": "Populated Place", "primary_latitude": "33.27", "primary_longitude": "-85.83", "name": "Ashland"}, {"link_title": null, "guid": "50119061fa5d4134aa42b31dd01118b0", "description": null, "fips_class": "C1", "url": "http://www.athensal.us", "feature_id": "173", "state_name": "Alabama", "fips_county_cd": "83", "state_abbreviation": "AL", "full_county_name": "Limestone County", "county_name": "Limestone", "feat_class": "Populated Place", "primary_latitude": "34.8", "primary_longitude": "-86.97", "name": "Athens"}, {"link_title": null, "guid": "5671d8e1eb81451a8cf6e7fd74dc1948", "description": null, "fips_class": "C1", "url": "http://www.cityofmillbrook.org/", "feature_id": "429", "state_name": "Alabama", "fips_county_cd": "51", "state_abbreviation": "AL", "full_county_name": "Elmore County", "county_name": "Elmore", "feat_class": "Populated Place", "primary_latitude": "32.47", "primary_longitude": "-86.36", "name": "Millbrook"}, {"link_title": null, "guid": "9f89281e6eb74b0b8b3ad298320ce6be", "description": null, "fips_class": "C1", "url": "http://www.cityofattalla.com/", "feature_id": "175", "state_name": "Alabama", "fips_county_cd": "55", "state_abbreviation": "AL", "full_county_name": "Etowah County", "county_name": "Etowah", "feat_class": "Populated Place", "primary_latitude": "34.02", "primary_longitude": "-86.08", "name": "Attalla"}, {"link_title": null, "guid": "452c563097d749f6a1515b2ac21b01db", "description": null, "fips_class": "C1", "url": "http://www.auburnalabama.org/", "feature_id": "176", "state_name": "Alabama", "fips_county_cd": "81", "state_abbreviation": "AL", "full_county_name": "Lee County", "county_name": "Lee", "feat_class": "Populated Place", "primary_latitude": "32.6", "primary_longitude": "-85.48", "name": "Auburn"}, {"link_title": null, "guid": "f59bc0e39d3e4b8388b03867924dfe91", "description": null, "fips_class": "C1", "url": "http://www.cityofmobile.org/", "feature_id": "432", "state_name": "Alabama", "fips_county_cd": "97", "state_abbreviation": "AL", "full_county_name": "Mobile County", "county_name": "Mobile", "feat_class": "Populated Place", "primary_latitude": "30.69", "primary_longitude": "-88.04", "name": "Mobile"}, {"link_title": null, "guid": "8424b3a7ded944548d8d46f37a1591cf", "description": null, "fips_class": "C1", "url": "http://www.monroecountyal.com/", "feature_id": "433", "state_name": "Alabama", "fips_county_cd": "99", "state_abbreviation": "AL", "full_county_name": "Monroe County", "county_name": "Monroe", "feat_class": "Populated Place", "primary_latitude": "31.52", "primary_longitude": "-87.32", "name": "Monroeville"}, {"link_title": null, "guid": "6318f16b69364292a5d4be141d16884f", "description": null, "fips_class": "C1", "url": "http://www.cityofmontevallo.com/", "feature_id": "434", "state_name": "Alabama", "fips_county_cd": "117", "state_abbreviation": "AL", "full_county_name": "Shelby County", "county_name": "Shelby", "feat_class": "Populated Place", "primary_latitude": "33.1", "primary_longitude": "-86.86", "name": "Montevallo"}, {"link_title": null, "guid": "6e36ac7af602454b9d8dd4f5552e6862", "description": null, "fips_class": "C1", "url": "http://www.montgomeryal.gov/", "feature_id": "435", "state_name": "Alabama", "fips_county_cd": "101", "state_abbreviation": "AL", "full_county_name": "Montgomery County", "county_name": "Montgomery", "feat_class": "Populated Place", "primary_latitude": "32.36", "primary_longitude": "-86.29", "name": "Montgomery"}, {"link_title": null, "guid": "e169a5614b934b4f9f595359d67648ce", "description": null, "fips_class": "C1", "url": "http://www.baileyton-al.com/", "feature_id": "180", "state_name": "Alabama", "fips_county_cd": "43", "state_abbreviation": "AL", "full_county_name": "Cullman County", "county_name": "Cullman", "feat_class": "Populated Place", "primary_latitude": "34.26", "primary_longitude": "-86.61", "name": "Baileyton"}, {"link_title": null, "guid": "40d4a1ccd8034b9c96ed86c3decb3bd4", "description": null, "fips_class": "C1", "url": "http://www.cityofbayminette.org/", "feature_id": "183", "state_name": "Alabama", "fips_county_cd": "3", "state_abbreviation": "AL", "full_county_name": "Baldwin County", "county_name": "Baldwin", "feat_class": "Populated Place", "primary_latitude": "30.88", "primary_longitude": "-87.77", "name": "Bay Minette"}, {"link_title": null, "guid": "909daf532d13422db025ead81c136b39", "description": null, "fips_class": "C1", "url": "http://eagle382.tripod.com/", "feature_id": "186", "state_name": "Alabama", "fips_county_cd": "99", "state_abbreviation": "AL", "full_county_name": "Monroe County", "county_name": "Monroe", "feat_class": "Populated Place", "primary_latitude": "31.73", "primary_longitude": "-87.2", "name": "Beatrice"}, {"link_title": null, "guid": "e1ff9eabb1bc47c08bf90f3f486ee3b4", "description": null, "fips_class": "C1", "url": "http://www.mtnbrook.org/", "feature_id": "443", "state_name": "Alabama", "fips_county_cd": "73", "state_abbreviation": "AL", "full_county_name": "Jefferson County", "county_name": "Jefferson", "feat_class": "Populated Place", "primary_latitude": "33.5", "primary_longitude": "-86.75", "name": "Mountain Brook"}, {"link_title": null, "guid": "c84b277eb32f4f8aa0536897f7fad71a", "description": null, "fips_class": "C1", "url": "http://www.cityofmuscleshoals.com/", "feature_id": "446", "state_name": "Alabama", "fips_county_cd": "33", "state_abbreviation": "AL", "full_county_name": "Colbert County", "county_name": "Colbert", "feat_class": "Populated Place", "primary_latitude": "34.74", "primary_longitude": "-87.66", "name": "Muscle Shoals"}, {"link_title": null, "guid": "d7da6e85553f40d0bd37bf2050df2565", "description": null, "fips_class": "C1", "url": "http://www.bessemeral.org/", "feature_id": "191", "state_name": "Alabama", "fips_county_cd": "73", "state_abbreviation": "AL", "full_county_name": "Jefferson County", "county_name": "Jefferson", "feat_class": "Populated Place", "primary_latitude": "33.4", "primary_longitude": "-86.95", "name": "Bessemer"}, {"link_title": null, "guid": "4526ce5f46294ed38b09be438626146d", "description": null, "fips_class": "C1", "url": "http://www.informationbirmingham.com/", "feature_id": "193", "state_name": "Alabama", "fips_county_cd": "73", "state_abbreviation": "AL", "full_county_name": "Jefferson County", "county_name": "Jefferson", "feat_class": "Populated Place", "primary_latitude": "33.52", "primary_longitude": "-86.8", "name": "Birmingham"}, {"link_title": null, "guid": "3cd4e9a90fe741ddb1508138ce1669e1", "description": null, "fips_class": "C1", "url": "http://www.cityofboaz.org/", "feature_id": "198", "state_name": "Alabama", "fips_county_cd": "95", "state_abbreviation": "AL", "full_county_name": "Marshall County", "county_name": "Marshall", "feat_class": "Populated Place", "primary_latitude": "34.2", "primary_longitude": "-86.16", "name": "Boaz"}, {"link_title": null, "guid": "88d816e72e1e496fb6c68a7f42ffea91", "description": null, "fips_class": "C1", "url": "http://www.townofbrantley.com/", "feature_id": "202", "state_name": "Alabama", "fips_county_cd": "41", "state_abbreviation": "AL", "full_county_name": "Crenshaw County", "county_name": "Crenshaw", "feat_class": "Populated Place", "primary_latitude": "31.58", "primary_longitude": "-86.25", "name": "Brantley"}, {"link_title": null, "guid": "31e3b001d37f4081bb9d74825dc7decf", "description": null, "fips_class": "C1", "url": "http://www.cityofbrewton.org/", "feature_id": "204", "state_name": "Alabama", "fips_county_cd": "53", "state_abbreviation": "AL", "full_county_name": "Escambia County", "county_name": "Escambia", "feat_class": "Populated Place", "primary_latitude": "31.1", "primary_longitude": "-87.07", "name": "Brewton"}, {"link_title": null, "guid": "efaa6b400b8c457b9c029e2bfe18291c", "description": null, "fips_class": "C1", "url": "http://www.bridgeportal.org/", "feature_id": "205", "state_name": "Alabama", "fips_county_cd": "71", "state_abbreviation": "AL", "full_county_name": "Jackson County", "county_name": "Jackson", "feat_class": "Populated Place", "primary_latitude": "34.94", "primary_longitude": "-85.71", "name": "Bridgeport"}, {"link_title": null, "guid": "e55a6e176f824f4392814f6258978c13", "description": null, "fips_class": "C1", "url": "http://www.cityofnorthport.org/", "feature_id": "462", "state_name": "Alabama", "fips_county_cd": "125", "state_abbreviation": "AL", "full_county_name": "Tuscaloosa County", "county_name": "Tuscaloosa", "feat_class": "Populated Place", "primary_latitude": "33.22", "primary_longitude": "-87.57", "name": "Northport"}, {"link_title": null, "guid": "67c87b0115304a04a334745d51eb5551", "description": null, "fips_class": "C1", "url": "http://www.brookwoodalabama.com/", "feature_id": "209", "state_name": "Alabama", "fips_county_cd": "125", "state_abbreviation": "AL", "full_county_name": "Tuscaloosa County", "county_name": "Tuscaloosa", "feat_class": "Populated Place", "primary_latitude": "33.25", "primary_longitude": "-87.32", "name": "Brookwood"}, {"link_title": null, "guid": "163212d4ca97402cb041be980da26960", "description": null, "fips_class": "C1", "url": "http://www.brundidge.org/", "feature_id": "210", "state_name": "Alabama", "fips_county_cd": "109", "state_abbreviation": "AL", "full_county_name": "Pike County", "county_name": "Pike", "feat_class": "Populated Place", "primary_latitude": "31.72", "primary_longitude": "-85.81", "name": "Brundidge"}, {"link_title": null, "guid": "a7d2145ed33a4c0dbf6b53660e4edffb", "description": null, "fips_class": "C1", "url": "http://www.cityofcalera.org/", "feature_id": "212", "state_name": "Alabama", "fips_county_cd": "117", "state_abbreviation": "AL", "full_county_name": "Shelby County", "county_name": "Shelby", "feat_class": "Populated Place", "primary_latitude": "33.1", "primary_longitude": "-86.75", "name": "Calera"}, {"link_title": null, "guid": "e688f0d95c3640138a80681df4763548", "description": null, "fips_class": "C1", "url": "http://www.opelika.org/", "feature_id": "471", "state_name": "Alabama", "fips_county_cd": "81", "state_abbreviation": "AL", "full_county_name": "Lee County", "county_name": "Lee", "feat_class": "Populated Place", "primary_latitude": "32.64", "primary_longitude": "-85.37", "name": "Opelika"}, {"link_title": null, "guid": "cbd3cc998d6348b7bb3ed7231b954f03", "description": null, "fips_class": "C1", "url": "http://www.cityoforangebeach.com/", "feature_id": "473", "state_name": "Alabama", "fips_county_cd": "3", "state_abbreviation": "AL", "full_county_name": "Baldwin County", "county_name": "Baldwin", "feat_class": "Populated Place", "primary_latitude": "30.29", "primary_longitude": "-87.57", "name": "Orange Beach"}, {"link_title": null, "guid": "948b13f5a2c44becb03567d49465cfba", "description": null, "fips_class": "C1", "url": "http://www.cedarbluff-al.org/", "feature_id": "220", "state_name": "Alabama", "fips_county_cd": "19", "state_abbreviation": "AL", "full_county_name": "Cherokee County", "county_name": "Cherokee", "feat_class": "Populated Place", "primary_latitude": "34.22", "primary_longitude": "-85.6", "name": "Cedar Bluff"}, {"link_title": null, "guid": "07b96ff6bde8466eace7c2f78da8738e", "description": null, "fips_class": "C1", "url": "http://www.oxfordalabama.org/", "feature_id": "476", "state_name": "Alabama", "fips_county_cd": "15", "state_abbreviation": "AL", "full_county_name": "Calhoun County", "county_name": "Calhoun", "feat_class": "Populated Place", "primary_latitude": "33.61", "primary_longitude": "-85.83", "name": "Oxford"}, {"link_title": null, "guid": "1a447ad965ed4d53aec7b7a5651d4829", "description": null, "fips_class": "C1", "url": "http://www.ozarkalabama.us/ozark/", "feature_id": "477", "state_name": "Alabama", "fips_county_cd": "45", "state_abbreviation": "AL", "full_county_name": "Dale County", "county_name": "Dale", "feat_class": "Populated Place", "primary_latitude": "31.45", "primary_longitude": "-85.64", "name": "Ozark"}, {"link_title": null, "guid": "80bf65e0bffc4db684c3ac4cbffe9616", "description": null, "fips_class": "C1", "url": "http://www.cityofcentre.org/", "feature_id": "222", "state_name": "Alabama", "fips_county_cd": "19", "state_abbreviation": "AL", "full_county_name": "Cherokee County", "county_name": "Cherokee", "feat_class": "Populated Place", "primary_latitude": "34.15", "primary_longitude": "-85.67", "name": "Centre"}, {"link_title": null, "guid": "e39ed32ec0f94263b013f61a1ce41f21", "description": null, "fips_class": "H1", "url": "http://www.autaugaco.org/", "feature_id": "36575", "state_name": "Alabama", "fips_county_cd": "1", "state_abbreviation": "AL", "full_county_name": null, "county_name": null, "feat_class": "Civil", "primary_latitude": "32.53", "primary_longitude": "-86.64", "name": "Autauga County"}, {"link_title": null, "guid": "7a60c2c5a95f4b5e92da0388ce149b62", "description": null, "fips_class": "C1", "url": "http://www.pelhamonline.com/", "feature_id": "480", "state_name": "Alabama", "fips_county_cd": "117", "state_abbreviation": "AL", "full_county_name": "Shelby County", "county_name": "Shelby", "feat_class": "Populated Place", "primary_latitude": "33.28", "primary_longitude": "-86.8", "name": "Pelham"}, {"link_title": null, "guid": "d30ef1d485d84184b3e6bdbb78408b3a", "description": null, "fips_class": "H1", "url": "http://www.co.baldwin.al.us/", "feature_id": "36576", "state_name": "Alabama", "fips_county_cd": "3", "state_abbreviation": "AL", "full_county_name": null, "county_name": null, "feat_class": "Civil", "primary_latitude": "30.75", "primary_longitude": "-87.76", "name": "Baldwin County"}, {"link_title": null, "guid": "b006e1e5a0f34d0eafb683053423e5dc", "description": null, "fips_class": "C1", "url": "http://www.cityofpellcity.com/", "feature_id": "481", "state_name": "Alabama", "fips_county_cd": "115", "state_abbreviation": "AL", "full_county_name": "St. Clair County", "county_name": "St. Clair", "feat_class": "Populated Place", "primary_latitude": "33.58", "primary_longitude": "-86.28", "name": "Pell City"}, {"link_title": null, "guid": "9e6ce63d05a34668891817120cf57ab4", "description": null, "fips_class": "H1", "url": "http://www.co.blount.al.us/", "feature_id": "36579", "state_name": "Alabama", "fips_county_cd": "9", "state_abbreviation": "AL", "full_county_name": null, "county_name": null, "feat_class": "Civil", "primary_latitude": "33.96", "primary_longitude": "-86.58", "name": "Blount County"}, {"link_title": null, "guid": "430a2569cc134f1992dc7c9235ae4183", "description": null, "fips_class": "C1", "url": "http://www.childersburg.org/", "feature_id": "228", "state_name": "Alabama", "fips_county_cd": "121", "state_abbreviation": "AL", "full_county_name": "Talladega County", "county_name": "Talladega", "feat_class": "Populated Place", "primary_latitude": "33.27", "primary_longitude": "-86.35", "name": "Childersburg"}, {"link_title": null, "guid": "df72ebae300c406294f5acefa817e815", "description": null, "fips_class": "C1", "url": "http://www.phenixcityal.us/", "feature_id": "484", "state_name": "Alabama", "fips_county_cd": "113", "state_abbreviation": "AL", "full_county_name": "Russell County", "county_name": "Russell", "feat_class": "Populated Place", "primary_latitude": "32.47", "primary_longitude": "-85", "name": "Phenix City"}, {"link_title": null, "guid": "c2d9e0ac861f4c84bb305c5e8b470260", "description": null, "fips_class": "C1", "url": "http://www.cityofcitronelle.com/", "feature_id": "229", "state_name": "Alabama", "fips_county_cd": "97", "state_abbreviation": "AL", "full_county_name": "Mobile County", "county_name": "Mobile", "feat_class": "Populated Place", "primary_latitude": "31.09", "primary_longitude": "-88.22", "name": "Citronelle"}, {"link_title": null, "guid": "708efed579044432bb79bb7df27ca91e", "description": null, "fips_class": "C1", "url": "http://www.clanton.al.us/", "feature_id": "230", "state_name": "Alabama", "fips_county_cd": "21", "state_abbreviation": "AL", "full_county_name": "Chilton County", "county_name": "Chilton", "feat_class": "Populated Place", "primary_latitude": "32.83", "primary_longitude": "-86.62", "name": "Clanton"}, {"link_title": null, "guid": "ac5e0f3a93114464aee44fb07e7a4530", "description": null, "fips_class": "H1", "url": "http://www.calhouncounty.org/", "feature_id": "36582", "state_name": "Alabama", "fips_county_cd": "15", "state_abbreviation": "AL", "full_county_name": null, "county_name": null, "feat_class": "Civil", "primary_latitude": "33.75", "primary_longitude": "-85.84", "name": "Calhoun County"}, {"link_title": null, "guid": "3dd585d9364a4ee68eb1e8df57da0150", "description": null, "fips_class": "C1", "url": "http://www.piedmontcity.org/", "feature_id": "487", "state_name": "Alabama", "fips_county_cd": "15", "state_abbreviation": "AL", "full_county_name": "Calhoun County", "county_name": "Calhoun", "feat_class": "Populated Place", "primary_latitude": "33.92", "primary_longitude": "-85.61", "name": "Piedmont"}, {"link_title": null, "guid": "13d8fc43db194c27a982b742c704d80f", "description": null, "fips_class": "H1", "url": "http://www.chamberscounty.com/", "feature_id": "36583", "state_name": "Alabama", "fips_county_cd": "17", "state_abbreviation": "AL", "full_county_name": null, "county_name": null, "feat_class": "Civil", "primary_latitude": "32.88", "primary_longitude": "-85.39", "name": "Chambers County"}, {"link_title": null, "guid": "aaf05bf0407b4f1a8a1045b38fd7166b", "description": null, "fips_class": "H1", "url": "http://www.clarkecountyal.com/", "feature_id": "36587", "state_name": "Alabama", "fips_county_cd": "25", "state_abbreviation": "AL", "full_county_name": null, "county_name": null, "feat_class": "Civil", "primary_latitude": "31.68", "primary_longitude": "-87.79", "name": "Clarke County"}, {"link_title": null, "guid": "337018c78d6246c7a50da6f441ca4b40", "description": null, "fips_class": "H1", "url": "http://www.colbertcounty.org/", "feature_id": "36591", "state_name": "Alabama", "fips_county_cd": "33", "state_abbreviation": "AL", "full_county_name": null, "county_name": null, "feat_class": "Civil", "primary_latitude": "34.68", "primary_longitude": "-87.81", "name": "Colbert County"}, {"link_title": null, "guid": "8565cd644a364d96a1eaa15ce7fe63f7", "description": null, "fips_class": "C1", "url": "http://www.collinsvillealabama.net/", "feature_id": "240", "state_name": "Alabama", "fips_county_cd": "49", "state_abbreviation": "AL", "full_county_name": "DeKalb County", "county_name": "DeKalb", "feat_class": "Populated Place", "primary_latitude": "34.26", "primary_longitude": "-85.86", "name": "Collinsville"}, {"link_title": null, "guid": "4f244c2f4b2d42a29b0c16cbb62ed5d4", "description": null, "fips_class": "C1", "url": "http://www.cityofcolumbiana.com/", "feature_id": "242", "state_name": "Alabama", "fips_county_cd": "117", "state_abbreviation": "AL", "full_county_name": "Shelby County", "county_name": "Shelby", "feat_class": "Populated Place", "primary_latitude": "33.17", "primary_longitude": "-86.6", "name": "Columbiana"}, {"link_title": null, "guid": "f21be9ab6bb548b4b978156d6db01fe4", "description": null, "fips_class": "C1", "url": "http://www.prattvilleal.gov/", "feature_id": "499", "state_name": "Alabama", "fips_county_cd": "1", "state_abbreviation": "AL", "full_county_name": "Autauga County", "county_name": "Autauga", "feat_class": "Populated Place", "primary_latitude": "32.46", "primary_longitude": "-86.45", "name": "Prattville"}, {"link_title": null, "guid": "2f2955f372974914bf2e031a9ce3b1ba", "description": null, "fips_class": "H1", "url": "http://www.co.cullman.al.us/", "feature_id": "36596", "state_name": "Alabama", "fips_county_cd": "43", "state_abbreviation": "AL", "full_county_name": null, "county_name": null, "feat_class": "Civil", "primary_latitude": "34.13", "primary_longitude": "-86.86", "name": "Cullman County"}, {"link_title": null, "guid": "37ddc8e6669f4e5090b860ebcd2e3c33", "description": null, "fips_class": "C1", "url": "http://www.courtlandalabama.com/", "feature_id": "247", "state_name": "Alabama", "fips_county_cd": "79", "state_abbreviation": "AL", "full_county_name": "Lawrence County", "county_name": "Lawrence", "feat_class": "Populated Place", "primary_latitude": "34.66", "primary_longitude": "-87.3", "name": "Courtland"}, {"link_title": null, "guid": "78b7113c58fb43ec988651264a27fd7d", "description": null, "fips_class": "C1", "url": "http://www.rbcalabama.com/", "feature_id": "504", "state_name": "Alabama", "fips_county_cd": "55", "state_abbreviation": "AL", "full_county_name": "Etowah County", "county_name": "Etowah", "feat_class": "Populated Place", "primary_latitude": "33.95", "primary_longitude": "-86.04", "name": "Rainbow City"}, {"link_title": null, "guid": "4ceb3e0136a3447f9d40e2b5560f1fc7", "description": null, "fips_class": "H1", "url": "http://elmoreco.org/", "feature_id": "36600", "state_name": "Alabama", "fips_county_cd": "51", "state_abbreviation": "AL", "full_county_name": null, "county_name": null, "feat_class": "Civil", "primary_latitude": "32.58", "primary_longitude": "-86.14", "name": "Elmore County"}, {"link_title": null, "guid": "96766fc4fd624939b679cf68c3276f4d", "description": null, "fips_class": "H1", "url": "http://www.co.escambia.al.us/", "feature_id": "36601", "state_name": "Alabama", "fips_county_cd": "53", "state_abbreviation": "AL", "full_county_name": null, "county_name": null, "feat_class": "Civil", "primary_latitude": "31.15", "primary_longitude": "-87.14", "name": "Escambia County"}, {"link_title": null, "guid": "77706848676b43da85c17e3f25ad030d", "description": null, "fips_class": "C1", "url": "http://www.crossvillealabama.com/", "feature_id": "250", "state_name": "Alabama", "fips_county_cd": "49", "state_abbreviation": "AL", "full_county_name": "DeKalb County", "county_name": "DeKalb", "feat_class": "Populated Place", "primary_latitude": "34.28", "primary_longitude": "-85.99", "name": "Crossville"}, {"link_title": null, "guid": "0a216677a6fd4045bf00ec02b6ce7b07", "description": null, "fips_class": "H1", "url": "http://www.etowahcounty.org/", "feature_id": "36602", "state_name": "Alabama", "fips_county_cd": "55", "state_abbreviation": "AL", "full_county_name": null, "county_name": null, "feat_class": "Civil", "primary_latitude": "34.06", "primary_longitude": "-86.04", "name": "Etowah County"}, {"link_title": null, "guid": "95ddc9d9ebbd4065aabfe6772c557213", "description": null, "fips_class": "C1", "url": "http://www.cullmancity.org/", "feature_id": "252", "state_name": "Alabama", "fips_county_cd": "43", "state_abbreviation": "AL", "full_county_name": "Cullman County", "county_name": "Cullman", "feat_class": "Populated Place", "primary_latitude": "34.17", "primary_longitude": "-86.84", "name": "Cullman"}, {"link_title": null, "guid": "a875c836179644c8972b75d52d76e496", "description": null, "fips_class": "C1", "url": "http://www.dalevilleal.com/", "feature_id": "254", "state_name": "Alabama", "fips_county_cd": "45", "state_abbreviation": "AL", "full_county_name": "Dale County", "county_name": "Dale", "feat_class": "Populated Place", "primary_latitude": "31.31", "primary_longitude": "-85.71", "name": "Daleville"}, {"link_title": null, "guid": "46f0d676d67f41b993cde37c4daf0778", "description": null, "fips_class": "C1", "url": "http://www.daphneal.com/", "feature_id": "255", "state_name": "Alabama", "fips_county_cd": "3", "state_abbreviation": "AL", "full_county_name": "Baldwin County", "county_name": "Baldwin", "feat_class": "Populated Place", "primary_latitude": "30.6", "primary_longitude": "-87.9", "name": "Daphne"}, {"link_title": null, "guid": "c63721a63d164c7596df5bc1c78787a2", "description": null, "fips_class": "C1", "url": "http://www.rehobethalabama.com/", "feature_id": "511", "state_name": "Alabama", "fips_county_cd": "69", "state_abbreviation": "AL", "full_county_name": "Houston County", "county_name": "Houston", "feat_class": "Populated Place", "primary_latitude": "31.12", "primary_longitude": "-85.45", "name": "Rehobeth"}, {"link_title": null, "guid": "6ea159cddb234037bed631c5f4f507d7", "description": null, "fips_class": "C1", "url": "http://www.tallasseechamber.com", "feature_id": "561", "state_name": "Alabama", "fips_county_cd": "123", "state_abbreviation": "AL", "full_county_name": "Tallapoosa County", "county_name": "Tallapoosa", "feat_class": "Populated Place", "primary_latitude": "32.53", "primary_longitude": "-85.89", "name": "Tallassee"}]