[{"link_title": null, "guid": "8621562f6c38485dae7fade96adc91a1", "description": null, "fips_class": "C1", "url": "http://www.rogersarkansas.com/", "feature_id": "1026", "state_name": "Arkansas", "fips_county_cd": "7", "state_abbreviation": "AR", "full_county_name": "Benton County", "county_name": "Benton", "feat_class": "Populated Place", "primary_latitude": "36.33", "primary_longitude": "-94.11", "name": "Rogers"}, {"link_title": null, "guid": "aec2a048eaee4758b57ae64ac41a34cd", "description": null, "fips_class": "C1", "url": "http://www.accessfayetteville.org/", "feature_id": "773", "state_name": "Arkansas", "fips_county_cd": "143", "state_abbreviation": "AR", "full_county_name": "Washington County", "county_name": "Washington", "feat_class": "Populated Place", "primary_latitude": "36.06", "primary_longitude": "-94.15", "name": "Fayetteville"}, {"link_title": null, "guid": "deeb03cb720c43b9a9fdf2911efa92fe", "description": null, "fips_class": "C1", "url": "http://www.russellvillearkansas.org/", "feature_id": "1032", "state_name": "Arkansas", "fips_county_cd": "115", "state_abbreviation": "AR", "full_county_name": "Pope County", "county_name": "Pope", "feat_class": "Populated Place", "primary_latitude": "35.27", "primary_longitude": "-93.13", "name": "Russellville"}, {"link_title": null, "guid": "573cecb2f3ea49eb9b5929d49a231ba8", "description": null, "fips_class": "C1", "url": "http://www.fsark.com/", "feature_id": "781", "state_name": "Arkansas", "fips_county_cd": "131", "state_abbreviation": "AR", "full_county_name": "Sebastian County", "county_name": "Sebastian", "feat_class": "Populated Place", "primary_latitude": "35.38", "primary_longitude": "-94.39", "name": "Fort Smith"}, {"link_title": null, "guid": "3fe42c0c01534babb138447f2c3b9d80", "description": null, "fips_class": "C1", "url": "http://www.searcy.com", "feature_id": "1040", "state_name": "Arkansas", "fips_county_cd": "145", "state_abbreviation": "AR", "full_county_name": "White County", "county_name": "White", "feat_class": "Populated Place", "primary_latitude": "35.25", "primary_longitude": "-91.73", "name": "Searcy"}, {"link_title": null, "guid": "da565a736e2040cb8d6cb3a866609197", "description": null, "fips_class": "C1", "url": "http://www.ci.sherwood.ar.us/", "feature_id": "1045", "state_name": "Arkansas", "fips_county_cd": "119", "state_abbreviation": "AR", "full_county_name": "Pulaski County", "county_name": "Pulaski", "feat_class": "Populated Place", "primary_latitude": "34.81", "primary_longitude": "-92.22", "name": "Sherwood"}, {"link_title": null, "guid": "89e0f91b18144c51aa21b646c300eec2", "description": null, "fips_class": "C1", "url": "http://www.siloamsprings.com/", "feature_id": "1048", "state_name": "Arkansas", "fips_county_cd": "7", "state_abbreviation": "AR", "full_county_name": "Benton County", "county_name": "Benton", "feat_class": "Populated Place", "primary_latitude": "36.18", "primary_longitude": "-94.54", "name": "Siloam Springs"}, {"link_title": null, "guid": "3fb8eb24839a495080524617dc0a4ae4", "description": null, "fips_class": "H1", "url": "http://www.baxtercounty.org/", "feature_id": "36644", "state_name": "Arkansas", "fips_county_cd": "5", "state_abbreviation": "AR", "full_county_name": null, "county_name": null, "feat_class": "Civil", "primary_latitude": "36.33", "primary_longitude": "-92.36", "name": "Baxter County"}, {"link_title": null, "guid": "5143be57987a4676893cfaa341233cd5", "description": null, "fips_class": "H1", "url": "http://www.co.benton.ar.us/", "feature_id": "36645", "state_name": "Arkansas", "fips_county_cd": "7", "state_abbreviation": "AR", "full_county_name": null, "county_name": null, "feat_class": "Civil", "primary_latitude": "36.33", "primary_longitude": "-94.33", "name": "Benton County"}, {"link_title": null, "guid": "b361cad05581484b9afdf1a600d61ea5", "description": null, "fips_class": "H1", "url": "http://www.clarkcountyarkansas.com/", "feature_id": "36651", "state_name": "Arkansas", "fips_county_cd": "19", "state_abbreviation": "AR", "full_county_name": null, "county_name": null, "feat_class": "Civil", "primary_latitude": "34.05", "primary_longitude": "-93.16", "name": "Clark County"}, {"link_title": null, "guid": "a9389111fa914d8db9bc525d1ce34b30", "description": null, "fips_class": "H1", "url": "http://www.craigheadcounty.org/", "feature_id": "36657", "state_name": "Arkansas", "fips_county_cd": "31", "state_abbreviation": "AR", "full_county_name": null, "county_name": null, "feat_class": "Civil", "primary_latitude": "35.81", "primary_longitude": "-90.65", "name": "Craighead County"}, {"link_title": null, "guid": "0a07ab9b11ac4e4ab82294a7b8665ac8", "description": null, "fips_class": "H1", "url": "http://www.crawford-county.org/", "feature_id": "36658", "state_name": "Arkansas", "fips_county_cd": "33", "state_abbreviation": "AR", "full_county_name": null, "county_name": null, "feat_class": "Civil", "primary_latitude": "35.58", "primary_longitude": "-94.23", "name": "Crawford County"}, {"link_title": null, "guid": "d9e6885de0fd480d93fc142c6fe18061", "description": null, "fips_class": "H1", "url": "http://www.garlandcounty.org/", "feature_id": "36667", "state_name": "Arkansas", "fips_county_cd": "51", "state_abbreviation": "AR", "full_county_name": null, "county_name": null, "feat_class": "Civil", "primary_latitude": "34.56", "primary_longitude": "-93.15", "name": "Garland County"}, {"link_title": null, "guid": "f1666f27311949f88aaa917f8bf61dc6", "description": null, "fips_class": "H1", "url": "http://www.jacksoncountyar.org/", "feature_id": "36675", "state_name": "Arkansas", "fips_county_cd": "67", "state_abbreviation": "AR", "full_county_name": null, "county_name": null, "feat_class": "Civil", "primary_latitude": "35.6", "primary_longitude": "-91.2", "name": "Jackson County"}, {"link_title": null, "guid": "c95aec44cd7441628b0eb535dac628fa", "description": null, "fips_class": "H1", "url": "http://www.jeffersoncountyar.gov/", "feature_id": "36676", "state_name": "Arkansas", "fips_county_cd": "69", "state_abbreviation": "AR", "full_county_name": null, "county_name": null, "feat_class": "Civil", "primary_latitude": "34.23", "primary_longitude": "-91.9", "name": "Jefferson County"}, {"link_title": null, "guid": "f179127adf1f4a639be8bf1bacd7bd59", "description": null, "fips_class": "C1", "url": "http://www.ci.west-memphis.ar.us/", "feature_id": "1102", "state_name": "Arkansas", "fips_county_cd": "35", "state_abbreviation": "AR", "full_county_name": "Crittenden County", "county_name": "Crittenden", "feat_class": "Populated Place", "primary_latitude": "35.14", "primary_longitude": "-90.18", "name": "West Memphis"}, {"link_title": null, "guid": "a338872ae95d411e94c12f8eb19e604f", "description": null, "fips_class": "H1", "url": "http://www.mcagov.com/", "feature_id": "36688", "state_name": "Arkansas", "fips_county_cd": "93", "state_abbreviation": "AR", "full_county_name": null, "county_name": null, "feat_class": "Civil", "primary_latitude": "35.76", "primary_longitude": "-90.05", "name": "Mississippi County"}, {"link_title": null, "guid": "e8393841f33d4eb18efe4f6187065643", "description": null, "fips_class": "C1", "url": "http://www.cityhs.net/", "feature_id": "849", "state_name": "Arkansas", "fips_county_cd": "51", "state_abbreviation": "AR", "full_county_name": "Garland County", "county_name": "Garland", "feat_class": "Populated Place", "primary_latitude": "34.5", "primary_longitude": "-93.05", "name": "Hot Springs"}, {"link_title": null, "guid": "8d31fee54181472294a4420eebe080b7", "description": null, "fips_class": "H1", "url": "http://co.nevada.ar.us/", "feature_id": "36691", "state_name": "Arkansas", "fips_county_cd": "99", "state_abbreviation": "AR", "full_county_name": null, "county_name": null, "feat_class": "Civil", "primary_latitude": "33.65", "primary_longitude": "-93.33", "name": "Nevada County"}, {"link_title": null, "guid": "d6f97b5f9c014c4cb6bee7b022ec6c55", "description": null, "fips_class": "H1", "url": "http://www.poinsettcounty.us/", "feature_id": "36697", "state_name": "Arkansas", "fips_county_cd": "111", "state_abbreviation": "AR", "full_county_name": null, "county_name": null, "feat_class": "Civil", "primary_latitude": "35.56", "primary_longitude": "-90.65", "name": "Poinsett County"}, {"link_title": null, "guid": "65dcfe7553a54c20a99213f8a1d99b6e", "description": null, "fips_class": "H1", "url": "http://www.co.pulaski.ar.us/", "feature_id": "36701", "state_name": "Arkansas", "fips_county_cd": "119", "state_abbreviation": "AR", "full_county_name": null, "county_name": null, "feat_class": "Civil", "primary_latitude": "34.76", "primary_longitude": "-92.3", "name": "Pulaski County"}, {"link_title": null, "guid": "ff4ac5cc1e9e4c4fa70656cfa737ac7d", "description": null, "fips_class": "C1", "url": "http://www.cityofjacksonville.net", "feature_id": "862", "state_name": "Arkansas", "fips_county_cd": "119", "state_abbreviation": "AR", "full_county_name": "Pulaski County", "county_name": "Pulaski", "feat_class": "Populated Place", "primary_latitude": "34.86", "primary_longitude": "-92.11", "name": "Jacksonville"}, {"link_title": null, "guid": "1172a3116c574afa9a0f4d6e30cc92c1", "description": null, "fips_class": "H1", "url": "http://www.salinecounty.org/", "feature_id": "36704", "state_name": "Arkansas", "fips_county_cd": "125", "state_abbreviation": "AR", "full_county_name": null, "county_name": null, "feat_class": "Civil", "primary_latitude": "34.65", "primary_longitude": "-92.68", "name": "Saline County"}, {"link_title": null, "guid": "d733c28ce06f46e59173914e695f10a8", "description": null, "fips_class": "H1", "url": "http://www.sebastiancountyonline.com/", "feature_id": "36707", "state_name": "Arkansas", "fips_county_cd": "131", "state_abbreviation": "AR", "full_county_name": null, "county_name": null, "feat_class": "Civil", "primary_latitude": "35.16", "primary_longitude": "-94.26", "name": "Sebastian County"}, {"link_title": null, "guid": "6bff69bd92fd499a86a1a43689b7cb64", "description": null, "fips_class": "H1", "url": "http://www.seviercounty-ar.gov/", "feature_id": "36708", "state_name": "Arkansas", "fips_county_cd": "133", "state_abbreviation": "AR", "full_county_name": null, "county_name": null, "feat_class": "Civil", "primary_latitude": "33.98", "primary_longitude": "-94.25", "name": "Sevier County"}, {"link_title": null, "guid": "99ab8a68bd8047199273150b086aacae", "description": null, "fips_class": "C1", "url": "http://www.jonesboro.org/", "feature_id": "869", "state_name": "Arkansas", "fips_county_cd": "31", "state_abbreviation": "AR", "full_county_name": "Craighead County", "county_name": "Craighead", "feat_class": "Populated Place", "primary_latitude": "35.84", "primary_longitude": "-90.7", "name": "Jonesboro"}, {"link_title": null, "guid": "219429d49303445bb5e557eb8c801a33", "description": null, "fips_class": "H1", "url": "http://www.sharpcounty.org/", "feature_id": "36709", "state_name": "Arkansas", "fips_county_cd": "135", "state_abbreviation": "AR", "full_county_name": null, "county_name": null, "feat_class": "Civil", "primary_latitude": "36.15", "primary_longitude": "-91.51", "name": "Sharp County"}, {"link_title": null, "guid": "c9eb1ef30d964d98b729efb444c04f7f", "description": null, "fips_class": "H1", "url": "http://www.co.washington.ar.us/", "feature_id": "36713", "state_name": "Arkansas", "fips_county_cd": "143", "state_abbreviation": "AR", "full_county_name": null, "county_name": null, "feat_class": "Civil", "primary_latitude": "35.96", "primary_longitude": "-94.23", "name": "Washington County"}, {"link_title": null, "guid": "bb1a44ccb09a4deeaea9135d5b804f06", "description": null, "fips_class": "H1", "url": "http://www.whitecountyar.org/", "feature_id": "36714", "state_name": "Arkansas", "fips_county_cd": "145", "state_abbreviation": "AR", "full_county_name": null, "county_name": null, "feat_class": "Civil", "primary_latitude": "35.25", "primary_longitude": "-91.73", "name": "White County"}, {"link_title": null, "guid": "c16dc0fe1e514465ac5993324db9d44c", "description": null, "fips_class": "C1", "url": "http://www.cityofarkadelphia.com/", "feature_id": "629", "state_name": "Arkansas", "fips_county_cd": "19", "state_abbreviation": "AR", "full_county_name": "Clark County", "county_name": "Clark", "feat_class": "Populated Place", "primary_latitude": "34.12", "primary_longitude": "-93.05", "name": "Arkadelphia"}, {"link_title": null, "guid": "4a1c368450894c5da7a46ccccc1c8798", "description": null, "fips_class": "C1", "url": "http://www.cityoflavaca.com/", "feature_id": "886", "state_name": "Arkansas", "fips_county_cd": "131", "state_abbreviation": "AR", "full_county_name": "Sebastian County", "county_name": "Sebastian", "feat_class": "Populated Place", "primary_latitude": "35.33", "primary_longitude": "-94.17", "name": "Lavaca"}, {"link_title": null, "guid": "7624136d9e9f432582f97091e7679438", "description": null, "fips_class": "C1", "url": "http://www.littlerock.org/", "feature_id": "897", "state_name": "Arkansas", "fips_county_cd": "119", "state_abbreviation": "AR", "full_county_name": "Pulaski County", "county_name": "Pulaski", "feat_class": "Populated Place", "primary_latitude": "34.74", "primary_longitude": "-92.28", "name": "Little Rock"}, {"link_title": null, "guid": "1eccef3e82ab42c8baa334f297be861b", "description": null, "fips_class": "C1", "url": "http://www.bentonvillear.com/", "feature_id": "653", "state_name": "Arkansas", "fips_county_cd": "7", "state_abbreviation": "AR", "full_county_name": "Benton County", "county_name": "Benton", "feat_class": "Populated Place", "primary_latitude": "36.37", "primary_longitude": "-94.2", "name": "Bentonville"}, {"link_title": null, "guid": "e659291bdd814c5b8ce89375db2b813e", "description": null, "fips_class": "C1", "url": "http://www.maumelle.org/", "feature_id": "923", "state_name": "Arkansas", "fips_county_cd": "119", "state_abbreviation": "AR", "full_county_name": "Pulaski County", "county_name": "Pulaski", "feat_class": "Populated Place", "primary_latitude": "34.86", "primary_longitude": "-92.4", "name": "Maumelle"}, {"link_title": null, "guid": "a5537e50a29c4cfd89d1c53cbf1e9780", "description": null, "fips_class": "C1", "url": "http://www.mymelbournearkansas.com/", "feature_id": "933", "state_name": "Arkansas", "fips_county_cd": "65", "state_abbreviation": "AR", "full_county_name": "Izard County", "county_name": "Izard", "feat_class": "Populated Place", "primary_latitude": "36.05", "primary_longitude": "-91.9", "name": "Melbourne"}, {"link_title": null, "guid": "f219bd88a1354cdaa0f065111631bae8", "description": null, "fips_class": "C1", "url": "http://www.cityofmena.org/", "feature_id": "934", "state_name": "Arkansas", "fips_county_cd": "113", "state_abbreviation": "AR", "full_county_name": "Polk County", "county_name": "Polk", "feat_class": "Populated Place", "primary_latitude": "34.58", "primary_longitude": "-94.23", "name": "Mena"}, {"link_title": null, "guid": "5a3459e289ba41efaa689082c748feeb", "description": null, "fips_class": "C1", "url": "http://www.carlislear.org", "feature_id": "694", "state_name": "Arkansas", "fips_county_cd": "85", "state_abbreviation": "AR", "full_county_name": "Lonoke County", "county_name": "Lonoke", "feat_class": "Populated Place", "primary_latitude": "34.78", "primary_longitude": "-91.74", "name": "Carlisle"}, {"link_title": null, "guid": "37c63e67ea5244088d56d56e8ff92190", "description": null, "fips_class": "C1", "url": "https://www.mylocalgov.com/nashvillear/", "feature_id": "957", "state_name": "Arkansas", "fips_county_cd": "61", "state_abbreviation": "AR", "full_county_name": "Howard County", "county_name": "Howard", "feat_class": "Populated Place", "primary_latitude": "33.94", "primary_longitude": "-93.84", "name": "Nashville"}, {"link_title": null, "guid": "edbba7f34a9246ceb3377d41871a5ab3", "description": null, "fips_class": "C1", "url": "http://www.cherokeevillage.org/", "feature_id": "706", "state_name": "Arkansas", "fips_county_cd": "135", "state_abbreviation": "AR", "full_county_name": "Sharp County", "county_name": "Sharp", "feat_class": "Populated Place", "primary_latitude": "36.29", "primary_longitude": "-91.51", "name": "Cherokee Village"}, {"link_title": null, "guid": "5f99e726b30941a7afdc750c3fef69db", "description": null, "fips_class": "C1", "url": "http://www.northlr.org/", "feature_id": "964", "state_name": "Arkansas", "fips_county_cd": "119", "state_abbreviation": "AR", "full_county_name": "Pulaski County", "county_name": "Pulaski", "feat_class": "Populated Place", "primary_latitude": "34.76", "primary_longitude": "-92.26", "name": "North Little Rock"}, {"link_title": null, "guid": "8217bdbafb8e4ff3b9256b30f82368bc", "description": null, "fips_class": "C1", "url": "http://www.cityofconway.org/", "feature_id": "718", "state_name": "Arkansas", "fips_county_cd": "45", "state_abbreviation": "AR", "full_county_name": "Faulkner County", "county_name": "Faulkner", "feat_class": "Populated Place", "primary_latitude": "35.08", "primary_longitude": "-92.44", "name": "Conway"}, {"link_title": null, "guid": "0bd27adcd58b4ce5a79c3aca33fc5c7a", "description": null, "fips_class": "C1", "url": "http://www.cityofcrossett.net", "feature_id": "726", "state_name": "Arkansas", "fips_county_cd": "3", "state_abbreviation": "AR", "full_county_name": "Ashley County", "county_name": "Ashley", "feat_class": "Populated Place", "primary_latitude": "33.12", "primary_longitude": "-91.96", "name": "Crossett"}, {"link_title": null, "guid": "ab90dc402589479387fb60eef1446f40", "description": null, "fips_class": "C1", "url": "http://www.cityofeurekasprings.org/", "feature_id": "766", "state_name": "Arkansas", "fips_county_cd": "15", "state_abbreviation": "AR", "full_county_name": "Carroll County", "county_name": "Carroll", "feat_class": "Populated Place", "primary_latitude": "36.4", "primary_longitude": "-93.73", "name": "Eureka Springs"}]