[{"link_title": null, "guid": "d870729b967a4cd7abddf2045cdabcfe", "description": null, "fips_class": "C1", "url": "http://www.townofbreckenridge.com/", "feature_id": "1793", "state_name": "Colorado", "fips_county_cd": "117", "state_abbreviation": "CO", "full_county_name": "Summit County", "county_name": "Summit", "feat_class": "Populated Place", "primary_latitude": "39.48", "primary_longitude": "-106.03", "name": "Breckenridge"}, {"link_title": null, "guid": "5f7f88d7d53c467ab4bec29067340763", "description": null, "fips_class": "C1", "url": "http://www.brightonco.gov/", "feature_id": "1794", "state_name": "Colorado", "fips_county_cd": "1", "state_abbreviation": "CO", "full_county_name": "Adams County", "county_name": "Adams", "feat_class": "Populated Place", "primary_latitude": "39.98", "primary_longitude": "-104.82", "name": "Brighton"}, {"link_title": null, "guid": "6ea40ad12ae347db9b5f736933693d4d", "description": null, "fips_class": "C1", "url": "http://www.ci.broomfield.co.us/", "feature_id": "1796", "state_name": "Colorado", "fips_county_cd": "14", "state_abbreviation": "CO", "full_county_name": "Broomfield County", "county_name": "Broomfield", "feat_class": "Populated Place", "primary_latitude": "39.92", "primary_longitude": "-105.08", "name": "Broomfield"}, {"link_title": null, "guid": "b40f196543ca405f8029501dbc6e8d75", "description": null, "fips_class": "C1", "url": "http://www.brushcolo.com/", "feature_id": "1797", "state_name": "Colorado", "fips_county_cd": "87", "state_abbreviation": "CO", "full_county_name": "Morgan County", "county_name": "Morgan", "feat_class": "Populated Place", "primary_latitude": "40.25", "primary_longitude": "-103.62", "name": "Brush"}, {"link_title": null, "guid": "d8b7cf1aa3dd4d04b47dbe9090a52a35", "description": null, "fips_class": "C1", "url": "http://www.canoncity.org/", "feature_id": "1802", "state_name": "Colorado", "fips_county_cd": "43", "state_abbreviation": "CO", "full_county_name": "Fremont County", "county_name": "Fremont", "feat_class": "Populated Place", "primary_latitude": "38.39", "primary_longitude": "-105.21", "name": "Ca\u00f1on City"}, {"link_title": null, "guid": "83c316daf3c6400b95a4fc350e80bf60", "description": null, "fips_class": "C1", "url": "http://www.carbondalegov.org/", "feature_id": "1803", "state_name": "Colorado", "fips_county_cd": "45", "state_abbreviation": "CO", "full_county_name": "Garfield County", "county_name": "Garfield", "feat_class": "Populated Place", "primary_latitude": "39.4", "primary_longitude": "-107.21", "name": "Carbondale"}, {"link_title": null, "guid": "8af95acc015c4896b8ec3bb7c190a174", "description": null, "fips_class": "C1", "url": "http://www.crgov.com/", "feature_id": "1804", "state_name": "Colorado", "fips_county_cd": "35", "state_abbreviation": "CO", "full_county_name": "Douglas County", "county_name": "Douglas", "feat_class": "Populated Place", "primary_latitude": "39.37", "primary_longitude": "-104.85", "name": "Castle Rock"}, {"link_title": null, "guid": "60ef8f1ba00e4abb9d953c9d8fe8448e", "description": null, "fips_class": "C1", "url": "http://www.cedaredgecolorado.com/", "feature_id": "1805", "state_name": "Colorado", "fips_county_cd": "29", "state_abbreviation": "CO", "full_county_name": "Delta County", "county_name": "Delta", "feat_class": "Populated Place", "primary_latitude": "38.9", "primary_longitude": "-107.92", "name": "Cedaredge"}, {"link_title": null, "guid": "354ad9d91c234f1a85c28b54fc0dd50d", "description": null, "fips_class": "C1", "url": "http://www.centennialcolorado.com/", "feature_id": "1806", "state_name": "Colorado", "fips_county_cd": "5", "state_abbreviation": "CO", "full_county_name": "Arapahoe County", "county_name": "Arapahoe", "feat_class": "Populated Place", "primary_latitude": "39.57", "primary_longitude": "-104.87", "name": "Centennial"}, {"link_title": null, "guid": "5558f5c5bfc14871a8ea2a68b5d93d78", "description": null, "fips_class": "C1", "url": "http://www.cherryhillsvillage.com/", "feature_id": "1811", "state_name": "Colorado", "fips_county_cd": "5", "state_abbreviation": "CO", "full_county_name": "Arapahoe County", "county_name": "Arapahoe", "feat_class": "Populated Place", "primary_latitude": "39.64", "primary_longitude": "-104.95", "name": "Cherry Hills Village"}, {"link_title": null, "guid": "cd80bdfe944f46029e2c27922f58a45e", "description": null, "fips_class": "C1", "url": "http://www.springsgov.com/", "feature_id": "1816", "state_name": "Colorado", "fips_county_cd": "41", "state_abbreviation": "CO", "full_county_name": "El Paso County", "county_name": "El Paso", "feat_class": "Populated Place", "primary_latitude": "38.83", "primary_longitude": "-104.82", "name": "Colorado Springs"}, {"link_title": null, "guid": "3529c847779041bebdac93fc340f858f", "description": null, "fips_class": "C1", "url": "http://www.ci.commerce-city.co.us/", "feature_id": "1818", "state_name": "Colorado", "fips_county_cd": "1", "state_abbreviation": "CO", "full_county_name": "Adams County", "county_name": "Adams", "feat_class": "Populated Place", "primary_latitude": "39.8", "primary_longitude": "-104.93", "name": "Commerce City"}, {"link_title": null, "guid": "4c1cea7d64e94c02882707342be687e3", "description": null, "fips_class": "C1", "url": "http://www.cityofcortez.com/", "feature_id": "1819", "state_name": "Colorado", "fips_county_cd": "83", "state_abbreviation": "CO", "full_county_name": "Montezuma County", "county_name": "Montezuma", "feat_class": "Populated Place", "primary_latitude": "37.34", "primary_longitude": "-108.58", "name": "Cortez"}, {"link_title": null, "guid": "0a53525a7997408f86f1baffbd38ef93", "description": null, "fips_class": "C1", "url": "http://www.ci.craig.co.us/", "feature_id": "1820", "state_name": "Colorado", "fips_county_cd": "81", "state_abbreviation": "CO", "full_county_name": "Moffat County", "county_name": "Moffat", "feat_class": "Populated Place", "primary_latitude": "40.51", "primary_longitude": "-107.54", "name": "Craig"}, {"link_title": null, "guid": "017484cc22ba48929ff1dea61702ce56", "description": null, "fips_class": "C1", "url": "http://www.crestedbutte-co.gov/", "feature_id": "1823", "state_name": "Colorado", "fips_county_cd": "51", "state_abbreviation": "CO", "full_county_name": "Gunnison County", "county_name": "Gunnison", "feat_class": "Populated Place", "primary_latitude": "38.86", "primary_longitude": "-106.98", "name": "Crested Butte"}, {"link_title": null, "guid": "c89f730598af46b0a3253bf82dc4a1e1", "description": null, "fips_class": "C1", "url": "http://www.cripple-creek.co.us/", "feature_id": "1825", "state_name": "Colorado", "fips_county_cd": "119", "state_abbreviation": "CO", "full_county_name": "Teller County", "county_name": "Teller", "feat_class": "Populated Place", "primary_latitude": "38.74", "primary_longitude": "-105.17", "name": "Cripple Creek"}, {"link_title": null, "guid": "a37fdc274ded41b98c9c2f5c77c9c4bd", "description": null, "fips_class": "C1", "url": "http://www.ci.dacono.co.us/", "feature_id": "1828", "state_name": "Colorado", "fips_county_cd": "123", "state_abbreviation": "CO", "full_county_name": "Weld County", "county_name": "Weld", "feat_class": "Populated Place", "primary_latitude": "40.08", "primary_longitude": "-104.93", "name": "Dacono"}, {"link_title": null, "guid": "9f1b9656456740bdb51ee7795fbdcff3", "description": null, "fips_class": "C1", "url": "http://www.deertrailcolorado.org/", "feature_id": "1830", "state_name": "Colorado", "fips_county_cd": "5", "state_abbreviation": "CO", "full_county_name": "Arapahoe County", "county_name": "Arapahoe", "feat_class": "Populated Place", "primary_latitude": "39.61", "primary_longitude": "-104.04", "name": "Deer Trail"}, {"link_title": null, "guid": "9cf7affd8fb349d98132878c1ae78cd6", "description": null, "fips_class": "C1", "url": "http://www.delta-co.gov/", "feature_id": "1832", "state_name": "Colorado", "fips_county_cd": "29", "state_abbreviation": "CO", "full_county_name": "Delta County", "county_name": "Delta", "feat_class": "Populated Place", "primary_latitude": "38.74", "primary_longitude": "-108.06", "name": "Delta"}, {"link_title": null, "guid": "bb690dc853a24f86a6844231c2ddd8d0", "description": null, "fips_class": "C1", "url": "http://www.denvergov.org/", "feature_id": "1833", "state_name": "Colorado", "fips_county_cd": "31", "state_abbreviation": "CO", "full_county_name": "Denver County", "county_name": "Denver", "feat_class": "Populated Place", "primary_latitude": "39.73", "primary_longitude": "-104.98", "name": "Denver"}, {"link_title": null, "guid": "06f63ddb9ce84ff2be97911bb0bfeade", "description": null, "fips_class": "C1", "url": "http://www.townofdillon.com/", "feature_id": "1834", "state_name": "Colorado", "fips_county_cd": "117", "state_abbreviation": "CO", "full_county_name": "Summit County", "county_name": "Summit", "feat_class": "Populated Place", "primary_latitude": "39.63", "primary_longitude": "-106.04", "name": "Dillon"}, {"link_title": null, "guid": "da5a4ae29e4545328f3d63ceacc1e703", "description": null, "fips_class": "C1", "url": "http://www.durangogov.org/", "feature_id": "1838", "state_name": "Colorado", "fips_county_cd": "67", "state_abbreviation": "CO", "full_county_name": "La Plata County", "county_name": "La Plata", "feat_class": "Populated Place", "primary_latitude": "37.27", "primary_longitude": "-107.88", "name": "Durango"}, {"link_title": null, "guid": "657792ba1da74a0fa3175ca5591211a0", "description": null, "fips_class": "C1", "url": "http://www.townofeagle.org/", "feature_id": "1840", "state_name": "Colorado", "fips_county_cd": "37", "state_abbreviation": "CO", "full_county_name": "Eagle County", "county_name": "Eagle", "feat_class": "Populated Place", "primary_latitude": "39.65", "primary_longitude": "-106.82", "name": "Eagle"}, {"link_title": null, "guid": "9ddf69359da04e288e7403d56b37d648", "description": null, "fips_class": "C1", "url": "http://www.eatonco.org/", "feature_id": "1841", "state_name": "Colorado", "fips_county_cd": "123", "state_abbreviation": "CO", "full_county_name": "Weld County", "county_name": "Weld", "feat_class": "Populated Place", "primary_latitude": "40.53", "primary_longitude": "-104.71", "name": "Eaton"}, {"link_title": null, "guid": "cd6da7e3bb774d508755e60c9e07184a", "description": null, "fips_class": "C1", "url": "http://www.edgewaterco.com/", "feature_id": "1843", "state_name": "Colorado", "fips_county_cd": "59", "state_abbreviation": "CO", "full_county_name": "Jefferson County", "county_name": "Jefferson", "feat_class": "Populated Place", "primary_latitude": "39.75", "primary_longitude": "-105.06", "name": "Edgewater"}, {"link_title": null, "guid": "1eaccf3e413849e4a92d6374765b23f5", "description": null, "fips_class": "C1", "url": "http://www.englewoodgov.org/", "feature_id": "1846", "state_name": "Colorado", "fips_county_cd": "5", "state_abbreviation": "CO", "full_county_name": "Arapahoe County", "county_name": "Arapahoe", "feat_class": "Populated Place", "primary_latitude": "39.64", "primary_longitude": "-104.98", "name": "Englewood"}, {"link_title": null, "guid": "c54d907bbbf745c18dea1ec676b7ce60", "description": null, "fips_class": "C1", "url": "http://www.erieco.gov/", "feature_id": "1847", "state_name": "Colorado", "fips_county_cd": "13", "state_abbreviation": "CO", "full_county_name": "Boulder County", "county_name": "Boulder", "feat_class": "Populated Place", "primary_latitude": "40.05", "primary_longitude": "-105.04", "name": "Erie"}, {"link_title": null, "guid": "0964ee03564d41469c142967e9831134", "description": null, "fips_class": "C1", "url": "http://www.estesnet.com/", "feature_id": "1849", "state_name": "Colorado", "fips_county_cd": "69", "state_abbreviation": "CO", "full_county_name": "Larimer County", "county_name": "Larimer", "feat_class": "Populated Place", "primary_latitude": "40.37", "primary_longitude": "-105.52", "name": "Estes Park"}, {"link_title": null, "guid": "63b085f8b12a4189a4ac4de86a0c2d1d", "description": null, "fips_class": "C1", "url": "http://www.cityofevans.org/", "feature_id": "1850", "state_name": "Colorado", "fips_county_cd": "123", "state_abbreviation": "CO", "full_county_name": "Weld County", "county_name": "Weld", "feat_class": "Populated Place", "primary_latitude": "40.37", "primary_longitude": "-104.69", "name": "Evans"}, {"link_title": null, "guid": "7e044faeec71410f96f5c60ed89fb870", "description": null, "fips_class": "C1", "url": "http://www.fairplayco.us/", "feature_id": "1851", "state_name": "Colorado", "fips_county_cd": "93", "state_abbreviation": "CO", "full_county_name": "Park County", "county_name": "Park", "feat_class": "Populated Place", "primary_latitude": "39.22", "primary_longitude": "-106", "name": "Fairplay"}, {"link_title": null, "guid": "6c96bc7b7b004972a07372f2ee153f9b", "description": null, "fips_class": "C1", "url": "http://www.ci.federal-heights.co.us/", "feature_id": "1852", "state_name": "Colorado", "fips_county_cd": "1", "state_abbreviation": "CO", "full_county_name": "Adams County", "county_name": "Adams", "feat_class": "Populated Place", "primary_latitude": "39.85", "primary_longitude": "-104.99", "name": "Federal Heights"}, {"link_title": null, "guid": "0ecdb6121af9436e84055c9dc8eb4e34", "description": null, "fips_class": "C1", "url": "http://www.ci.firestone.co.us/", "feature_id": "1853", "state_name": "Colorado", "fips_county_cd": "123", "state_abbreviation": "CO", "full_county_name": "Weld County", "county_name": "Weld", "feat_class": "Populated Place", "primary_latitude": "40.11", "primary_longitude": "-104.93", "name": "Firestone"}, {"link_title": null, "guid": "f93233deb6254529ad4d3a8703b148a8", "description": null, "fips_class": "C1", "url": "http://www.fcgov.com/", "feature_id": "1857", "state_name": "Colorado", "fips_county_cd": "69", "state_abbreviation": "CO", "full_county_name": "Larimer County", "county_name": "Larimer", "feat_class": "Populated Place", "primary_latitude": "40.58", "primary_longitude": "-105.08", "name": "Fort Collins"}, {"link_title": null, "guid": "95acfad4f93143a0afefc103dd7549dc", "description": null, "fips_class": "C1", "url": "http://www.fortlupton.org/", "feature_id": "1858", "state_name": "Colorado", "fips_county_cd": "123", "state_abbreviation": "CO", "full_county_name": "Weld County", "county_name": "Weld", "feat_class": "Populated Place", "primary_latitude": "40.08", "primary_longitude": "-104.81", "name": "Fort Lupton"}, {"link_title": null, "guid": "72e8e02fb1ef4109b780551bd771be24", "description": null, "fips_class": "C1", "url": "http://www.cityoffortmorgan.com/", "feature_id": "1859", "state_name": "Colorado", "fips_county_cd": "87", "state_abbreviation": "CO", "full_county_name": "Morgan County", "county_name": "Morgan", "feat_class": "Populated Place", "primary_latitude": "40.25", "primary_longitude": "-103.79", "name": "Fort Morgan"}, {"link_title": null, "guid": "058d6f3bb0264da4bf2f34ba059a9938", "description": null, "fips_class": "C1", "url": "http://www.ci.fountain.co.us/", "feature_id": "1860", "state_name": "Colorado", "fips_county_cd": "41", "state_abbreviation": "CO", "full_county_name": "El Paso County", "county_name": "El Paso", "feat_class": "Populated Place", "primary_latitude": "38.68", "primary_longitude": "-104.7", "name": "Fountain"}, {"link_title": null, "guid": "c3ccc70fc498402fbdb35186582a1cb2", "description": null, "fips_class": "C1", "url": "http://www.frederickco.gov/", "feature_id": "1864", "state_name": "Colorado", "fips_county_cd": "123", "state_abbreviation": "CO", "full_county_name": "Weld County", "county_name": "Weld", "feat_class": "Populated Place", "primary_latitude": "40.09", "primary_longitude": "-104.93", "name": "Frederick"}, {"link_title": null, "guid": "88b21409888e4a3596ee1f07eea80c46", "description": null, "fips_class": "C1", "url": "http://www.townoffrisco.com/", "feature_id": "1865", "state_name": "Colorado", "fips_county_cd": "117", "state_abbreviation": "CO", "full_county_name": "Summit County", "county_name": "Summit", "feat_class": "Populated Place", "primary_latitude": "39.57", "primary_longitude": "-106.09", "name": "Frisco"}, {"link_title": null, "guid": "ee3ac0d97f9549b4b6d05e6550d1fb6e", "description": null, "fips_class": "C1", "url": "http://www.fruita.org/", "feature_id": "1866", "state_name": "Colorado", "fips_county_cd": "77", "state_abbreviation": "CO", "full_county_name": "Mesa County", "county_name": "Mesa", "feat_class": "Populated Place", "primary_latitude": "39.15", "primary_longitude": "-108.72", "name": "Fruita"}, {"link_title": null, "guid": "a914663cd8ae40a4bdc80cdff218ed5b", "description": null, "fips_class": "C1", "url": "http://www.town.georgetown.co.us/", "feature_id": "1869", "state_name": "Colorado", "fips_county_cd": "19", "state_abbreviation": "CO", "full_county_name": "Clear Creek County", "county_name": "Clear Creek", "feat_class": "Populated Place", "primary_latitude": "39.7", "primary_longitude": "-105.69", "name": "Georgetown"}, {"link_title": null, "guid": "1d49eafe70fd48f6b14bd45a248e6b64", "description": null, "fips_class": "C1", "url": "http://www.glendale.co.us/", "feature_id": "1871", "state_name": "Colorado", "fips_county_cd": "5", "state_abbreviation": "CO", "full_county_name": "Arapahoe County", "county_name": "Arapahoe", "feat_class": "Populated Place", "primary_latitude": "39.7", "primary_longitude": "-104.93", "name": "Glendale"}, {"link_title": null, "guid": "d18d82ce0e624a63add4cf902e3a5594", "description": null, "fips_class": "C1", "url": "http://www.ci.glenwood-springs.co.us/", "feature_id": "1872", "state_name": "Colorado", "fips_county_cd": "45", "state_abbreviation": "CO", "full_county_name": "Garfield County", "county_name": "Garfield", "feat_class": "Populated Place", "primary_latitude": "39.55", "primary_longitude": "-107.32", "name": "Glenwood Springs"}, {"link_title": null, "guid": "af7d7d91d6564690b65fad31e31c19b4", "description": null, "fips_class": "C1", "url": "http://www.ci.golden.co.us/", "feature_id": "1873", "state_name": "Colorado", "fips_county_cd": "59", "state_abbreviation": "CO", "full_county_name": "Jefferson County", "county_name": "Jefferson", "feat_class": "Populated Place", "primary_latitude": "39.75", "primary_longitude": "-105.22", "name": "Golden"}, {"link_title": null, "guid": "0967c7ce5378417386602487ec4fd0c3", "description": null, "fips_class": "C1", "url": "http://www.ci.grandjct.co.us/", "feature_id": "1876", "state_name": "Colorado", "fips_county_cd": "77", "state_abbreviation": "CO", "full_county_name": "Mesa County", "county_name": "Mesa", "feat_class": "Populated Place", "primary_latitude": "39.06", "primary_longitude": "-108.55", "name": "Grand Junction"}, {"link_title": null, "guid": "3a5256cfe0fb40b7b221412856a6fae2", "description": null, "fips_class": "C1", "url": "http://www.greeleygov.com/", "feature_id": "1878", "state_name": "Colorado", "fips_county_cd": "123", "state_abbreviation": "CO", "full_county_name": "Weld County", "county_name": "Weld", "feat_class": "Populated Place", "primary_latitude": "40.42", "primary_longitude": "-104.7", "name": "Greeley"}, {"link_title": null, "guid": "c7f096330c1c42d18b924ddafba79bee", "description": null, "fips_class": "C1", "url": "http://www.greenwoodvillage.com/", "feature_id": "1881", "state_name": "Colorado", "fips_county_cd": "5", "state_abbreviation": "CO", "full_county_name": "Arapahoe County", "county_name": "Arapahoe", "feat_class": "Populated Place", "primary_latitude": "39.61", "primary_longitude": "-104.95", "name": "Greenwood Village"}, {"link_title": null, "guid": "e4058f148cf34204815a1224c167f476", "description": null, "fips_class": "C1", "url": "http://www.cityofgunnison-co.gov/", "feature_id": "1883", "state_name": "Colorado", "fips_county_cd": "51", "state_abbreviation": "CO", "full_county_name": "Gunnison County", "county_name": "Gunnison", "feat_class": "Populated Place", "primary_latitude": "38.54", "primary_longitude": "-106.92", "name": "Gunnison"}, {"link_title": null, "guid": "a262ce06ed354c20b4a1f4581926354a", "description": null, "fips_class": "C1", "url": "http://www.townofgypsum.com/", "feature_id": "1884", "state_name": "Colorado", "fips_county_cd": "37", "state_abbreviation": "CO", "full_county_name": "Eagle County", "county_name": "Eagle", "feat_class": "Populated Place", "primary_latitude": "39.64", "primary_longitude": "-106.95", "name": "Gypsum"}, {"link_title": null, "guid": "7962f3b391bc4d7ebd2f493d01e9c0b6", "description": null, "fips_class": "C1", "url": "http://www.townofhayden.org/", "feature_id": "1888", "state_name": "Colorado", "fips_county_cd": "107", "state_abbreviation": "CO", "full_county_name": "Routt County", "county_name": "Routt", "feat_class": "Populated Place", "primary_latitude": "40.49", "primary_longitude": "-107.25", "name": "Hayden"}, {"link_title": null, "guid": "e5ce929f39cd48fd9c16e36defbc7367", "description": null, "fips_class": "C1", "url": "http://www.hudsoncolorado.org/", "feature_id": "1895", "state_name": "Colorado", "fips_county_cd": "123", "state_abbreviation": "CO", "full_county_name": "Weld County", "county_name": "Weld", "feat_class": "Populated Place", "primary_latitude": "40.07", "primary_longitude": "-104.64", "name": "Hudson"}, {"link_title": null, "guid": "9c6db4f3cc9b406b93f928236b5b59f2", "description": null, "fips_class": "C1", "url": "http://www.idahospringsco.com/", "feature_id": "1897", "state_name": "Colorado", "fips_county_cd": "19", "state_abbreviation": "CO", "full_county_name": "Clear Creek County", "county_name": "Clear Creek", "feat_class": "Populated Place", "primary_latitude": "39.74", "primary_longitude": "-105.51", "name": "Idaho Springs"}, {"link_title": null, "guid": "be9e2c7d2bf24c028a9316a85290bfe1", "description": null, "fips_class": "C1", "url": "http://www.townofjohnstown.com/", "feature_id": "1901", "state_name": "Colorado", "fips_county_cd": "123", "state_abbreviation": "CO", "full_county_name": "Weld County", "county_name": "Weld", "feat_class": "Populated Place", "primary_latitude": "40.33", "primary_longitude": "-104.91", "name": "Johnstown"}, {"link_title": null, "guid": "96fada35c47e4441a7fe468a1604095a", "description": null, "fips_class": "C1", "url": "http://www.ci.la-junta.co.us/", "feature_id": "1910", "state_name": "Colorado", "fips_county_cd": "89", "state_abbreviation": "CO", "full_county_name": "Otero County", "county_name": "Otero", "feat_class": "Populated Place", "primary_latitude": "37.98", "primary_longitude": "-103.54", "name": "La Junta"}, {"link_title": null, "guid": "ee392d9a617148eab65956130bbd3888", "description": null, "fips_class": "C1", "url": "http://www.cityoflafayette.com/", "feature_id": "1913", "state_name": "Colorado", "fips_county_cd": "13", "state_abbreviation": "CO", "full_county_name": "Boulder County", "county_name": "Boulder", "feat_class": "Populated Place", "primary_latitude": "39.99", "primary_longitude": "-105.08", "name": "Lafayette"}, {"link_title": null, "guid": "6c7c9bc2015544c78277e6feeac8c5d2", "description": null, "fips_class": "C1", "url": "http://www.ci.lakewood.co.us/", "feature_id": "1916", "state_name": "Colorado", "fips_county_cd": "59", "state_abbreviation": "CO", "full_county_name": "Jefferson County", "county_name": "Jefferson", "feat_class": "Populated Place", "primary_latitude": "39.7", "primary_longitude": "-105.08", "name": "Lakewood"}, {"link_title": null, "guid": "76e2ab62767b4a1ba3f5501beff689f4", "description": null, "fips_class": "C1", "url": "http://www.ci.lamar.co.us/", "feature_id": "1917", "state_name": "Colorado", "fips_county_cd": "99", "state_abbreviation": "CO", "full_county_name": "Prowers County", "county_name": "Prowers", "feat_class": "Populated Place", "primary_latitude": "38.08", "primary_longitude": "-102.62", "name": "Lamar"}, {"link_title": null, "guid": "dc9742c20f174369b25edd5f92fb3220", "description": null, "fips_class": "C1", "url": "http://www.townoflimon.com/", "feature_id": "1921", "state_name": "Colorado", "fips_county_cd": "73", "state_abbreviation": "CO", "full_county_name": "Lincoln County", "county_name": "Lincoln", "feat_class": "Populated Place", "primary_latitude": "39.26", "primary_longitude": "-103.69", "name": "Limon"}, {"link_title": null, "guid": "e28e4c7ec8e54e73afd5fd0e38497baf", "description": null, "fips_class": "C1", "url": "http://www.littletongov.org/", "feature_id": "1922", "state_name": "Colorado", "fips_county_cd": "5", "state_abbreviation": "CO", "full_county_name": "Arapahoe County", "county_name": "Arapahoe", "feat_class": "Populated Place", "primary_latitude": "39.61", "primary_longitude": "-105.01", "name": "Littleton"}, {"link_title": null, "guid": "5d5f6e8e8de24de0b1d27ab9e2055bf3", "description": null, "fips_class": "C1", "url": "http://www.cityoflonetree.com/", "feature_id": "1925", "state_name": "Colorado", "fips_county_cd": "35", "state_abbreviation": "CO", "full_county_name": "Douglas County", "county_name": "Douglas", "feat_class": "Populated Place", "primary_latitude": "39.53", "primary_longitude": "-104.89", "name": "Lone Tree"}, {"link_title": null, "guid": "d0c693d4fa7a42ab8bbb699dcbfe1ab4", "description": null, "fips_class": "C1", "url": "http://www.ci.longmont.co.us/", "feature_id": "1926", "state_name": "Colorado", "fips_county_cd": "13", "state_abbreviation": "CO", "full_county_name": "Boulder County", "county_name": "Boulder", "feat_class": "Populated Place", "primary_latitude": "40.16", "primary_longitude": "-105.1", "name": "Longmont"}, {"link_title": null, "guid": "d8f4eb77b2554938926fd8e934569ffc", "description": null, "fips_class": "C1", "url": "http://www.louisvilleco.gov/", "feature_id": "1927", "state_name": "Colorado", "fips_county_cd": "13", "state_abbreviation": "CO", "full_county_name": "Boulder County", "county_name": "Boulder", "feat_class": "Populated Place", "primary_latitude": "39.97", "primary_longitude": "-105.13", "name": "Louisville"}, {"link_title": null, "guid": "24c667d781c040529bc67aae0be41d3b", "description": null, "fips_class": "C1", "url": "http://www.ci.loveland.co.us/", "feature_id": "1928", "state_name": "Colorado", "fips_county_cd": "69", "state_abbreviation": "CO", "full_county_name": "Larimer County", "county_name": "Larimer", "feat_class": "Populated Place", "primary_latitude": "40.39", "primary_longitude": "-105.07", "name": "Loveland"}, {"link_title": null, "guid": "8835774682b641e6ab985b09a5ded1b7", "description": null, "fips_class": "C1", "url": "http://www.townoflyons.com/", "feature_id": "1929", "state_name": "Colorado", "fips_county_cd": "13", "state_abbreviation": "CO", "full_county_name": "Boulder County", "county_name": "Boulder", "feat_class": "Populated Place", "primary_latitude": "40.22", "primary_longitude": "-105.27", "name": "Lyons"}, {"link_title": null, "guid": "1438f278ccd84239bd31c84ceff32105", "description": null, "fips_class": "C1", "url": "http://manitousprings-co.gov/", "feature_id": "1932", "state_name": "Colorado", "fips_county_cd": "41", "state_abbreviation": "CO", "full_county_name": "El Paso County", "county_name": "El Paso", "feat_class": "Populated Place", "primary_latitude": "38.85", "primary_longitude": "-104.91", "name": "Manitou Springs"}, {"link_title": null, "guid": "f2adece42aa84eafaec723c36d8e272c", "description": null, "fips_class": "C1", "url": "http://www.townofmeeker.org/", "feature_id": "1936", "state_name": "Colorado", "fips_county_cd": "103", "state_abbreviation": "CO", "full_county_name": "Rio Blanco County", "county_name": "Rio Blanco", "feat_class": "Populated Place", "primary_latitude": "40.03", "primary_longitude": "-107.91", "name": "Meeker"}, {"link_title": null, "guid": "9513e3aca01e46d99e5c6fb46c4adcd5", "description": null, "fips_class": "C1", "url": "http://www.millikenco.gov/", "feature_id": "1938", "state_name": "Colorado", "fips_county_cd": "123", "state_abbreviation": "CO", "full_county_name": "Weld County", "county_name": "Weld", "feat_class": "Populated Place", "primary_latitude": "40.32", "primary_longitude": "-104.85", "name": "Milliken"}, {"link_title": null, "guid": "3a7075b4dd234c548b1b80d216f76dbb", "description": null, "fips_class": "C1", "url": "http://www.minturn.org/Government/index.html", "feature_id": "1939", "state_name": "Colorado", "fips_county_cd": "37", "state_abbreviation": "CO", "full_county_name": "Eagle County", "county_name": "Eagle", "feat_class": "Populated Place", "primary_latitude": "39.58", "primary_longitude": "-106.43", "name": "Minturn"}, {"link_title": null, "guid": "246bd24b2af34283b1fb605958542f99", "description": null, "fips_class": "C1", "url": "http://www.cityofmontevista.com/", "feature_id": "1941", "state_name": "Colorado", "fips_county_cd": "105", "state_abbreviation": "CO", "full_county_name": "Rio Grande County", "county_name": "Rio Grande", "feat_class": "Populated Place", "primary_latitude": "37.57", "primary_longitude": "-106.14", "name": "Monte Vista"}, {"link_title": null, "guid": "45084b3da5204559b9ea3883059098d4", "description": null, "fips_class": "C1", "url": "http://www.cityofmontrose.org/", "feature_id": "1943", "state_name": "Colorado", "fips_county_cd": "85", "state_abbreviation": "CO", "full_county_name": "Montrose County", "county_name": "Montrose", "feat_class": "Populated Place", "primary_latitude": "38.47", "primary_longitude": "-107.87", "name": "Montrose"}, {"link_title": null, "guid": "5653a37cfa6048ce820eb52328fb7e2f", "description": null, "fips_class": "C1", "url": "http://www.townofmonument.net/", "feature_id": "1944", "state_name": "Colorado", "fips_county_cd": "41", "state_abbreviation": "CO", "full_county_name": "El Paso County", "county_name": "El Paso", "feat_class": "Populated Place", "primary_latitude": "39.09", "primary_longitude": "-104.87", "name": "Monument"}, {"link_title": null, "guid": "7c944d220e59451a894b51951effdcd6", "description": null, "fips_class": "C1", "url": "http://town.morrison.co.us/", "feature_id": "1945", "state_name": "Colorado", "fips_county_cd": "59", "state_abbreviation": "CO", "full_county_name": "Jefferson County", "county_name": "Jefferson", "feat_class": "Populated Place", "primary_latitude": "39.65", "primary_longitude": "-105.19", "name": "Morrison"}, {"link_title": null, "guid": "dc8dc13f19a2498cb7339b853980d091", "description": null, "fips_class": "C1", "url": "http://www.mountain-village.co.us/", "feature_id": "1948", "state_name": "Colorado", "fips_county_cd": "113", "state_abbreviation": "CO", "full_county_name": "San Miguel County", "county_name": "San Miguel", "feat_class": "Populated Place", "primary_latitude": "37.93", "primary_longitude": "-107.85", "name": "Mountain Village"}, {"link_title": null, "guid": "d5894f9b688c469d8c1539055236fbda", "description": null, "fips_class": "C1", "url": "http://www.town.nederland.co.us/", "feature_id": "1950", "state_name": "Colorado", "fips_county_cd": "13", "state_abbreviation": "CO", "full_county_name": "Boulder County", "county_name": "Boulder", "feat_class": "Populated Place", "primary_latitude": "39.96", "primary_longitude": "-105.51", "name": "Nederland"}, {"link_title": null, "guid": "de1babbbbb77461f8bc52674d8773dbe", "description": null, "fips_class": "C1", "url": "http://www.newcastlecolorado.org/", "feature_id": "1951", "state_name": "Colorado", "fips_county_cd": "45", "state_abbreviation": "CO", "full_county_name": "Garfield County", "county_name": "Garfield", "feat_class": "Populated Place", "primary_latitude": "39.57", "primary_longitude": "-107.53", "name": "New Castle"}, {"link_title": null, "guid": "348b6e608f3b4b0399e71506faf0aad7", "description": null, "fips_class": "C1", "url": "http://www.northglenn.org/", "feature_id": "1953", "state_name": "Colorado", "fips_county_cd": "1", "state_abbreviation": "CO", "full_county_name": "Adams County", "county_name": "Adams", "feat_class": "Populated Place", "primary_latitude": "39.88", "primary_longitude": "-104.98", "name": "Northglenn"}, {"link_title": null, "guid": "26d6473471774225a065ab6640469cf1", "description": null, "fips_class": "C1", "url": "http://www.townofpagosasprings.com/", "feature_id": "1966", "state_name": "Colorado", "fips_county_cd": "7", "state_abbreviation": "CO", "full_county_name": "Archuleta County", "county_name": "Archuleta", "feat_class": "Populated Place", "primary_latitude": "37.26", "primary_longitude": "-107", "name": "Pagosa Springs"}, {"link_title": null, "guid": "71e63361b80a4a9b93db9f306c2fa3e7", "description": null, "fips_class": "C1", "url": "http://www.ci.palmer-lake.co.us/", "feature_id": "1968", "state_name": "Colorado", "fips_county_cd": "41", "state_abbreviation": "CO", "full_county_name": "El Paso County", "county_name": "El Paso", "feat_class": "Populated Place", "primary_latitude": "39.12", "primary_longitude": "-104.91", "name": "Palmer Lake"}, {"link_title": null, "guid": "76eaab60be5c4bb3934ca78fa9dd4559", "description": null, "fips_class": "C1", "url": "http://www.parkeronline.org/", "feature_id": "1972", "state_name": "Colorado", "fips_county_cd": "35", "state_abbreviation": "CO", "full_county_name": "Douglas County", "county_name": "Douglas", "feat_class": "Populated Place", "primary_latitude": "39.51", "primary_longitude": "-104.76", "name": "Parker"}, {"link_title": null, "guid": "06b0120d5038489a8fca64588eb52f5f", "description": null, "fips_class": "H1", "url": "http://www.co.adams.co.us/", "feature_id": "36790", "state_name": "Colorado", "fips_county_cd": "1", "state_abbreviation": "CO", "full_county_name": null, "county_name": null, "feat_class": "Civil", "primary_latitude": "39.86", "primary_longitude": "-104.38", "name": "Adams County"}, {"link_title": null, "guid": "6f1514adda1c4399bc967c674f423238", "description": null, "fips_class": "C1", "url": "http://www.plattevillegov.org/", "feature_id": "1976", "state_name": "Colorado", "fips_county_cd": "123", "state_abbreviation": "CO", "full_county_name": "Weld County", "county_name": "Weld", "feat_class": "Populated Place", "primary_latitude": "40.21", "primary_longitude": "-104.82", "name": "Platteville"}, {"link_title": null, "guid": "7a621b73764f400cb4309d936c26189b", "description": null, "fips_class": "H1", "url": "http://www.co.arapahoe.co.us/", "feature_id": "36792", "state_name": "Colorado", "fips_county_cd": "5", "state_abbreviation": "CO", "full_county_name": null, "county_name": null, "feat_class": "Civil", "primary_latitude": "39.64", "primary_longitude": "-104.38", "name": "Arapahoe County"}, {"link_title": null, "guid": "eb5f6f327dc149b6bd9e99031873190f", "description": null, "fips_class": "C1", "url": "http://www.ponchaspringscolorado.us/", "feature_id": "1977", "state_name": "Colorado", "fips_county_cd": "15", "state_abbreviation": "CO", "full_county_name": "Chaffee County", "county_name": "Chaffee", "feat_class": "Populated Place", "primary_latitude": "38.51", "primary_longitude": "-106.07", "name": "Poncha Springs"}, {"link_title": null, "guid": "eef9bf2e42e04840b320333af7ece245", "description": null, "fips_class": "H1", "url": "http://www.archuletacounty.org/", "feature_id": "36793", "state_name": "Colorado", "fips_county_cd": "7", "state_abbreviation": "CO", "full_county_name": null, "county_name": null, "feat_class": "Civil", "primary_latitude": "37.18", "primary_longitude": "-107.03", "name": "Archuleta County"}, {"link_title": null, "guid": "ae4500b021a547efbaea705fdec495e4", "description": null, "fips_class": "C1", "url": "http://www.pueblo.us/", "feature_id": "1979", "state_name": "Colorado", "fips_county_cd": "101", "state_abbreviation": "CO", "full_county_name": "Pueblo County", "county_name": "Pueblo", "feat_class": "Populated Place", "primary_latitude": "38.25", "primary_longitude": "-104.6", "name": "Pueblo"}, {"link_title": null, "guid": "b07c8a9831144ca68d927937a5573ff6", "description": null, "fips_class": "H1", "url": "http://www.bouldercounty.org/", "feature_id": "36796", "state_name": "Colorado", "fips_county_cd": "13", "state_abbreviation": "CO", "full_county_name": null, "county_name": null, "feat_class": "Civil", "primary_latitude": "40.08", "primary_longitude": "-105.35", "name": "Boulder County"}, {"link_title": null, "guid": "6484e77ebaa049b989f19ff12fc37242", "description": null, "fips_class": "H6", "url": "http://www.ci.broomfield.co.us/", "feature_id": "36797", "state_name": "Colorado", "fips_county_cd": "14", "state_abbreviation": "CO", "full_county_name": null, "county_name": null, "feat_class": "Civil", "primary_latitude": "39.9205411", "primary_longitude": "-105.0866504", "name": "Broomfield County"}, {"link_title": null, "guid": "38913b03d5ee412496f2dac359926220", "description": null, "fips_class": "H1", "url": "http://www.chaffeecounty.org/", "feature_id": "36798", "state_name": "Colorado", "fips_county_cd": "15", "state_abbreviation": "CO", "full_county_name": null, "county_name": null, "feat_class": "Civil", "primary_latitude": "38.76", "primary_longitude": "-106.18", "name": "Chaffee County"}, {"link_title": null, "guid": "d93125810ffb4426ac3cfbebf9c74e98", "description": null, "fips_class": "H1", "url": "http://www.co.clear-creek.co.us/", "feature_id": "36800", "state_name": "Colorado", "fips_county_cd": "19", "state_abbreviation": "CO", "full_county_name": null, "county_name": null, "feat_class": "Civil", "primary_latitude": "39.68", "primary_longitude": "-105.65", "name": "Clear Creek County"}, {"link_title": null, "guid": "6a3b5d275c874b8c92a3fac4318183f5", "description": null, "fips_class": "C1", "url": "http://www.rifleco.org/", "feature_id": "1986", "state_name": "Colorado", "fips_county_cd": "45", "state_abbreviation": "CO", "full_county_name": "Garfield County", "county_name": "Garfield", "feat_class": "Populated Place", "primary_latitude": "39.53", "primary_longitude": "-107.78", "name": "Rifle"}, {"link_title": null, "guid": "29cb41290eea419ebd3ad2bf90c9ca44", "description": null, "fips_class": "H1", "url": "http://www.deltacounty.com/", "feature_id": "36805", "state_name": "Colorado", "fips_county_cd": "29", "state_abbreviation": "CO", "full_county_name": null, "county_name": null, "feat_class": "Civil", "primary_latitude": "38.84", "primary_longitude": "-107.85", "name": "Delta County"}, {"link_title": null, "guid": "2f43b19ce0e64bbab02d4d984b619417", "description": null, "fips_class": "H6", "url": "http://www.denvergov.org/", "feature_id": "36806", "state_name": "Colorado", "fips_county_cd": "31", "state_abbreviation": "CO", "full_county_name": null, "county_name": null, "feat_class": "Civil", "primary_latitude": "39.6666542", "primary_longitude": "-104.9505359", "name": "Denver County"}, {"link_title": null, "guid": "e4194cfd88cc4c64bc7366e6880e6ffc", "description": null, "fips_class": "H1", "url": "http://www.douglas.co.us/", "feature_id": "36808", "state_name": "Colorado", "fips_county_cd": "35", "state_abbreviation": "CO", "full_county_name": null, "county_name": null, "feat_class": "Civil", "primary_latitude": "39.33", "primary_longitude": "-104.95", "name": "Douglas County"}, {"link_title": null, "guid": "206dc78d305e4fcb953c836c0bb910cc", "description": null, "fips_class": "H1", "url": "http://www.eaglecounty.us/", "feature_id": "36809", "state_name": "Colorado", "fips_county_cd": "37", "state_abbreviation": "CO", "full_county_name": null, "county_name": null, "feat_class": "Civil", "primary_latitude": "39.63", "primary_longitude": "-106.7", "name": "Eagle County"}, {"link_title": null, "guid": "1e1e614637dd491e91b35f16ebb28252", "description": null, "fips_class": "H1", "url": "http://www.elpasoco.com/", "feature_id": "36810", "state_name": "Colorado", "fips_county_cd": "41", "state_abbreviation": "CO", "full_county_name": null, "county_name": null, "feat_class": "Civil", "primary_latitude": "38.83", "primary_longitude": "-104.51", "name": "El Paso County"}, {"link_title": null, "guid": "b2b8184be3994bfb930657d10dd2893b", "description": null, "fips_class": "H1", "url": "http://www.elbertcounty-co.gov/", "feature_id": "36811", "state_name": "Colorado", "fips_county_cd": "39", "state_abbreviation": "CO", "full_county_name": null, "county_name": null, "feat_class": "Civil", "primary_latitude": "39.29", "primary_longitude": "-104.05", "name": "Elbert County"}, {"link_title": null, "guid": "1750f60370264930ae423878821fabdb", "description": null, "fips_class": "H1", "url": "http://www.fremontco.com/", "feature_id": "36812", "state_name": "Colorado", "fips_county_cd": "43", "state_abbreviation": "CO", "full_county_name": null, "county_name": null, "feat_class": "Civil", "primary_latitude": "38.48", "primary_longitude": "-105.4", "name": "Fremont County"}, {"link_title": null, "guid": "22d7630133404036a695dc3315be8adf", "description": null, "fips_class": "H1", "url": "http://www.garfield-county.com/", "feature_id": "36813", "state_name": "Colorado", "fips_county_cd": "45", "state_abbreviation": "CO", "full_county_name": null, "county_name": null, "feat_class": "Civil", "primary_latitude": "39.54", "primary_longitude": "-107.83", "name": "Garfield County"}, {"link_title": null, "guid": "a24a976553f84fad86bd3d25fa1f1853", "description": null, "fips_class": "H1", "url": "http://www.co.gilpin.co.us/", "feature_id": "36814", "state_name": "Colorado", "fips_county_cd": "47", "state_abbreviation": "CO", "full_county_name": null, "county_name": null, "feat_class": "Civil", "primary_latitude": "39.84", "primary_longitude": "-105.51", "name": "Gilpin County"}, {"link_title": null, "guid": "1a54ce223a044f9b80a46e6bf6ee14ed", "description": null, "fips_class": "C1", "url": "http://www.ci.sheridan.co.us/", "feature_id": "1999", "state_name": "Colorado", "fips_county_cd": "5", "state_abbreviation": "CO", "full_county_name": "Arapahoe County", "county_name": "Arapahoe", "feat_class": "Populated Place", "primary_latitude": "39.64", "primary_longitude": "-105.02", "name": "Sheridan"}, {"link_title": null, "guid": "49b23813b8f74c469d50876d7df54872", "description": null, "fips_class": "H1", "url": "http://co.grand.co.us/", "feature_id": "36815", "state_name": "Colorado", "fips_county_cd": "49", "state_abbreviation": "CO", "full_county_name": null, "county_name": null, "feat_class": "Civil", "primary_latitude": "40.06", "primary_longitude": "-106.08", "name": "Grand County"}, {"link_title": null, "guid": "8d76fdc9999a4b1bb629bb66e1a2a6b2", "description": null, "fips_class": "H1", "url": "http://www.co.gunnison.co.us/", "feature_id": "36816", "state_name": "Colorado", "fips_county_cd": "51", "state_abbreviation": "CO", "full_county_name": null, "county_name": null, "feat_class": "Civil", "primary_latitude": "38.69", "primary_longitude": "-107.06", "name": "Gunnison County"}, {"link_title": null, "guid": "8f8cb3426dc449f6a3e6431d36fcc3dc", "description": null, "fips_class": "C1", "url": "http://www.townofsilt.org/", "feature_id": "2001", "state_name": "Colorado", "fips_county_cd": "45", "state_abbreviation": "CO", "full_county_name": "Garfield County", "county_name": "Garfield", "feat_class": "Populated Place", "primary_latitude": "39.54", "primary_longitude": "-107.65", "name": "Silt"}, {"link_title": null, "guid": "29a7fb76886f4856bdae9026e0a8eb5e", "description": null, "fips_class": "H1", "url": "http://www.hinsdalecountycolorado.us/", "feature_id": "36817", "state_name": "Colorado", "fips_county_cd": "53", "state_abbreviation": "CO", "full_county_name": null, "county_name": null, "feat_class": "Civil", "primary_latitude": "37.84", "primary_longitude": "-107.33", "name": "Hinsdale County"}, {"link_title": null, "guid": "a47d159980464884905e932ad78df4d0", "description": null, "fips_class": "C1", "url": "http://www.silverthorne.org/", "feature_id": "2004", "state_name": "Colorado", "fips_county_cd": "117", "state_abbreviation": "CO", "full_county_name": "Summit County", "county_name": "Summit", "feat_class": "Populated Place", "primary_latitude": "39.63", "primary_longitude": "-106.06", "name": "Silverthorne"}, {"link_title": null, "guid": "2b73d39fda234d7d8be96f41f268f9f5", "description": null, "fips_class": "H1", "url": "http://www.co.jefferson.co.us/", "feature_id": "36820", "state_name": "Colorado", "fips_county_cd": "59", "state_abbreviation": "CO", "full_county_name": null, "county_name": null, "feat_class": "Civil", "primary_latitude": "39.63", "primary_longitude": "-105.26", "name": "Jefferson County"}, {"link_title": null, "guid": "f789817279634ea4801d8d801e6712ac", "description": null, "fips_class": "C1", "url": "http://www.ci.silverton.co.us/", "feature_id": "2005", "state_name": "Colorado", "fips_county_cd": "111", "state_abbreviation": "CO", "full_county_name": "San Juan County", "county_name": "San Juan", "feat_class": "Populated Place", "primary_latitude": "37.81", "primary_longitude": "-107.66", "name": "Silverton"}, {"link_title": null, "guid": "1cf5abc39fe34e679fe1ac3524373a42", "description": null, "fips_class": "H1", "url": "http://www.kitcarsoncounty.org/", "feature_id": "36822", "state_name": "Colorado", "fips_county_cd": "63", "state_abbreviation": "CO", "full_county_name": null, "county_name": null, "feat_class": "Civil", "primary_latitude": "39.29", "primary_longitude": "-102.56", "name": "Kit Carson County"}, {"link_title": null, "guid": "a121055f2b2546a08e9ad999635bdcde", "description": null, "fips_class": "C1", "url": "http://www.tosv.com/", "feature_id": "2007", "state_name": "Colorado", "fips_county_cd": "97", "state_abbreviation": "CO", "full_county_name": "Pitkin County", "county_name": "Pitkin", "feat_class": "Populated Place", "primary_latitude": "39.21", "primary_longitude": "-106.93", "name": "Snowmass Village"}, {"link_title": null, "guid": "89ddcbf1b99044e89565b6864948dff5", "description": null, "fips_class": "H1", "url": "http://co.laplata.co.us/", "feature_id": "36823", "state_name": "Colorado", "fips_county_cd": "67", "state_abbreviation": "CO", "full_county_name": null, "county_name": null, "feat_class": "Civil", "primary_latitude": "37.28", "primary_longitude": "-107.81", "name": "La Plata County"}, {"link_title": null, "guid": "f421705aeeab40f982fbc8fe55a7f753", "description": null, "fips_class": "C1", "url": "http://www.southfork.org/index.asp", "feature_id": "2008", "state_name": "Colorado", "fips_county_cd": "105", "state_abbreviation": "CO", "full_county_name": "Rio Grande County", "county_name": "Rio Grande", "feat_class": "Populated Place", "primary_latitude": "37.67", "primary_longitude": "-106.63", "name": "South Fork"}, {"link_title": null, "guid": "04aa3c4a60c44031bec5bf9ae87970ae", "description": null, "fips_class": "H1", "url": "http://www.co.larimer.co.us/", "feature_id": "36825", "state_name": "Colorado", "fips_county_cd": "69", "state_abbreviation": "CO", "full_county_name": null, "county_name": null, "feat_class": "Civil", "primary_latitude": "40.66", "primary_longitude": "-105.46", "name": "Larimer County"}, {"link_title": null, "guid": "29e7958a824a4b04a8b6e47f10393ce3", "description": null, "fips_class": "C1", "url": "http://www.steamboatsprings.net/", "feature_id": "2011", "state_name": "Colorado", "fips_county_cd": "107", "state_abbreviation": "CO", "full_county_name": "Routt County", "county_name": "Routt", "feat_class": "Populated Place", "primary_latitude": "40.48", "primary_longitude": "-106.83", "name": "Steamboat Springs"}, {"link_title": null, "guid": "e4a6a5ca7e96416c93d16bc7c13a51e1", "description": null, "fips_class": "C1", "url": "http://www.sterlingcolo.com/", "feature_id": "2012", "state_name": "Colorado", "fips_county_cd": "75", "state_abbreviation": "CO", "full_county_name": "Logan County", "county_name": "Logan", "feat_class": "Populated Place", "primary_latitude": "40.62", "primary_longitude": "-103.2", "name": "Sterling"}, {"link_title": null, "guid": "08113aebdb064fe98ac88c0818346fd5", "description": null, "fips_class": "H1", "url": "http://www.logancountyco.gov/", "feature_id": "36828", "state_name": "Colorado", "fips_county_cd": "75", "state_abbreviation": "CO", "full_county_name": null, "county_name": null, "feat_class": "Civil", "primary_latitude": "40.71", "primary_longitude": "-103.11", "name": "Logan County"}, {"link_title": null, "guid": "c763200cdcac422a99dfc516c7eed58a", "description": null, "fips_class": "C1", "url": "http://www.strattoncolorado.com/", "feature_id": "2013", "state_name": "Colorado", "fips_county_cd": "63", "state_abbreviation": "CO", "full_county_name": "Kit Carson County", "county_name": "Kit Carson", "feat_class": "Populated Place", "primary_latitude": "39.3", "primary_longitude": "-102.6", "name": "Stratton"}, {"link_title": null, "guid": "f13901d4038c49dca2901c8e923961f6", "description": null, "fips_class": "H1", "url": "http://www.mesacounty.us/", "feature_id": "36829", "state_name": "Colorado", "fips_county_cd": "77", "state_abbreviation": "CO", "full_county_name": null, "county_name": null, "feat_class": "Civil", "primary_latitude": "39.03", "primary_longitude": "-108.46", "name": "Mesa County"}, {"link_title": null, "guid": "4348043da54e484eaf4dd9f311dc273c", "description": null, "fips_class": "C1", "url": "http://www.townofsuperior.com/", "feature_id": "2015", "state_name": "Colorado", "fips_county_cd": "13", "state_abbreviation": "CO", "full_county_name": "Boulder County", "county_name": "Boulder", "feat_class": "Populated Place", "primary_latitude": "39.95", "primary_longitude": "-105.16", "name": "Superior"}, {"link_title": null, "guid": "fac0eea9f7d74a8ebaa1883b13136ae3", "description": null, "fips_class": "H1", "url": "http://www.co.moffat.co.us/", "feature_id": "36831", "state_name": "Colorado", "fips_county_cd": "81", "state_abbreviation": "CO", "full_county_name": null, "county_name": null, "feat_class": "Civil", "primary_latitude": "40.64", "primary_longitude": "-108.08", "name": "Moffat County"}, {"link_title": null, "guid": "3f353411700a49deb01cfd8ae5b6b737", "description": null, "fips_class": "H1", "url": "http://www.co.montezuma.co.us/", "feature_id": "36832", "state_name": "Colorado", "fips_county_cd": "83", "state_abbreviation": "CO", "full_county_name": null, "county_name": null, "feat_class": "Civil", "primary_latitude": "37.33", "primary_longitude": "-108.55", "name": "Montezuma County"}, {"link_title": null, "guid": "99537019119f4af69772a0b8136dd04f", "description": null, "fips_class": "C1", "url": "http://www.telluride-co.gov/", "feature_id": "2017", "state_name": "Colorado", "fips_county_cd": "113", "state_abbreviation": "CO", "full_county_name": "San Miguel County", "county_name": "San Miguel", "feat_class": "Populated Place", "primary_latitude": "37.93", "primary_longitude": "-107.81", "name": "Telluride"}, {"link_title": null, "guid": "d20ce4df25304a92b22fc9f3ecc7e95d", "description": null, "fips_class": "H1", "url": "http://www.co.montrose.co.us/", "feature_id": "36833", "state_name": "Colorado", "fips_county_cd": "85", "state_abbreviation": "CO", "full_county_name": null, "county_name": null, "feat_class": "Civil", "primary_latitude": "38.41", "primary_longitude": "-108.26", "name": "Montrose County"}, {"link_title": null, "guid": "f6037ccd2b0b493686dcc04e7f7af7cc", "description": null, "fips_class": "C1", "url": "http://www.cityofthornton.net/", "feature_id": "2018", "state_name": "Colorado", "fips_county_cd": "1", "state_abbreviation": "CO", "full_county_name": "Adams County", "county_name": "Adams", "feat_class": "Populated Place", "primary_latitude": "39.86", "primary_longitude": "-104.97", "name": "Thornton"}, {"link_title": null, "guid": "a3af0d608c304ad0add2382adcd0540d", "description": null, "fips_class": "C1", "url": "http://www.timnathcolorado.org/", "feature_id": "2019", "state_name": "Colorado", "fips_county_cd": "69", "state_abbreviation": "CO", "full_county_name": "Larimer County", "county_name": "Larimer", "feat_class": "Populated Place", "primary_latitude": "40.52", "primary_longitude": "-104.98", "name": "Timnath"}, {"link_title": null, "guid": "9faa55f159ef479dbd79fec86e447ed1", "description": null, "fips_class": "C1", "url": "http://www.historictrinidad.com/", "feature_id": "2020", "state_name": "Colorado", "fips_county_cd": "71", "state_abbreviation": "CO", "full_county_name": "Las Animas County", "county_name": "Las Animas", "feat_class": "Populated Place", "primary_latitude": "37.16", "primary_longitude": "-104.5", "name": "Trinidad"}, {"link_title": null, "guid": "9a63dc6751ea41f19618671eda53e45a", "description": null, "fips_class": "H1", "url": "http://www.ouraycountyco.gov/", "feature_id": "36836", "state_name": "Colorado", "fips_county_cd": "91", "state_abbreviation": "CO", "full_county_name": null, "county_name": null, "feat_class": "Civil", "primary_latitude": "38.14", "primary_longitude": "-107.76", "name": "Ouray County"}, {"link_title": null, "guid": "d187401bfce44cb09301cbd5115e2a88", "description": null, "fips_class": "H1", "url": "http://www.parkco.us/", "feature_id": "36837", "state_name": "Colorado", "fips_county_cd": "93", "state_abbreviation": "CO", "full_county_name": null, "county_name": null, "feat_class": "Civil", "primary_latitude": "39.14", "primary_longitude": "-105.76", "name": "Park County"}, {"link_title": null, "guid": "bb40567895844f4aad86de6b9008ce3b", "description": null, "fips_class": "C1", "url": "http://www.vailgov.com/", "feature_id": "2022", "state_name": "Colorado", "fips_county_cd": "37", "state_abbreviation": "CO", "full_county_name": "Eagle County", "county_name": "Eagle", "feat_class": "Populated Place", "primary_latitude": "39.64", "primary_longitude": "-106.37", "name": "Vail"}, {"link_title": null, "guid": "84ddbc22574d414e99f2b71c20335210", "description": null, "fips_class": "H1", "url": "http://www.aspenpitkin.com/", "feature_id": "36839", "state_name": "Colorado", "fips_county_cd": "97", "state_abbreviation": "CO", "full_county_name": null, "county_name": null, "feat_class": "Civil", "primary_latitude": "39.19", "primary_longitude": "-106.93", "name": "Pitkin County"}, {"link_title": null, "guid": "324dfd86463d4b36a066c9e795148eff", "description": null, "fips_class": "H1", "url": "http://www.prowerscounty.net/", "feature_id": "36840", "state_name": "Colorado", "fips_county_cd": "99", "state_abbreviation": "CO", "full_county_name": null, "county_name": null, "feat_class": "Civil", "primary_latitude": "37.96", "primary_longitude": "-102.4", "name": "Prowers County"}, {"link_title": null, "guid": "7915a50757c144d0ba3d2240567808fc", "description": null, "fips_class": "C1", "url": "http://www.cityofalamosa.org/", "feature_id": "1769", "state_name": "Colorado", "fips_county_cd": "3", "state_abbreviation": "CO", "full_county_name": "Alamosa County", "county_name": "Alamosa", "feat_class": "Populated Place", "primary_latitude": "37.46", "primary_longitude": "-105.87", "name": "Alamosa"}, {"link_title": null, "guid": "514feeed69cb4ae5b87b96ecc3911dcf", "description": null, "fips_class": "H1", "url": "http://www.co.pueblo.co.us/", "feature_id": "36841", "state_name": "Colorado", "fips_county_cd": "101", "state_abbreviation": "CO", "full_county_name": null, "county_name": null, "feat_class": "Civil", "primary_latitude": "38.18", "primary_longitude": "-104.48", "name": "Pueblo County"}, {"link_title": null, "guid": "6dc541d6d0214ced9cda3ec2b17632ca", "description": null, "fips_class": "H1", "url": "http://www.co.rio-blanco.co.us/", "feature_id": "36842", "state_name": "Colorado", "fips_county_cd": "103", "state_abbreviation": "CO", "full_county_name": null, "county_name": null, "feat_class": "Civil", "primary_latitude": "39.94", "primary_longitude": "-108.2", "name": "Rio Blanco County"}, {"link_title": null, "guid": "ec676e1c04cf412bb56b8a3be633fc75", "description": null, "fips_class": "H1", "url": "http://www.riograndecounty.org/", "feature_id": "36843", "state_name": "Colorado", "fips_county_cd": "105", "state_abbreviation": "CO", "full_county_name": null, "county_name": null, "feat_class": "Civil", "primary_latitude": "37.56", "primary_longitude": "-106.4", "name": "Rio Grande County"}, {"link_title": null, "guid": "c73bbf3841c0415c8189abde7ecc1206", "description": null, "fips_class": "H1", "url": "http://www.co.routt.co.us/", "feature_id": "36844", "state_name": "Colorado", "fips_county_cd": "107", "state_abbreviation": "CO", "full_county_name": null, "county_name": null, "feat_class": "Civil", "primary_latitude": "40.51", "primary_longitude": "-106.98", "name": "Routt County"}, {"link_title": null, "guid": "3bb05f55b25a4913b41a4aa0e85f8819", "description": null, "fips_class": "C1", "url": "http://www.ci.arvada.co.us/", "feature_id": "1773", "state_name": "Colorado", "fips_county_cd": "59", "state_abbreviation": "CO", "full_county_name": "Jefferson County", "county_name": "Jefferson", "feat_class": "Populated Place", "primary_latitude": "39.8", "primary_longitude": "-105.08", "name": "Arvada"}, {"link_title": null, "guid": "efe12c7dbcdb4f0f94f9729e0a938168", "description": null, "fips_class": "C1", "url": "http://www.aspenpitkin.com/", "feature_id": "1774", "state_name": "Colorado", "fips_county_cd": "97", "state_abbreviation": "CO", "full_county_name": "Pitkin County", "county_name": "Pitkin", "feat_class": "Populated Place", "primary_latitude": "39.19", "primary_longitude": "-106.81", "name": "Aspen"}, {"link_title": null, "guid": "271c704dbc8c4443ac5860921f50235c", "description": null, "fips_class": "C1", "url": "http://www.townofwellington.com/", "feature_id": "2031", "state_name": "Colorado", "fips_county_cd": "69", "state_abbreviation": "CO", "full_county_name": "Larimer County", "county_name": "Larimer", "feat_class": "Populated Place", "primary_latitude": "40.7", "primary_longitude": "-105", "name": "Wellington"}, {"link_title": null, "guid": "79fce925ea4349d68e5c9ff9ea9c6dd2", "description": null, "fips_class": "H1", "url": "http://www.sanmiguelcounty.org/", "feature_id": "36847", "state_name": "Colorado", "fips_county_cd": "113", "state_abbreviation": "CO", "full_county_name": null, "county_name": null, "feat_class": "Civil", "primary_latitude": "38.01", "primary_longitude": "-108.45", "name": "San Miguel County"}, {"link_title": null, "guid": "9cec493f689345b39224f30be969119a", "description": null, "fips_class": "C1", "url": "http://www.auroragov.org", "feature_id": "1776", "state_name": "Colorado", "fips_county_cd": "1", "state_abbreviation": "CO", "full_county_name": "Adams County", "county_name": "Adams", "feat_class": "Populated Place", "primary_latitude": "39.72", "primary_longitude": "-104.83", "name": "Aurora"}, {"link_title": null, "guid": "4f222d4994c34155be512730af706120", "description": null, "fips_class": "C1", "url": "http://www.ci.westminster.co.us/", "feature_id": "2033", "state_name": "Colorado", "fips_county_cd": "1", "state_abbreviation": "CO", "full_county_name": "Adams County", "county_name": "Adams", "feat_class": "Populated Place", "primary_latitude": "39.83", "primary_longitude": "-105.03", "name": "Westminster"}, {"link_title": null, "guid": "e520e263fb6a41aaa91be0bbc3f76aa3", "description": null, "fips_class": "H1", "url": "http://www.co.summit.co.us/", "feature_id": "36849", "state_name": "Colorado", "fips_county_cd": "117", "state_abbreviation": "CO", "full_county_name": null, "county_name": null, "feat_class": "Civil", "primary_latitude": "39.59", "primary_longitude": "-106.01", "name": "Summit County"}, {"link_title": null, "guid": "8f4faa56a4d04303acaaa70aaf872e5f", "description": null, "fips_class": "C1", "url": "http://www.avon.org/", "feature_id": "1778", "state_name": "Colorado", "fips_county_cd": "37", "state_abbreviation": "CO", "full_county_name": "Eagle County", "county_name": "Eagle", "feat_class": "Populated Place", "primary_latitude": "39.63", "primary_longitude": "-106.52", "name": "Avon"}, {"link_title": null, "guid": "45d992c81e7b454b94b77d6cdbc09420", "description": null, "fips_class": "C1", "url": "http://www.ci.wheatridge.co.us/", "feature_id": "2034", "state_name": "Colorado", "fips_county_cd": "59", "state_abbreviation": "CO", "full_county_name": "Jefferson County", "county_name": "Jefferson", "feat_class": "Populated Place", "primary_latitude": "39.76", "primary_longitude": "-105.07", "name": "Wheat Ridge"}, {"link_title": null, "guid": "c9b9353f13a34251871b629ec9237e0a", "description": null, "fips_class": "H1", "url": "http://www.co.teller.co.us/", "feature_id": "36850", "state_name": "Colorado", "fips_county_cd": "119", "state_abbreviation": "CO", "full_county_name": null, "county_name": null, "feat_class": "Civil", "primary_latitude": "38.86", "primary_longitude": "-105.16", "name": "Teller County"}, {"link_title": null, "guid": "41dff5a6f5434064b05cf6e7e06b927b", "description": null, "fips_class": "C1", "url": "http://www.basalt.net/", "feature_id": "1779", "state_name": "Colorado", "fips_county_cd": "37", "state_abbreviation": "CO", "full_county_name": "Eagle County", "county_name": "Eagle", "feat_class": "Populated Place", "primary_latitude": "39.36", "primary_longitude": "-107.03", "name": "Basalt"}, {"link_title": null, "guid": "10e7a632917a4e72b1b64d113d3d70d3", "description": null, "fips_class": "H1", "url": "http://www.co.weld.co.us/", "feature_id": "36852", "state_name": "Colorado", "fips_county_cd": "123", "state_abbreviation": "CO", "full_county_name": null, "county_name": null, "feat_class": "Civil", "primary_latitude": "40.63", "primary_longitude": "-104.53", "name": "Weld County"}, {"link_title": null, "guid": "57729279d29241d19ba81e83c2be77f8", "description": null, "fips_class": "C1", "url": "http://www.bayfieldgov.org/", "feature_id": "1781", "state_name": "Colorado", "fips_county_cd": "67", "state_abbreviation": "CO", "full_county_name": "La Plata County", "county_name": "La Plata", "feat_class": "Populated Place", "primary_latitude": "37.22", "primary_longitude": "-107.59", "name": "Bayfield"}, {"link_title": null, "guid": "223bf7ce321f4278bffc513106db5c35", "description": null, "fips_class": "C1", "url": "http://www.townofbennett.org/", "feature_id": "1782", "state_name": "Colorado", "fips_county_cd": "1", "state_abbreviation": "CO", "full_county_name": "Adams County", "county_name": "Adams", "feat_class": "Populated Place", "primary_latitude": "39.75", "primary_longitude": "-104.42", "name": "Bennett"}, {"link_title": null, "guid": "1c4aa50497b84256b3983d0b8873ad2f", "description": null, "fips_class": "C1", "url": "http://www.ci.windsor.co.us/", "feature_id": "2038", "state_name": "Colorado", "fips_county_cd": "123", "state_abbreviation": "CO", "full_county_name": "Weld County", "county_name": "Weld", "feat_class": "Populated Place", "primary_latitude": "40.47", "primary_longitude": "-104.9", "name": "Windsor"}, {"link_title": null, "guid": "e33a9defb67f4c4297a1e830a2b78158", "description": null, "fips_class": "C1", "url": "http://www.berthoud.org/", "feature_id": "1783", "state_name": "Colorado", "fips_county_cd": "69", "state_abbreviation": "CO", "full_county_name": "Larimer County", "county_name": "Larimer", "feat_class": "Populated Place", "primary_latitude": "40.3", "primary_longitude": "-105.08", "name": "Berthoud"}, {"link_title": null, "guid": "7ba2d93d63a8432fa90b3c37e05d7661", "description": null, "fips_class": "C1", "url": "http://www.winterparkgov.com/", "feature_id": "2039", "state_name": "Colorado", "fips_county_cd": "49", "state_abbreviation": "CO", "full_county_name": "Grand County", "county_name": "Grand", "feat_class": "Populated Place", "primary_latitude": "39.89", "primary_longitude": "-105.76", "name": "Winter Park"}, {"link_title": null, "guid": "b7e7c965b3784511a3da13b5394fe4b3", "description": null, "fips_class": "C1", "url": "http://www.city-woodlandpark.org/", "feature_id": "2040", "state_name": "Colorado", "fips_county_cd": "119", "state_abbreviation": "CO", "full_county_name": "Teller County", "county_name": "Teller", "feat_class": "Populated Place", "primary_latitude": "38.99", "primary_longitude": "-105.05", "name": "Woodland Park"}, {"link_title": null, "guid": "b205930752304d918d0c8d22b944449b", "description": null, "fips_class": "C1", "url": "http://www.cityofblackhawk.org/", "feature_id": "1785", "state_name": "Colorado", "fips_county_cd": "47", "state_abbreviation": "CO", "full_county_name": "Gilpin County", "county_name": "Gilpin", "feat_class": "Populated Place", "primary_latitude": "39.79", "primary_longitude": "-105.49", "name": "Black Hawk"}, {"link_title": null, "guid": "ecab290165c3433699e452f9e9d29395", "description": null, "fips_class": "C1", "url": "http://www.wrayco.net/", "feature_id": "2041", "state_name": "Colorado", "fips_county_cd": "125", "state_abbreviation": "CO", "full_county_name": "Yuma County", "county_name": "Yuma", "feat_class": "Populated Place", "primary_latitude": "40.07", "primary_longitude": "-102.22", "name": "Wray"}, {"link_title": null, "guid": "93875e2d7ed14bc3aca5bc27701cdaad", "description": null, "fips_class": "C1", "url": "http://www.fone.net/~blancaco/", "feature_id": "1786", "state_name": "Colorado", "fips_county_cd": "23", "state_abbreviation": "CO", "full_county_name": "Costilla County", "county_name": "Costilla", "feat_class": "Populated Place", "primary_latitude": "37.43", "primary_longitude": "-105.51", "name": "Blanca"}, {"link_title": null, "guid": "8fd9d6e668cc4cd38cb538cfd2c8b04f", "description": null, "fips_class": "C1", "url": "http://www.bouldercolorado.gov/", "feature_id": "1790", "state_name": "Colorado", "fips_county_cd": "13", "state_abbreviation": "CO", "full_county_name": "Boulder County", "county_name": "Boulder", "feat_class": "Populated Place", "primary_latitude": "40.01", "primary_longitude": "-105.27", "name": "Boulder"}, {"link_title": null, "guid": "5f9790149c8a4a1a93ab07519f118343", "description": null, "fips_class": "C1", "url": "http://www.erieco.gov/", "feature_id": "1848", "state_name": "Colorado", "fips_county_cd": "123", "state_abbreviation": "CO", "full_county_name": "Weld County", "county_name": "Weld", "feat_class": "Populated Place", "primary_latitude": "40.05", "primary_longitude": "-105.04", "name": "Erie"}, {"link_title": null, "guid": "fe9283dd962f48d089b58f5de532eb2a", "description": null, "fips_class": "C1", "url": "http://www.auroragov.org", "feature_id": "1777", "state_name": "Colorado", "fips_county_cd": "5", "state_abbreviation": "CO", "full_county_name": "Arapahoe County", "county_name": "Arapahoe", "feat_class": "Populated Place", "primary_latitude": "39.72", "primary_longitude": "-104.83", "name": "Aurora"}, {"link_title": null, "guid": "b85fea8369ea4a5990ccc021886e5d46", "description": null, "fips_class": "C1", "url": "http://www.basalt.net/", "feature_id": "1780", "state_name": "Colorado", "fips_county_cd": "97", "state_abbreviation": "CO", "full_county_name": "Pitkin County", "county_name": "Pitkin", "feat_class": "Populated Place", "primary_latitude": "39.36", "primary_longitude": "-107.03", "name": "Basalt"}]