[{"link_title": null, "guid": "ae417d1bb4a24ad399ad94355e695cf9", "description": null, "fips_class": "H1", "url": "http://www.co.dallas.ia.us/", "feature_id": "37120", "state_name": "Iowa", "fips_county_cd": "49", "state_abbreviation": "IA", "full_county_name": null, "county_name": null, "feat_class": "Civil", "primary_latitude": "41.68", "primary_longitude": "-94.05", "name": "Dallas County"}, {"link_title": null, "guid": "0f13e3e7709c421588386f28a4400792", "description": null, "fips_class": "C2", "url": "http://www.stormlake.org/", "feature_id": "4097", "state_name": "Iowa", "fips_county_cd": "21", "state_abbreviation": "IA", "full_county_name": "Buena Vista County", "county_name": "Buena Vista", "feat_class": "Populated Place", "primary_latitude": "42.64", "primary_longitude": "-95.2", "name": "Storm Lake"}, {"link_title": null, "guid": "b8965d2689c44a639fb5e2c5606c783d", "description": null, "fips_class": "C1", "url": "http://www.mitchellville.org/", "feature_id": "3842", "state_name": "Iowa", "fips_county_cd": "153", "state_abbreviation": "IA", "full_county_name": "Polk County", "county_name": "Polk", "feat_class": "Populated Place", "primary_latitude": "41.66", "primary_longitude": "-93.35", "name": "Mitchellville"}, {"link_title": null, "guid": "21a06b8735c34d4eb24c7fe2567b6d81", "description": null, "fips_class": "H1", "url": "http://www.co.des-moines.ia.us/", "feature_id": "37124", "state_name": "Iowa", "fips_county_cd": "57", "state_abbreviation": "IA", "full_county_name": null, "county_name": null, "feat_class": "Civil", "primary_latitude": "40.91", "primary_longitude": "-91.18", "name": "Des Moines County"}, {"link_title": null, "guid": "c72a20db6ca147f982b9891ddb78dfb5", "description": null, "fips_class": "C1", "url": "http://www.bettendorf.org/", "feature_id": "3333", "state_name": "Iowa", "fips_county_cd": "163", "state_abbreviation": "IA", "full_county_name": "Scott County", "county_name": "Scott", "feat_class": "Populated Place", "primary_latitude": "41.52", "primary_longitude": "-90.51", "name": "Bettendorf"}, {"link_title": null, "guid": "12bde72a88c64aaaa80d1426716b9bf2", "description": null, "fips_class": "H1", "url": "http://www.co.dickinson.ia.us/", "feature_id": "37125", "state_name": "Iowa", "fips_county_cd": "59", "state_abbreviation": "IA", "full_county_name": null, "county_name": null, "feat_class": "Civil", "primary_latitude": "43.38", "primary_longitude": "-95.15", "name": "Dickinson County"}, {"link_title": null, "guid": "3cacfb21e45548fdac61cce06e127fab", "description": null, "fips_class": "H1", "url": "http://www.dubuquecounty.org/", "feature_id": "37126", "state_name": "Iowa", "fips_county_cd": "61", "state_abbreviation": "IA", "full_county_name": null, "county_name": null, "feat_class": "Civil", "primary_latitude": "42.48", "primary_longitude": "-90.86", "name": "Dubuque County"}, {"link_title": null, "guid": "82f61c11252b4c249664df1e5f2c4c43", "description": null, "fips_class": "C1", "url": "http://www.mononaiowa.com/", "feature_id": "3847", "state_name": "Iowa", "fips_county_cd": "43", "state_abbreviation": "IA", "full_county_name": "Clayton County", "county_name": "Clayton", "feat_class": "Populated Place", "primary_latitude": "43.05", "primary_longitude": "-91.38", "name": "Monona"}, {"link_title": null, "guid": "bcc1c76c1d104ffe96f5e77d5d202f6e", "description": null, "fips_class": "H1", "url": "http://www.emmetcountyia.com/", "feature_id": "37127", "state_name": "Iowa", "fips_county_cd": "63", "state_abbreviation": "IA", "full_county_name": null, "county_name": null, "feat_class": "Civil", "primary_latitude": "43.37", "primary_longitude": "-94.66", "name": "Emmet County"}, {"link_title": null, "guid": "05ce982787524a3caeec6a6bcfdcb7a5", "description": null, "fips_class": "H1", "url": "http://www.floydcoia.org/", "feature_id": "37129", "state_name": "Iowa", "fips_county_cd": "67", "state_abbreviation": "IA", "full_county_name": null, "county_name": null, "feat_class": "Civil", "primary_latitude": "43.06", "primary_longitude": "-92.78", "name": "Floyd County"}, {"link_title": null, "guid": "cd255a59ed89443d95c8803503e270e5", "description": null, "fips_class": "C1", "url": "http://www.ci.monticello.ia.us/", "feature_id": "3850", "state_name": "Iowa", "fips_county_cd": "105", "state_abbreviation": "IA", "full_county_name": "Jones County", "county_name": "Jones", "feat_class": "Populated Place", "primary_latitude": "42.23", "primary_longitude": "-91.18", "name": "Monticello"}, {"link_title": null, "guid": "bf21e3b96231446a8cf14e24e5349394", "description": null, "fips_class": "H1", "url": "http://www.co.fremont.ia.us/", "feature_id": "37131", "state_name": "Iowa", "fips_county_cd": "71", "state_abbreviation": "IA", "full_county_name": null, "county_name": null, "feat_class": "Civil", "primary_latitude": "40.75", "primary_longitude": "-95.6", "name": "Fremont County"}, {"link_title": null, "guid": "835369a7e20e44488235a7fe15f8ade6", "description": null, "fips_class": "H1", "url": "http://www.grundycounty.org/", "feature_id": "37133", "state_name": "Iowa", "fips_county_cd": "75", "state_abbreviation": "IA", "full_county_name": null, "county_name": null, "feat_class": "Civil", "primary_latitude": "42.39", "primary_longitude": "-92.8", "name": "Grundy County"}, {"link_title": null, "guid": "b7288e37bd024c1eb3a0b4618ad96ab5", "description": null, "fips_class": "H1", "url": "http://www.hamiltoncounty.org/", "feature_id": "37135", "state_name": "Iowa", "fips_county_cd": "79", "state_abbreviation": "IA", "full_county_name": null, "county_name": null, "feat_class": "Civil", "primary_latitude": "42.38", "primary_longitude": "-93.71", "name": "Hamilton County"}, {"link_title": null, "guid": "69de092a5d9e4b0b923a681dfed2aea6", "description": null, "fips_class": "H1", "url": "http://www.hancockcountyia.org/", "feature_id": "37136", "state_name": "Iowa", "fips_county_cd": "81", "state_abbreviation": "IA", "full_county_name": null, "county_name": null, "feat_class": "Civil", "primary_latitude": "43.08", "primary_longitude": "-93.71", "name": "Hancock County"}, {"link_title": null, "guid": "ac3be867b0d844efbbe7cbf0fa186366", "description": null, "fips_class": "C1", "url": "http://www.morningsun.info/", "feature_id": "3857", "state_name": "Iowa", "fips_county_cd": "115", "state_abbreviation": "IA", "full_county_name": "Louisa County", "county_name": "Louisa", "feat_class": "Populated Place", "primary_latitude": "41.09", "primary_longitude": "-91.25", "name": "Morning Sun"}, {"link_title": null, "guid": "2ea42c32ee184bcbbfa505bbfed8988c", "description": null, "fips_class": "H1", "url": "http://www.harrisoncountyia.org/", "feature_id": "37138", "state_name": "Iowa", "fips_county_cd": "85", "state_abbreviation": "IA", "full_county_name": null, "county_name": null, "feat_class": "Civil", "primary_latitude": "41.68", "primary_longitude": "-95.78", "name": "Harrison County"}, {"link_title": null, "guid": "7470b0849f2c4bcca04f54802a82dc1b", "description": null, "fips_class": "C1", "url": "http://www.granger.govoffice.com/", "feature_id": "3603", "state_name": "Iowa", "fips_county_cd": "49", "state_abbreviation": "IA", "full_county_name": "Dallas County", "county_name": "Dallas", "feat_class": "Populated Place", "primary_latitude": "41.76", "primary_longitude": "-93.82", "name": "Granger"}, {"link_title": null, "guid": "170582cbeb444751b02ef39b4ccef556", "description": null, "fips_class": "C1", "url": "http://www.tamacity.govoffice2.com/", "feature_id": "4115", "state_name": "Iowa", "fips_county_cd": "171", "state_abbreviation": "IA", "full_county_name": "Tama County", "county_name": "Tama", "feat_class": "Populated Place", "primary_latitude": "41.96", "primary_longitude": "-92.57", "name": "Tama"}, {"link_title": null, "guid": "752c1d30ad4947fb827c1d344673f042", "description": null, "fips_class": "H1", "url": "http://www.henrycountyiowa.us/", "feature_id": "37139", "state_name": "Iowa", "fips_county_cd": "87", "state_abbreviation": "IA", "full_county_name": null, "county_name": null, "feat_class": "Civil", "primary_latitude": "40.98", "primary_longitude": "-91.55", "name": "Henry County"}, {"link_title": null, "guid": "67aa21cf756143edb2c355a09a3caca5", "description": null, "fips_class": "C1", "url": "http://www.cityofbondurant.com/", "feature_id": "3348", "state_name": "Iowa", "fips_county_cd": "153", "state_abbreviation": "IA", "full_county_name": "Polk County", "county_name": "Polk", "feat_class": "Populated Place", "primary_latitude": "41.7", "primary_longitude": "-93.46", "name": "Bondurant"}, {"link_title": null, "guid": "ec8b0a0a357c42eabd428a432266207e", "description": null, "fips_class": "C1", "url": "http://www.boonegov.com/", "feature_id": "3349", "state_name": "Iowa", "fips_county_cd": "15", "state_abbreviation": "IA", "full_county_name": "Boone County", "county_name": "Boone", "feat_class": "Populated Place", "primary_latitude": "42.05", "primary_longitude": "-93.88", "name": "Boone"}, {"link_title": null, "guid": "8f892d61bb094bb68460846b4f235302", "description": null, "fips_class": "C2", "url": "http://www.cityofmountpleasantiowa.org", "feature_id": "3862", "state_name": "Iowa", "fips_county_cd": "87", "state_abbreviation": "IA", "full_county_name": "Henry County", "county_name": "Henry", "feat_class": "Populated Place", "primary_latitude": "40.96", "primary_longitude": "-91.55", "name": "Mount Pleasant"}, {"link_title": null, "guid": "f81ead038b0741c9a95b29806be53fc0", "description": null, "fips_class": "C1", "url": "http://boydeniowa.net/", "feature_id": "3352", "state_name": "Iowa", "fips_county_cd": "167", "state_abbreviation": "IA", "full_county_name": "Sioux County", "county_name": "Sioux", "feat_class": "Populated Place", "primary_latitude": "43.19", "primary_longitude": "-96", "name": "Boyden"}, {"link_title": null, "guid": "a470702ed24547e3850ced3eb1fd3ed9", "description": null, "fips_class": "C1", "url": "http://www.cityofmtvernon-ia.gov/", "feature_id": "3865", "state_name": "Iowa", "fips_county_cd": "113", "state_abbreviation": "IA", "full_county_name": "Linn County", "county_name": "Linn", "feat_class": "Populated Place", "primary_latitude": "41.92", "primary_longitude": "-91.41", "name": "Mount Vernon"}, {"link_title": null, "guid": "10994c3083fe4355b88e8981ce6ca73a", "description": null, "fips_class": "H1", "url": "http://www.co.jasper.ia.us/", "feature_id": "37145", "state_name": "Iowa", "fips_county_cd": "99", "state_abbreviation": "IA", "full_county_name": null, "county_name": null, "feat_class": "Civil", "primary_latitude": "41.68", "primary_longitude": "-93.05", "name": "Jasper County"}, {"link_title": null, "guid": "624612f36a7e45988b33fa9283ded751", "description": null, "fips_class": "H1", "url": "http://www.johnson-county.com/", "feature_id": "37147", "state_name": "Iowa", "fips_county_cd": "103", "state_abbreviation": "IA", "full_county_name": null, "county_name": null, "feat_class": "Civil", "primary_latitude": "41.66", "primary_longitude": "-91.53", "name": "Johnson County"}, {"link_title": null, "guid": "2dbf88be4c644dbb8cf85a585935afab", "description": null, "fips_class": "C1", "url": "http://ci.muscatine.ia.us/", "feature_id": "3868", "state_name": "Iowa", "fips_county_cd": "139", "state_abbreviation": "IA", "full_county_name": "Muscatine County", "county_name": "Muscatine", "feat_class": "Populated Place", "primary_latitude": "41.42", "primary_longitude": "-91.04", "name": "Muscatine"}, {"link_title": null, "guid": "0b5f8bdbbb024c09bcae488ea6dad127", "description": null, "fips_class": "H1", "url": "http://www.jonescountyiowa.org/", "feature_id": "37148", "state_name": "Iowa", "fips_county_cd": "105", "state_abbreviation": "IA", "full_county_name": null, "county_name": null, "feat_class": "Civil", "primary_latitude": "42.11", "primary_longitude": "-91.13", "name": "Jones County"}, {"link_title": null, "guid": "d042e6e62dd14fdcbc11aa1d519a5843", "description": null, "fips_class": "H1", "url": "http://www.keokukcountyia.com/", "feature_id": "37149", "state_name": "Iowa", "fips_county_cd": "107", "state_abbreviation": "IA", "full_county_name": null, "county_name": null, "feat_class": "Civil", "primary_latitude": "41.33", "primary_longitude": "-92.18", "name": "Keokuk County"}, {"link_title": null, "guid": "804b609742584b36b3f6cb475f3c9afa", "description": null, "fips_class": "C2", "url": "http://www.grinnelliowa.gov/", "feature_id": "3614", "state_name": "Iowa", "fips_county_cd": "157", "state_abbreviation": "IA", "full_county_name": "Poweshiek County", "county_name": "Poweshiek", "feat_class": "Populated Place", "primary_latitude": "41.74", "primary_longitude": "-92.72", "name": "Grinnell"}, {"link_title": null, "guid": "2a371d29dbc841a89cf074a312bb6ec5", "description": null, "fips_class": "H1", "url": "http://www.co.kossuth.ia.us/", "feature_id": "37150", "state_name": "Iowa", "fips_county_cd": "109", "state_abbreviation": "IA", "full_county_name": null, "county_name": null, "feat_class": "Civil", "primary_latitude": "43.19", "primary_longitude": "-94.21", "name": "Kossuth County"}, {"link_title": null, "guid": "2778197a49304f1ca13bca8e88beaaa2", "description": null, "fips_class": "C1", "url": "http://www.griswoldia.com/", "feature_id": "3615", "state_name": "Iowa", "fips_county_cd": "29", "state_abbreviation": "IA", "full_county_name": "Cass County", "county_name": "Cass", "feat_class": "Populated Place", "primary_latitude": "41.23", "primary_longitude": "-95.13", "name": "Griswold"}, {"link_title": null, "guid": "c101b56258104bb282bddf3cc4fede3b", "description": null, "fips_class": "C1", "url": "http://www.tiptoniowa.org/", "feature_id": "4127", "state_name": "Iowa", "fips_county_cd": "31", "state_abbreviation": "IA", "full_county_name": "Cedar County", "county_name": "Cedar", "feat_class": "Populated Place", "primary_latitude": "41.76", "primary_longitude": "-91.12", "name": "Tipton"}, {"link_title": null, "guid": "01377347dbdb4a459d5916b3029ae94b", "description": null, "fips_class": "H1", "url": "http://www.leecounty.org/", "feature_id": "37151", "state_name": "Iowa", "fips_county_cd": "111", "state_abbreviation": "IA", "full_county_name": null, "county_name": null, "feat_class": "Civil", "primary_latitude": "40.65", "primary_longitude": "-91.48", "name": "Lee County"}, {"link_title": null, "guid": "6169cd06656f4196af76d02df364e876", "description": null, "fips_class": "C1", "url": "http://www.gcmuni.net/text/", "feature_id": "3616", "state_name": "Iowa", "fips_county_cd": "75", "state_abbreviation": "IA", "full_county_name": "Grundy County", "county_name": "Grundy", "feat_class": "Populated Place", "primary_latitude": "42.36", "primary_longitude": "-92.76", "name": "Grundy Center"}, {"link_title": null, "guid": "033aecd7f3dc47c09ed5a6bf82d02aae", "description": null, "fips_class": "H1", "url": "http://www.linncounty.org/", "feature_id": "37152", "state_name": "Iowa", "fips_county_cd": "113", "state_abbreviation": "IA", "full_county_name": null, "county_name": null, "feat_class": "Civil", "primary_latitude": "42.06", "primary_longitude": "-91.6", "name": "Linn County"}, {"link_title": null, "guid": "e8dfec3821014c9eb8e91e89d4278111", "description": null, "fips_class": "C1", "url": "http://www.ci.nevada.ia.us/", "feature_id": "3873", "state_name": "Iowa", "fips_county_cd": "169", "state_abbreviation": "IA", "full_county_name": "Story County", "county_name": "Story", "feat_class": "Populated Place", "primary_latitude": "42.02", "primary_longitude": "-93.45", "name": "Nevada"}, {"link_title": null, "guid": "24ce4a40544641d996effd0e3e8a0525", "description": null, "fips_class": "H1", "url": "http://www.louisacountyiowa.org/", "feature_id": "37153", "state_name": "Iowa", "fips_county_cd": "115", "state_abbreviation": "IA", "full_county_name": null, "county_name": null, "feat_class": "Civil", "primary_latitude": "41.23", "primary_longitude": "-91.26", "name": "Louisa County"}, {"link_title": null, "guid": "b136940b651d4066b5881260e963fbd0", "description": null, "fips_class": "C1", "url": "http://www.ci.new-hampton.ia.us/", "feature_id": "3875", "state_name": "Iowa", "fips_county_cd": "37", "state_abbreviation": "IA", "full_county_name": "Chickasaw County", "county_name": "Chickasaw", "feat_class": "Populated Place", "primary_latitude": "43.05", "primary_longitude": "-92.31", "name": "New Hampton"}, {"link_title": null, "guid": "0533721402fc4037b129fa9e0cab0f89", "description": null, "fips_class": "H1", "url": "http://www.lyoncountyiowa.com/", "feature_id": "37155", "state_name": "Iowa", "fips_county_cd": "119", "state_abbreviation": "IA", "full_county_name": null, "county_name": null, "feat_class": "Civil", "primary_latitude": "43.38", "primary_longitude": "-96.25", "name": "Lyon County"}, {"link_title": null, "guid": "5f3c4dd2dcaf49e2b8a88f385ea35f82", "description": null, "fips_class": "C1", "url": "http://www.cityoftreynor.com/", "feature_id": "4132", "state_name": "Iowa", "fips_county_cd": "155", "state_abbreviation": "IA", "full_county_name": "Pottawattamie County", "county_name": "Pottawattamie", "feat_class": "Populated Place", "primary_latitude": "41.23", "primary_longitude": "-95.61", "name": "Treynor"}, {"link_title": null, "guid": "a9abb8c46a2040f59c3df081e5cb4a2c", "description": null, "fips_class": "H1", "url": "http://www.madisoncoia.us/", "feature_id": "37156", "state_name": "Iowa", "fips_county_cd": "121", "state_abbreviation": "IA", "full_county_name": null, "county_name": null, "feat_class": "Civil", "primary_latitude": "41.33", "primary_longitude": "-94.01", "name": "Madison County"}, {"link_title": null, "guid": "c8bce3a7e505439bb7a1e10ef53cf2ce", "description": null, "fips_class": "H1", "url": "http://www.mahaskacounty.org/", "feature_id": "37157", "state_name": "Iowa", "fips_county_cd": "123", "state_abbreviation": "IA", "full_county_name": null, "county_name": null, "feat_class": "Civil", "primary_latitude": "41.33", "primary_longitude": "-92.65", "name": "Mahaska County"}, {"link_title": null, "guid": "1125996c9843424697c62e51ef388ad7", "description": null, "fips_class": "H1", "url": "http://www.co.marshall.ia.us/", "feature_id": "37159", "state_name": "Iowa", "fips_county_cd": "127", "state_abbreviation": "IA", "full_county_name": null, "county_name": null, "feat_class": "Civil", "primary_latitude": "42.03", "primary_longitude": "-93", "name": "Marshall County"}, {"link_title": null, "guid": "bc0eb22cfc0042e0bd5577406d713a9a", "description": null, "fips_class": "C1", "url": "http://www.wctatel.net/web/buffalocenter/", "feature_id": "3368", "state_name": "Iowa", "fips_county_cd": "189", "state_abbreviation": "IA", "full_county_name": "Winnebago County", "county_name": "Winnebago", "feat_class": "Populated Place", "primary_latitude": "43.38", "primary_longitude": "-93.94", "name": "Buffalo Center"}, {"link_title": null, "guid": "aa1675c8e1db4c0abd50c43b3191fc2d", "description": null, "fips_class": "H1", "url": "http://www.millscoia.us/", "feature_id": "37160", "state_name": "Iowa", "fips_county_cd": "129", "state_abbreviation": "IA", "full_county_name": null, "county_name": null, "feat_class": "Civil", "primary_latitude": "41.03", "primary_longitude": "-95.61", "name": "Mills County"}, {"link_title": null, "guid": "791355e7d7d84eb8815465f546277702", "description": null, "fips_class": "C5", "url": "http://www.burlingtoniowa.org/", "feature_id": "3369", "state_name": "Iowa", "fips_county_cd": "57", "state_abbreviation": "IA", "full_county_name": "Des Moines County", "county_name": "Des Moines", "feat_class": "Populated Place", "primary_latitude": "40.8", "primary_longitude": "-91.11", "name": "Burlington"}, {"link_title": null, "guid": "2eaa608661484c49b6196b45e5944767", "description": null, "fips_class": "C1", "url": "http://www.underwoodia.com/", "feature_id": "4138", "state_name": "Iowa", "fips_county_cd": "155", "state_abbreviation": "IA", "full_county_name": "Pottawattamie County", "county_name": "Pottawattamie", "feat_class": "Populated Place", "primary_latitude": "41.38", "primary_longitude": "-95.67", "name": "Underwood"}, {"link_title": null, "guid": "ce0887a1d2a148b6ad3590ea8eb9dc0b", "description": null, "fips_class": "C1", "url": "http://www.university-heights.org/", "feature_id": "4141", "state_name": "Iowa", "fips_county_cd": "103", "state_abbreviation": "IA", "full_county_name": "Johnson County", "county_name": "Johnson", "feat_class": "Populated Place", "primary_latitude": "41.65", "primary_longitude": "-91.55", "name": "University Heights"}, {"link_title": null, "guid": "8b646bcf75ac4cfaa7c8457cd2a2c161", "description": null, "fips_class": "H1", "url": "http://www.co.muscatine.ia.us/", "feature_id": "37165", "state_name": "Iowa", "fips_county_cd": "139", "state_abbreviation": "IA", "full_county_name": null, "county_name": null, "feat_class": "Civil", "primary_latitude": "41.46", "primary_longitude": "-91.13", "name": "Muscatine County"}, {"link_title": null, "guid": "226e7c6837114a99bab14ebcba1ec70e", "description": null, "fips_class": "C1", "url": "http://www.calmaria.com/", "feature_id": "3374", "state_name": "Iowa", "fips_county_cd": "191", "state_abbreviation": "IA", "full_county_name": "Winneshiek County", "county_name": "Winneshiek", "feat_class": "Populated Place", "primary_latitude": "43.18", "primary_longitude": "-91.86", "name": "Calmar"}, {"link_title": null, "guid": "3df8ac62055944da99d1574baddbf3ad", "description": null, "fips_class": "C2", "url": "http://www.cityofharlan.com/", "feature_id": "3630", "state_name": "Iowa", "fips_county_cd": "165", "state_abbreviation": "IA", "full_county_name": "Shelby County", "county_name": "Shelby", "feat_class": "Populated Place", "primary_latitude": "41.65", "primary_longitude": "-95.32", "name": "Harlan"}, {"link_title": null, "guid": "fccd7e1b7f08486885bbf7c692123cda", "description": null, "fips_class": "C1", "url": "http://www.newtongov.org/", "feature_id": "3886", "state_name": "Iowa", "fips_county_cd": "99", "state_abbreviation": "IA", "full_county_name": "Jasper County", "county_name": "Jasper", "feat_class": "Populated Place", "primary_latitude": "41.69", "primary_longitude": "-93.04", "name": "Newton"}, {"link_title": null, "guid": "503a1e1538444c6fb4dde9e6a7141e78", "description": null, "fips_class": "C1", "url": "http://www.urbandale.org/", "feature_id": "4144", "state_name": "Iowa", "fips_county_cd": "153", "state_abbreviation": "IA", "full_county_name": "Polk County", "county_name": "Polk", "feat_class": "Populated Place", "primary_latitude": "41.62", "primary_longitude": "-93.71", "name": "Urbandale"}, {"link_title": null, "guid": "61918ca531b64754b232ac67596a91e3", "description": null, "fips_class": "H1", "url": "http://www.co.plymouth.ia.us/", "feature_id": "37170", "state_name": "Iowa", "fips_county_cd": "149", "state_abbreviation": "IA", "full_county_name": null, "county_name": null, "feat_class": "Civil", "primary_latitude": "42.73", "primary_longitude": "-96.23", "name": "Plymouth County"}, {"link_title": null, "guid": "1216fd28b42c46d0acd0459b87e17e46", "description": null, "fips_class": "C1", "url": "http://www.hartleyiowa.com/", "feature_id": "3635", "state_name": "Iowa", "fips_county_cd": "141", "state_abbreviation": "IA", "full_county_name": "O'Brien County", "county_name": "O'Brien", "feat_class": "Populated Place", "primary_latitude": "43.17", "primary_longitude": "-95.47", "name": "Hartley"}, {"link_title": null, "guid": "a22dc9b1a1a14aa99e7f78392588dd47", "description": null, "fips_class": "C1", "url": "http://www.carlisle-ia.gov/", "feature_id": "3380", "state_name": "Iowa", "fips_county_cd": "181", "state_abbreviation": "IA", "full_county_name": "Warren County", "county_name": "Warren", "feat_class": "Populated Place", "primary_latitude": "41.5", "primary_longitude": "-93.49", "name": "Carlisle"}, {"link_title": null, "guid": "0605c0c29fff4451aa86a5a9cb34ad90", "description": null, "fips_class": "H1", "url": "http://www.polkcountyiowa.gov/", "feature_id": "37172", "state_name": "Iowa", "fips_county_cd": "153", "state_abbreviation": "IA", "full_county_name": null, "county_name": null, "feat_class": "Civil", "primary_latitude": "41.68", "primary_longitude": "-93.58", "name": "Polk County"}, {"link_title": null, "guid": "ea5eeaba92f2411db080d99016684554", "description": null, "fips_class": "C1", "url": "http://www.north-liberty.com/", "feature_id": "3893", "state_name": "Iowa", "fips_county_cd": "103", "state_abbreviation": "IA", "full_county_name": "Johnson County", "county_name": "Johnson", "feat_class": "Populated Place", "primary_latitude": "41.74", "primary_longitude": "-91.59", "name": "North Liberty"}, {"link_title": null, "guid": "b83b2c32d67f4fb1a5acd33e1589c292", "description": null, "fips_class": "C1", "url": "http://www.vanmeter.govoffice2.com/", "feature_id": "4149", "state_name": "Iowa", "fips_county_cd": "49", "state_abbreviation": "IA", "full_county_name": "Dallas County", "county_name": "Dallas", "feat_class": "Populated Place", "primary_latitude": "41.53", "primary_longitude": "-93.95", "name": "Van Meter"}, {"link_title": null, "guid": "eadf194bec5e4d1aa76c7b0f03ec8ca6", "description": null, "fips_class": "H1", "url": "http://www.pottcounty.com/", "feature_id": "37173", "state_name": "Iowa", "fips_county_cd": "155", "state_abbreviation": "IA", "full_county_name": null, "county_name": null, "feat_class": "Civil", "primary_latitude": "41.33", "primary_longitude": "-95.53", "name": "Pottawattamie County"}, {"link_title": null, "guid": "c62489da18154fb58218ec37e431378c", "description": null, "fips_class": "C1", "url": "http://www.carsonia.com/", "feature_id": "3383", "state_name": "Iowa", "fips_county_cd": "155", "state_abbreviation": "IA", "full_county_name": "Pottawattamie County", "county_name": "Pottawattamie", "feat_class": "Populated Place", "primary_latitude": "41.23", "primary_longitude": "-95.41", "name": "Carson"}, {"link_title": null, "guid": "3da9acdd0aab475a83c2d8f297e62476", "description": null, "fips_class": "H1", "url": "http://www.ringgoldcounty.us/", "feature_id": "37175", "state_name": "Iowa", "fips_county_cd": "159", "state_abbreviation": "IA", "full_county_name": null, "county_name": null, "feat_class": "Civil", "primary_latitude": "40.75", "primary_longitude": "-94.25", "name": "Ringgold County"}, {"link_title": null, "guid": "15c88210c4cb4ee8b5e0d3653999dc55", "description": null, "fips_class": "C1", "url": "http://www.cityofcarterlake.com", "feature_id": "3384", "state_name": "Iowa", "fips_county_cd": "155", "state_abbreviation": "IA", "full_county_name": "Pottawattamie County", "county_name": "Pottawattamie", "feat_class": "Populated Place", "primary_latitude": "41.29", "primary_longitude": "-95.91", "name": "Carter Lake"}, {"link_title": null, "guid": "e63ae45e06394d8c90e27b8f1c3350b6", "description": null, "fips_class": "C1", "url": "http://www.northwoodia.org/", "feature_id": "3896", "state_name": "Iowa", "fips_county_cd": "195", "state_abbreviation": "IA", "full_county_name": "Worth County", "county_name": "Worth", "feat_class": "Populated Place", "primary_latitude": "43.44", "primary_longitude": "-93.22", "name": "Northwood"}, {"link_title": null, "guid": "7a7d0c40a6b745b8b54eb032dff3ca78", "description": null, "fips_class": "H1", "url": "http://www.saccounty.org/", "feature_id": "37176", "state_name": "Iowa", "fips_county_cd": "161", "state_abbreviation": "IA", "full_county_name": null, "county_name": null, "feat_class": "Civil", "primary_latitude": "42.38", "primary_longitude": "-95.11", "name": "Sac County"}, {"link_title": null, "guid": "c01af2a5d76047f4b3a2ea93cf089cba", "description": null, "fips_class": "C1", "url": "http://www.cityofhawarden.com/", "feature_id": "3641", "state_name": "Iowa", "fips_county_cd": "167", "state_abbreviation": "IA", "full_county_name": "Sioux County", "county_name": "Sioux", "feat_class": "Populated Place", "primary_latitude": "42.99", "primary_longitude": "-96.48", "name": "Hawarden"}, {"link_title": null, "guid": "508d0cb461fd4b05ac5976df8b132139", "description": null, "fips_class": "C1", "url": "http://www.ci.norwalk.ia.us/", "feature_id": "3897", "state_name": "Iowa", "fips_county_cd": "181", "state_abbreviation": "IA", "full_county_name": "Warren County", "county_name": "Warren", "feat_class": "Populated Place", "primary_latitude": "41.47", "primary_longitude": "-93.67", "name": "Norwalk"}, {"link_title": null, "guid": "51332d9b7d664636a1e7505d685850f5", "description": null, "fips_class": "H1", "url": "http://www.scottcountyiowa.com/", "feature_id": "37177", "state_name": "Iowa", "fips_county_cd": "163", "state_abbreviation": "IA", "full_county_name": null, "county_name": null, "feat_class": "Civil", "primary_latitude": "41.63", "primary_longitude": "-90.63", "name": "Scott County"}, {"link_title": null, "guid": "10b0a792838b4a239a3c594183abd306", "description": null, "fips_class": "H1", "url": "http://www.shco.org/", "feature_id": "37178", "state_name": "Iowa", "fips_county_cd": "165", "state_abbreviation": "IA", "full_county_name": null, "county_name": null, "feat_class": "Civil", "primary_latitude": "41.68", "primary_longitude": "-95.33", "name": "Shelby County"}, {"link_title": null, "guid": "d456e9271b6143c2b676cb365ebfb64e", "description": null, "fips_class": "H1", "url": "http://www.siouxcounty.org/", "feature_id": "37179", "state_name": "Iowa", "fips_county_cd": "167", "state_abbreviation": "IA", "full_county_name": null, "county_name": null, "feat_class": "Civil", "primary_latitude": "42.73", "primary_longitude": "-96.23", "name": "Sioux County"}, {"link_title": null, "guid": "db0f5c008f344df981300ae9d87124b9", "description": null, "fips_class": "H1", "url": "http://www.storycounty.com/", "feature_id": "37180", "state_name": "Iowa", "fips_county_cd": "169", "state_abbreviation": "IA", "full_county_name": null, "county_name": null, "feat_class": "Civil", "primary_latitude": "42.03", "primary_longitude": "-93.46", "name": "Story County"}, {"link_title": null, "guid": "a6856766bb0149938ac001c542744de8", "description": null, "fips_class": "C5", "url": "http://www.ci.cedar-falls.ia.us/", "feature_id": "3389", "state_name": "Iowa", "fips_county_cd": "13", "state_abbreviation": "IA", "full_county_name": "Black Hawk County", "county_name": "Black Hawk", "feat_class": "Populated Place", "primary_latitude": "42.52", "primary_longitude": "-92.44", "name": "Cedar Falls"}, {"link_title": null, "guid": "f841cdffd7134557907ac2f2318ff097", "description": null, "fips_class": "H1", "url": "http://www.tamacounty.org/", "feature_id": "37181", "state_name": "Iowa", "fips_county_cd": "171", "state_abbreviation": "IA", "full_county_name": null, "county_name": null, "feat_class": "Civil", "primary_latitude": "42.06", "primary_longitude": "-92.53", "name": "Tama County"}, {"link_title": null, "guid": "c5316ea0041c43ed838cff26ab190461", "description": null, "fips_class": "C2", "url": "http://www.cedar-rapids.org/", "feature_id": "3390", "state_name": "Iowa", "fips_county_cd": "113", "state_abbreviation": "IA", "full_county_name": "Linn County", "county_name": "Linn", "feat_class": "Populated Place", "primary_latitude": "42", "primary_longitude": "-91.64", "name": "Cedar Rapids"}, {"link_title": null, "guid": "cc231aabb3b64c328ab65956380930c6", "description": null, "fips_class": "C1", "url": "http://www.odebolt.net/", "feature_id": "3904", "state_name": "Iowa", "fips_county_cd": "161", "state_abbreviation": "IA", "full_county_name": "Sac County", "county_name": "Sac", "feat_class": "Populated Place", "primary_latitude": "42.31", "primary_longitude": "-95.25", "name": "Odebolt"}, {"link_title": null, "guid": "6dfb3bc6223e423ab3d21bef2240206f", "description": null, "fips_class": "C1", "url": "http://www.cityofoelwein.org/", "feature_id": "3905", "state_name": "Iowa", "fips_county_cd": "65", "state_abbreviation": "IA", "full_county_name": "Fayette County", "county_name": "Fayette", "feat_class": "Populated Place", "primary_latitude": "42.67", "primary_longitude": "-91.91", "name": "Oelwein"}, {"link_title": null, "guid": "1c20e5579c8e4aebbb70bc2d3ab385dd", "description": null, "fips_class": "C1", "url": "http://www.wahpetonia.govoffice.com/", "feature_id": "4161", "state_name": "Iowa", "fips_county_cd": "59", "state_abbreviation": "IA", "full_county_name": "Dickinson County", "county_name": "Dickinson", "feat_class": "Populated Place", "primary_latitude": "43.36", "primary_longitude": "-95.17", "name": "Wahpeton"}, {"link_title": null, "guid": "34128a2c29094c868b5bdd0f038da2d7", "description": null, "fips_class": "H1", "url": "http://www.wapellocounty.org/", "feature_id": "37185", "state_name": "Iowa", "fips_county_cd": "179", "state_abbreviation": "IA", "full_county_name": null, "county_name": null, "feat_class": "Civil", "primary_latitude": "41.03", "primary_longitude": "-92.41", "name": "Wapello County"}, {"link_title": null, "guid": "06e2c107f7444135bd83543e5fa62bbc", "description": null, "fips_class": "C1", "url": "http://www.centralcityia.org/", "feature_id": "3394", "state_name": "Iowa", "fips_county_cd": "113", "state_abbreviation": "IA", "full_county_name": "Linn County", "county_name": "Linn", "feat_class": "Populated Place", "primary_latitude": "42.2", "primary_longitude": "-91.52", "name": "Central City"}, {"link_title": null, "guid": "b599acc5dd4a44a68bb4a5a9ee8407e1", "description": null, "fips_class": "C1", "url": "http://www.cityofwalcott.com/", "feature_id": "4162", "state_name": "Iowa", "fips_county_cd": "163", "state_abbreviation": "IA", "full_county_name": "Scott County", "county_name": "Scott", "feat_class": "Populated Place", "primary_latitude": "41.58", "primary_longitude": "-90.77", "name": "Walcott"}, {"link_title": null, "guid": "1436ef9fb76a46c493ea39f3b065bf16", "description": null, "fips_class": "H1", "url": "http://www.co.warren.ia.us/", "feature_id": "37186", "state_name": "Iowa", "fips_county_cd": "181", "state_abbreviation": "IA", "full_county_name": null, "county_name": null, "feat_class": "Civil", "primary_latitude": "41.33", "primary_longitude": "-93.55", "name": "Warren County"}, {"link_title": null, "guid": "a3f712f23b344507a052144574c32362", "description": null, "fips_class": "H1", "url": "http://co.washington.ia.us/", "feature_id": "37187", "state_name": "Iowa", "fips_county_cd": "183", "state_abbreviation": "IA", "full_county_name": null, "county_name": null, "feat_class": "Civil", "primary_latitude": "41.33", "primary_longitude": "-91.71", "name": "Washington County"}, {"link_title": null, "guid": "85b26aba22264e2eb31cf46dccaa45a3", "description": null, "fips_class": "C2", "url": "http://chariton.org/city/", "feature_id": "3396", "state_name": "Iowa", "fips_county_cd": "117", "state_abbreviation": "IA", "full_county_name": "Lucas County", "county_name": "Lucas", "feat_class": "Populated Place", "primary_latitude": "41.01", "primary_longitude": "-93.3", "name": "Chariton"}, {"link_title": null, "guid": "3a476bb1a36b412bac92d638d39c5b27", "description": null, "fips_class": "H1", "url": "http://webstercountyia.org/", "feature_id": "37189", "state_name": "Iowa", "fips_county_cd": "187", "state_abbreviation": "IA", "full_county_name": null, "county_name": null, "feat_class": "Civil", "primary_latitude": "42.43", "primary_longitude": "-94.16", "name": "Webster County"}, {"link_title": null, "guid": "dbb1f928bde748ae91de25993c33919c", "description": null, "fips_class": "H1", "url": "http://www.woodburyiowa.com/", "feature_id": "37192", "state_name": "Iowa", "fips_county_cd": "193", "state_abbreviation": "IA", "full_county_name": null, "county_name": null, "feat_class": "Civil", "primary_latitude": "42.38", "primary_longitude": "-96.03", "name": "Woodbury County"}, {"link_title": null, "guid": "293858f1979c4b7f909f328f1235f773", "description": null, "fips_class": "H1", "url": "http://www.worthcounty.org/", "feature_id": "37193", "state_name": "Iowa", "fips_county_cd": "195", "state_abbreviation": "IA", "full_county_name": null, "county_name": null, "feat_class": "Civil", "primary_latitude": "43.38", "primary_longitude": "-93.26", "name": "Worth County"}, {"link_title": null, "guid": "34884b11d9734703ba50dc7681a2be05", "description": null, "fips_class": "C1", "url": "http://www.cherokeeiowa.net/", "feature_id": "3402", "state_name": "Iowa", "fips_county_cd": "35", "state_abbreviation": "IA", "full_county_name": "Cherokee County", "county_name": "Cherokee", "feat_class": "Populated Place", "primary_latitude": "42.74", "primary_longitude": "-95.55", "name": "Cherokee"}, {"link_title": null, "guid": "d9093c076a6f48deb6986742cce7d776", "description": null, "fips_class": "H1", "url": "http://www.wrightcounty.org/", "feature_id": "37194", "state_name": "Iowa", "fips_county_cd": "197", "state_abbreviation": "IA", "full_county_name": null, "county_name": null, "feat_class": "Civil", "primary_latitude": "42.73", "primary_longitude": "-93.71", "name": "Wright County"}, {"link_title": null, "guid": "fe68b05143794d12bd80f2d5477576fe", "description": null, "fips_class": "C1", "url": "http://www.hubbardiowa.com/", "feature_id": "3659", "state_name": "Iowa", "fips_county_cd": "83", "state_abbreviation": "IA", "full_county_name": "Hardin County", "county_name": "Hardin", "feat_class": "Populated Place", "primary_latitude": "42.3", "primary_longitude": "-93.3", "name": "Hubbard"}, {"link_title": null, "guid": "37546d5ba3424553abf88f6f2ce334ce", "description": null, "fips_class": "C2", "url": "http://www.ci.waterloo.ia.us/", "feature_id": "4172", "state_name": "Iowa", "fips_county_cd": "13", "state_abbreviation": "IA", "full_county_name": "Black Hawk County", "county_name": "Black Hawk", "feat_class": "Populated Place", "primary_latitude": "42.49", "primary_longitude": "-92.34", "name": "Waterloo"}, {"link_title": null, "guid": "13b92ec702d245d09a29f8f7a22bfae7", "description": null, "fips_class": "C2", "url": "http://www.ci.humboldt.ia.us/", "feature_id": "3662", "state_name": "Iowa", "fips_county_cd": "91", "state_abbreviation": "IA", "full_county_name": "Humboldt County", "county_name": "Humboldt", "feat_class": "Populated Place", "primary_latitude": "42.72", "primary_longitude": "-94.21", "name": "Humboldt"}, {"link_title": null, "guid": "9460127e284f4429ac7d58aa19cf6082", "description": null, "fips_class": "C2", "url": "http://www.oskaloosaiowa.org/", "feature_id": "3919", "state_name": "Iowa", "fips_county_cd": "123", "state_abbreviation": "IA", "full_county_name": "Mahaska County", "county_name": "Mahaska", "feat_class": "Populated Place", "primary_latitude": "41.29", "primary_longitude": "-92.64", "name": "Oskaloosa"}, {"link_title": null, "guid": "4e43ca30842c4759831127464d0299d4", "description": null, "fips_class": "C1", "url": "http://www.waukee.org/", "feature_id": "4175", "state_name": "Iowa", "fips_county_cd": "49", "state_abbreviation": "IA", "full_county_name": "Dallas County", "county_name": "Dallas", "feat_class": "Populated Place", "primary_latitude": "41.61", "primary_longitude": "-93.88", "name": "Waukee"}, {"link_title": null, "guid": "58082fdeff924bfc9899d37ee32dfc60", "description": null, "fips_class": "C1", "url": "http://showcase.netins.net/web/clarencecityhall/", "feature_id": "3408", "state_name": "Iowa", "fips_county_cd": "31", "state_abbreviation": "IA", "full_county_name": "Cedar County", "county_name": "Cedar", "feat_class": "Populated Place", "primary_latitude": "41.88", "primary_longitude": "-91.05", "name": "Clarence"}, {"link_title": null, "guid": "f098d5367a874e218e4d35bedefcc070", "description": null, "fips_class": "C1", "url": "http://www.huxleyiowa.org/", "feature_id": "3664", "state_name": "Iowa", "fips_county_cd": "169", "state_abbreviation": "IA", "full_county_name": "Story County", "county_name": "Story", "feat_class": "Populated Place", "primary_latitude": "41.89", "primary_longitude": "-93.6", "name": "Huxley"}, {"link_title": null, "guid": "7e652bf67e9140799652a0b6e6b28761", "description": null, "fips_class": "C2", "url": "http://city.waverlyia.com/", "feature_id": "4177", "state_name": "Iowa", "fips_county_cd": "17", "state_abbreviation": "IA", "full_county_name": "Bremer County", "county_name": "Bremer", "feat_class": "Populated Place", "primary_latitude": "42.72", "primary_longitude": "-92.47", "name": "Waverly"}, {"link_title": null, "guid": "41d2850e6d884fa69b17602ac6589064", "description": null, "fips_class": "C1", "url": "http://www.clarksvilleiowa.com/", "feature_id": "3411", "state_name": "Iowa", "fips_county_cd": "23", "state_abbreviation": "IA", "full_county_name": "Butler County", "county_name": "Butler", "feat_class": "Populated Place", "primary_latitude": "42.78", "primary_longitude": "-92.66", "name": "Clarksville"}, {"link_title": null, "guid": "abe2867eda1d44dabaf4f4e37662d868", "description": null, "fips_class": "C1", "url": "http://www.independenceia.com/", "feature_id": "3667", "state_name": "Iowa", "fips_county_cd": "19", "state_abbreviation": "IA", "full_county_name": "Buchanan County", "county_name": "Buchanan", "feat_class": "Populated Place", "primary_latitude": "42.46", "primary_longitude": "-91.88", "name": "Independence"}, {"link_title": null, "guid": "dee76aae9bdf44d38465ef97d6d0565c", "description": null, "fips_class": "C2", "url": "http://www.cityofindianola.com/", "feature_id": "3668", "state_name": "Iowa", "fips_county_cd": "181", "state_abbreviation": "IA", "full_county_name": "Warren County", "county_name": "Warren", "feat_class": "Populated Place", "primary_latitude": "41.35", "primary_longitude": "-93.55", "name": "Indianola"}, {"link_title": null, "guid": "6cc9855fc5f34407bbd21ba7db00bcc9", "description": null, "fips_class": "C2", "url": "http://www.cityofclearlake.com/", "feature_id": "3413", "state_name": "Iowa", "fips_county_cd": "33", "state_abbreviation": "IA", "full_county_name": "Cerro Gordo County", "county_name": "Cerro Gordo", "feat_class": "Populated Place", "primary_latitude": "43.13", "primary_longitude": "-93.37", "name": "Clear Lake"}, {"link_title": null, "guid": "d6887ee51864448691e2a26d57b693c0", "description": null, "fips_class": "C1", "url": "http://www.cityofottumwa.org/", "feature_id": "3925", "state_name": "Iowa", "fips_county_cd": "179", "state_abbreviation": "IA", "full_county_name": "Wapello County", "county_name": "Wapello", "feat_class": "Populated Place", "primary_latitude": "41.02", "primary_longitude": "-92.41", "name": "Ottumwa"}, {"link_title": null, "guid": "c530a34e235446a1991499c178775243", "description": null, "fips_class": "C2", "url": "http://www.webstercity.com/", "feature_id": "4181", "state_name": "Iowa", "fips_county_cd": "79", "state_abbreviation": "IA", "full_county_name": "Hamilton County", "county_name": "Hamilton", "feat_class": "Populated Place", "primary_latitude": "42.46", "primary_longitude": "-93.81", "name": "Webster City"}, {"link_title": null, "guid": "1eb29791af784eba96b174cb076af424", "description": null, "fips_class": "C2", "url": "http://www.icgov.org/", "feature_id": "3671", "state_name": "Iowa", "fips_county_cd": "103", "state_abbreviation": "IA", "full_county_name": "Johnson County", "county_name": "Johnson", "feat_class": "Populated Place", "primary_latitude": "41.66", "primary_longitude": "-91.53", "name": "Iowa City"}, {"link_title": null, "guid": "2de027e76a9b44398f002bee10190b6d", "description": null, "fips_class": "C1", "url": "http://www.cityofiowafalls.com/", "feature_id": "3672", "state_name": "Iowa", "fips_county_cd": "83", "state_abbreviation": "IA", "full_county_name": "Hardin County", "county_name": "Hardin", "feat_class": "Populated Place", "primary_latitude": "42.52", "primary_longitude": "-93.25", "name": "Iowa Falls"}, {"link_title": null, "guid": "dbd8079cb1eb4e359cb783638a5b6689", "description": null, "fips_class": "C1", "url": "http://showcase.netins.net/web/cityofoxfordjunction/", "feature_id": "3928", "state_name": "Iowa", "fips_county_cd": "105", "state_abbreviation": "IA", "full_county_name": "Jones County", "county_name": "Jones", "feat_class": "Populated Place", "primary_latitude": "41.98", "primary_longitude": "-90.95", "name": "Oxford Junction"}, {"link_title": null, "guid": "3d5d34d3d49b47e8ac9e2d78a2b7488d", "description": null, "fips_class": "C1", "url": "http://www.clermontia.org/", "feature_id": "3417", "state_name": "Iowa", "fips_county_cd": "65", "state_abbreviation": "IA", "full_county_name": "Fayette County", "county_name": "Fayette", "feat_class": "Populated Place", "primary_latitude": "43", "primary_longitude": "-91.65", "name": "Clermont"}, {"link_title": null, "guid": "a170800c4ea348c393d496ca88fd790d", "description": null, "fips_class": "C1", "url": "http://www.cityofclive.com/", "feature_id": "3420", "state_name": "Iowa", "fips_county_cd": "153", "state_abbreviation": "IA", "full_county_name": "Polk County", "county_name": "Polk", "feat_class": "Populated Place", "primary_latitude": "41.6", "primary_longitude": "-93.72", "name": "Clive"}, {"link_title": null, "guid": "8a4f2b0a088c4615b0b1c93a83de31e5", "description": null, "fips_class": "C1", "url": "http://westbranchiowa.org/", "feature_id": "4189", "state_name": "Iowa", "fips_county_cd": "31", "state_abbreviation": "IA", "full_county_name": "Cedar County", "county_name": "Cedar", "feat_class": "Populated Place", "primary_latitude": "41.67", "primary_longitude": "-91.34", "name": "West Branch"}, {"link_title": null, "guid": "aeb1528b6aa345e898586ab9bb1f8b76", "description": null, "fips_class": "C5", "url": "http://www.westburlington.org/", "feature_id": "4190", "state_name": "Iowa", "fips_county_cd": "57", "state_abbreviation": "IA", "full_county_name": "Des Moines County", "county_name": "Des Moines", "feat_class": "Populated Place", "primary_latitude": "40.82", "primary_longitude": "-91.15", "name": "West Burlington"}, {"link_title": null, "guid": "e01e1b949cb246a4838dc2e8a67e0470", "description": null, "fips_class": "C1", "url": "http://www.jesupiowa.com/", "feature_id": "3679", "state_name": "Iowa", "fips_county_cd": "19", "state_abbreviation": "IA", "full_county_name": "Buchanan County", "county_name": "Buchanan", "feat_class": "Populated Place", "primary_latitude": "42.47", "primary_longitude": "-92.06", "name": "Jesup"}, {"link_title": null, "guid": "08b7de07547c46e0ad47dcddb7d3343c", "description": null, "fips_class": "C1", "url": "http://www.wdm-ia.com/", "feature_id": "4192", "state_name": "Iowa", "fips_county_cd": "153", "state_abbreviation": "IA", "full_county_name": "Polk County", "county_name": "Polk", "feat_class": "Populated Place", "primary_latitude": "41.57", "primary_longitude": "-93.71", "name": "West Des Moines"}, {"link_title": null, "guid": "9507dc05403d4b60af8b5cfa2b5f7441", "description": null, "fips_class": "C1", "url": "http://www.cityofjohnston.com/", "feature_id": "3681", "state_name": "Iowa", "fips_county_cd": "153", "state_abbreviation": "IA", "full_county_name": "Polk County", "county_name": "Polk", "feat_class": "Populated Place", "primary_latitude": "41.67", "primary_longitude": "-93.69", "name": "Johnston"}, {"link_title": null, "guid": "28a9300a1c804e08a6dfe2fcbdc300fa", "description": null, "fips_class": "C1", "url": "http://www.parkersburgiowa.info/", "feature_id": "3937", "state_name": "Iowa", "fips_county_cd": "23", "state_abbreviation": "IA", "full_county_name": "Butler County", "county_name": "Butler", "feat_class": "Populated Place", "primary_latitude": "42.57", "primary_longitude": "-92.78", "name": "Parkersburg"}, {"link_title": null, "guid": "a5bf2d623af04987b62d982addd4ba83", "description": null, "fips_class": "C1", "url": "http://www.westlibertyiowa.com/", "feature_id": "4193", "state_name": "Iowa", "fips_county_cd": "139", "state_abbreviation": "IA", "full_county_name": "Muscatine County", "county_name": "Muscatine", "feat_class": "Populated Place", "primary_latitude": "41.57", "primary_longitude": "-91.26", "name": "West Liberty"}, {"link_title": null, "guid": "ac93b98ddf494bfbb7fe7e1151282209", "description": null, "fips_class": "C2", "url": "http://www.westunion.com/", "feature_id": "4196", "state_name": "Iowa", "fips_county_cd": "65", "state_abbreviation": "IA", "full_county_name": "Fayette County", "county_name": "Fayette", "feat_class": "Populated Place", "primary_latitude": "42.96", "primary_longitude": "-91.8", "name": "West Union"}, {"link_title": null, "guid": "8d22a359689045359b5b3ebb0f65f460", "description": null, "fips_class": "C1", "url": "http://www.colo-iowa.org/", "feature_id": "3429", "state_name": "Iowa", "fips_county_cd": "169", "state_abbreviation": "IA", "full_county_name": "Story County", "county_name": "Story", "feat_class": "Populated Place", "primary_latitude": "42.01", "primary_longitude": "-93.31", "name": "Colo"}, {"link_title": null, "guid": "de219353a280411fa1f0e2a51d988d0e", "description": null, "fips_class": "C1", "url": "http://www.paullinaiowa.com/", "feature_id": "3941", "state_name": "Iowa", "fips_county_cd": "141", "state_abbreviation": "IA", "full_county_name": "O'Brien County", "county_name": "O'Brien", "feat_class": "Populated Place", "primary_latitude": "42.97", "primary_longitude": "-95.68", "name": "Paullina"}, {"link_title": null, "guid": "9ef8d4816a1d4fa1adf0b6f8b7b1ef80", "description": null, "fips_class": "C1", "url": "http://www.westfieldiowa.com/", "feature_id": "4197", "state_name": "Iowa", "fips_county_cd": "149", "state_abbreviation": "IA", "full_county_name": "Plymouth County", "county_name": "Plymouth", "feat_class": "Populated Place", "primary_latitude": "42.75", "primary_longitude": "-96.6", "name": "Westfield"}, {"link_title": null, "guid": "4e49374b1bdf4cef93ab1dd1598ba13b", "description": null, "fips_class": "C1", "url": "http://www.pellacity.com/", "feature_id": "3942", "state_name": "Iowa", "fips_county_cd": "125", "state_abbreviation": "IA", "full_county_name": "Marion County", "county_name": "Marion", "feat_class": "Populated Place", "primary_latitude": "41.4", "primary_longitude": "-92.91", "name": "Pella"}, {"link_title": null, "guid": "cc489db236774807b807659f1f678b0f", "description": null, "fips_class": "C1", "url": "http://www.cjiowa.com/", "feature_id": "3431", "state_name": "Iowa", "fips_county_cd": "115", "state_abbreviation": "IA", "full_county_name": "Louisa County", "county_name": "Louisa", "feat_class": "Populated Place", "primary_latitude": "41.28", "primary_longitude": "-91.36", "name": "Columbus Junction"}, {"link_title": null, "guid": "2e6ae8f506e44a89879f26752da113dd", "description": null, "fips_class": "C1", "url": "http://www.conrad.govoffice.com/", "feature_id": "3434", "state_name": "Iowa", "fips_county_cd": "75", "state_abbreviation": "IA", "full_county_name": "Grundy County", "county_name": "Grundy", "feat_class": "Populated Place", "primary_latitude": "42.22", "primary_longitude": "-92.87", "name": "Conrad"}, {"link_title": null, "guid": "80bba86349b44c51ab2fa3de9b7c5fc5", "description": null, "fips_class": "C1", "url": "http://www.whittemoreiowa.com/", "feature_id": "4205", "state_name": "Iowa", "fips_county_cd": "109", "state_abbreviation": "IA", "full_county_name": "Kossuth County", "county_name": "Kossuth", "feat_class": "Populated Place", "primary_latitude": "43.06", "primary_longitude": "-94.42", "name": "Whittemore"}, {"link_title": null, "guid": "6d2db6b81a224c84a386d58f90c6bcf0", "description": null, "fips_class": "C1", "url": "http://www.coralville.org/", "feature_id": "3439", "state_name": "Iowa", "fips_county_cd": "103", "state_abbreviation": "IA", "full_county_name": "Johnson County", "county_name": "Johnson", "feat_class": "Populated Place", "primary_latitude": "41.67", "primary_longitude": "-91.58", "name": "Coralville"}, {"link_title": null, "guid": "cbf0119faf9c48b0a7f7f70a6b37127e", "description": null, "fips_class": "C1", "url": "http://www.butler-bremer.com/web/plainfieldia/", "feature_id": "3951", "state_name": "Iowa", "fips_county_cd": "17", "state_abbreviation": "IA", "full_county_name": "Bremer County", "county_name": "Bremer", "feat_class": "Populated Place", "primary_latitude": "42.84", "primary_longitude": "-92.53", "name": "Plainfield"}, {"link_title": null, "guid": "f40243279b7741f4a78b279ee3d9a446", "description": null, "fips_class": "C1", "url": "http://www.ci.pleasant-hill.ia.us/", "feature_id": "3953", "state_name": "Iowa", "fips_county_cd": "153", "state_abbreviation": "IA", "full_county_name": "Polk County", "county_name": "Polk", "feat_class": "Populated Place", "primary_latitude": "41.58", "primary_longitude": "-93.51", "name": "Pleasant Hill"}, {"link_title": null, "guid": "c2b0ff3bea8947e4b52e092db1a9b331", "description": null, "fips_class": "C1", "url": "http://www.williamsburgiowa.org/", "feature_id": "4210", "state_name": "Iowa", "fips_county_cd": "95", "state_abbreviation": "IA", "full_county_name": "Iowa County", "county_name": "Iowa", "feat_class": "Populated Place", "primary_latitude": "41.66", "primary_longitude": "-92", "name": "Williamsburg"}, {"link_title": null, "guid": "0e6290b5bf0e47eda0dcdfac2ac6e568", "description": null, "fips_class": "C1", "url": "http://www.windsorheights.org/", "feature_id": "4213", "state_name": "Iowa", "fips_county_cd": "153", "state_abbreviation": "IA", "full_county_name": "Polk County", "county_name": "Polk", "feat_class": "Populated Place", "primary_latitude": "41.59", "primary_longitude": "-93.7", "name": "Windsor Heights"}, {"link_title": null, "guid": "a0c018abb9bf46f0bc2270149f79f34e", "description": null, "fips_class": "C1", "url": "http://www.councilbluffs-ia.gov/", "feature_id": "3446", "state_name": "Iowa", "fips_county_cd": "155", "state_abbreviation": "IA", "full_county_name": "Pottawattamie County", "county_name": "Pottawattamie", "feat_class": "Populated Place", "primary_latitude": "41.26", "primary_longitude": "-95.86", "name": "Council Bluffs"}, {"link_title": null, "guid": "209075fc9ca34d4f86228983d3f65765", "description": null, "fips_class": "C1", "url": "http://www.plymouthiowa.us/", "feature_id": "3958", "state_name": "Iowa", "fips_county_cd": "33", "state_abbreviation": "IA", "full_county_name": "Cerro Gordo County", "county_name": "Cerro Gordo", "feat_class": "Populated Place", "primary_latitude": "43.24", "primary_longitude": "-93.12", "name": "Plymouth"}, {"link_title": null, "guid": "d9bb0684775d4113a21171a68c1a2fc0", "description": null, "fips_class": "C1", "url": "http://www.pocahontasiowa.com/", "feature_id": "3959", "state_name": "Iowa", "fips_county_cd": "151", "state_abbreviation": "IA", "full_county_name": "Pocahontas County", "county_name": "Pocahontas", "feat_class": "Populated Place", "primary_latitude": "42.73", "primary_longitude": "-94.66", "name": "Pocahontas"}, {"link_title": null, "guid": "c87584bf882540378360b73f557e9ac6", "description": null, "fips_class": "C1", "url": "http://www.wiotaiowa.com/", "feature_id": "4217", "state_name": "Iowa", "fips_county_cd": "29", "state_abbreviation": "IA", "full_county_name": "Cass County", "county_name": "Cass", "feat_class": "Populated Place", "primary_latitude": "41.4", "primary_longitude": "-94.88", "name": "Wiota"}, {"link_title": null, "guid": "ed3d88ae7c424e179a1e0379ca84a9ee", "description": null, "fips_class": "C1", "url": "http://www.crescochamber.com/", "feature_id": "3450", "state_name": "Iowa", "fips_county_cd": "89", "state_abbreviation": "IA", "full_county_name": "Howard County", "county_name": "Howard", "feat_class": "Populated Place", "primary_latitude": "43.38", "primary_longitude": "-92.11", "name": "Cresco"}, {"link_title": null, "guid": "5d4f1c2fd0034278ab0a4e4c804026f3", "description": null, "fips_class": "C1", "url": "http://www.discoverknoxville.com/index.php?page&id=7", "feature_id": "3706", "state_name": "Iowa", "fips_county_cd": "125", "state_abbreviation": "IA", "full_county_name": "Marion County", "county_name": "Marion", "feat_class": "Populated Place", "primary_latitude": "41.32", "primary_longitude": "-93.1", "name": "Knoxville"}, {"link_title": null, "guid": "32136c90488e4a65b056c0d951d84314", "description": null, "fips_class": "C1", "url": "http://www.cityofpostville.com/", "feature_id": "3964", "state_name": "Iowa", "fips_county_cd": "5", "state_abbreviation": "IA", "full_county_name": "Allamakee County", "county_name": "Allamakee", "feat_class": "Populated Place", "primary_latitude": "43.08", "primary_longitude": "-91.56", "name": "Postville"}, {"link_title": null, "guid": "21851b35367248128a66da6a71d8707a", "description": null, "fips_class": "C1", "url": "http://www.prairiecityiowa.us/", "feature_id": "3965", "state_name": "Iowa", "fips_county_cd": "99", "state_abbreviation": "IA", "full_county_name": "Jasper County", "county_name": "Jasper", "feat_class": "Populated Place", "primary_latitude": "41.59", "primary_longitude": "-93.23", "name": "Prairie City"}, {"link_title": null, "guid": "c1b8777280374b1eb81a57c52f3bc8e1", "description": null, "fips_class": "C1", "url": "http://www.lakeparkia.com/", "feature_id": "3713", "state_name": "Iowa", "fips_county_cd": "59", "state_abbreviation": "IA", "full_county_name": "Dickinson County", "county_name": "Dickinson", "feat_class": "Populated Place", "primary_latitude": "43.45", "primary_longitude": "-95.32", "name": "Lake Park"}, {"link_title": null, "guid": "3fdc02313d2c4dd3915616d344c9436f", "description": null, "fips_class": "C1", "url": "http://primghar.com/", "feature_id": "3969", "state_name": "Iowa", "fips_county_cd": "141", "state_abbreviation": "IA", "full_county_name": "O'Brien County", "county_name": "O'Brien", "feat_class": "Populated Place", "primary_latitude": "43.08", "primary_longitude": "-95.62", "name": "Primghar"}, {"link_title": null, "guid": "9c7f4d0e87f349599c8d6f7ace19803c", "description": null, "fips_class": "C1", "url": "http://showcase.netins.net/web/wyomingia/", "feature_id": "4225", "state_name": "Iowa", "fips_county_cd": "105", "state_abbreviation": "IA", "full_county_name": "Jones County", "county_name": "Jones", "feat_class": "Populated Place", "primary_latitude": "42.05", "primary_longitude": "-91", "name": "Wyoming"}, {"link_title": null, "guid": "591dfd1710384fee8b887d42d6de0869", "description": null, "fips_class": "C1", "url": "http://www.lakeview-ia.com/", "feature_id": "3714", "state_name": "Iowa", "fips_county_cd": "161", "state_abbreviation": "IA", "full_county_name": "Sac County", "county_name": "Sac", "feat_class": "Populated Place", "primary_latitude": "42.31", "primary_longitude": "-95.05", "name": "Lake View"}, {"link_title": null, "guid": "7711117c3d81420aa9df0b0a97dc6df8", "description": null, "fips_class": "C1", "url": "http://www.zearing.net/", "feature_id": "4229", "state_name": "Iowa", "fips_county_cd": "169", "state_abbreviation": "IA", "full_county_name": "Story County", "county_name": "Story", "feat_class": "Populated Place", "primary_latitude": "42.16", "primary_longitude": "-93.29", "name": "Zearing"}, {"link_title": null, "guid": "f27efeaa6db948d990f688bdf7c37ef7", "description": null, "fips_class": "C1", "url": "http://www.quasky.com/", "feature_id": "3974", "state_name": "Iowa", "fips_county_cd": "19", "state_abbreviation": "IA", "full_county_name": "Buchanan County", "county_name": "Buchanan", "feat_class": "Populated Place", "primary_latitude": "42.39", "primary_longitude": "-91.76", "name": "Quasqueton"}, {"link_title": null, "guid": "eec360369c0a4b68a9c137cd87e787fe", "description": null, "fips_class": "C5", "url": "http://www.danvilleiowa.com/", "feature_id": "3463", "state_name": "Iowa", "fips_county_cd": "57", "state_abbreviation": "IA", "full_county_name": "Des Moines County", "county_name": "Des Moines", "feat_class": "Populated Place", "primary_latitude": "40.86", "primary_longitude": "-91.31", "name": "Danville"}, {"link_title": null, "guid": "7d232641cbb342fc8064cda12d56abcb", "description": null, "fips_class": "C2", "url": "http://www.ci.davenport.ia.us/", "feature_id": "3464", "state_name": "Iowa", "fips_county_cd": "163", "state_abbreviation": "IA", "full_county_name": "Scott County", "county_name": "Scott", "feat_class": "Populated Place", "primary_latitude": "41.52", "primary_longitude": "-90.57", "name": "Davenport"}, {"link_title": null, "guid": "24026ca8d036427495541da4a31be389", "description": null, "fips_class": "C1", "url": "http://www.decorahia.org/", "feature_id": "3471", "state_name": "Iowa", "fips_county_cd": "191", "state_abbreviation": "IA", "full_county_name": "Winneshiek County", "county_name": "Winneshiek", "feat_class": "Populated Place", "primary_latitude": "43.3", "primary_longitude": "-91.78", "name": "Decorah"}, {"link_title": null, "guid": "5fb5c930edc04283b68a2f9a30fc848a", "description": null, "fips_class": "C1", "url": "http://www.lawtoniowa.com/", "feature_id": "3728", "state_name": "Iowa", "fips_county_cd": "193", "state_abbreviation": "IA", "full_county_name": "Woodbury County", "county_name": "Woodbury", "feat_class": "Populated Place", "primary_latitude": "42.47", "primary_longitude": "-96.18", "name": "Lawton"}, {"link_title": null, "guid": "5bef96d4bc5a42609604295b45fa6a50", "description": null, "fips_class": "C1", "url": "http://www.leclaireiowa.gov/", "feature_id": "3729", "state_name": "Iowa", "fips_county_cd": "163", "state_abbreviation": "IA", "full_county_name": "Scott County", "county_name": "Scott", "feat_class": "Populated Place", "primary_latitude": "41.59", "primary_longitude": "-90.34", "name": "Le Claire"}, {"link_title": null, "guid": "85a82f0787424c2a87622807a67e2b7a", "description": null, "fips_class": "C1", "url": "http://www.redfieldia.com/", "feature_id": "3989", "state_name": "Iowa", "fips_county_cd": "49", "state_abbreviation": "IA", "full_county_name": "Dallas County", "county_name": "Dallas", "feat_class": "Populated Place", "primary_latitude": "41.58", "primary_longitude": "-94.19", "name": "Redfield"}, {"link_title": null, "guid": "8df88c7973c84cd89b98e53d9157f762", "description": null, "fips_class": "C1", "url": "http://reinbeck.org/", "feature_id": "3990", "state_name": "Iowa", "fips_county_cd": "75", "state_abbreviation": "IA", "full_county_name": "Grundy County", "county_name": "Grundy", "feat_class": "Populated Place", "primary_latitude": "42.32", "primary_longitude": "-92.59", "name": "Reinbeck"}, {"link_title": null, "guid": "80b6246113c64571852b3802497d8e2c", "description": null, "fips_class": "C1", "url": "http://www.denisonia.com/", "feature_id": "3481", "state_name": "Iowa", "fips_county_cd": "47", "state_abbreviation": "IA", "full_county_name": "Crawford County", "county_name": "Crawford", "feat_class": "Populated Place", "primary_latitude": "42.01", "primary_longitude": "-95.35", "name": "Denison"}, {"link_title": null, "guid": "686e843ac37b4c7d858c4d1360286784", "description": null, "fips_class": "C1", "url": "http://www.cityofdenveriowa.com/", "feature_id": "3482", "state_name": "Iowa", "fips_county_cd": "17", "state_abbreviation": "IA", "full_county_name": "Bremer County", "county_name": "Bremer", "feat_class": "Populated Place", "primary_latitude": "42.67", "primary_longitude": "-92.33", "name": "Denver"}, {"link_title": null, "guid": "56bad56e024b42509f2d09fe35396cef", "description": null, "fips_class": "C1", "url": "http://www.dmgov.org/", "feature_id": "3484", "state_name": "Iowa", "fips_county_cd": "153", "state_abbreviation": "IA", "full_county_name": "Polk County", "county_name": "Polk", "feat_class": "Populated Place", "primary_latitude": "41.6", "primary_longitude": "-93.6", "name": "Des Moines"}, {"link_title": null, "guid": "a922631f40f54b6fac97d9bfaf0b8e05", "description": null, "fips_class": "C1", "url": "http://www.donnellsoniowa.com/", "feature_id": "3492", "state_name": "Iowa", "fips_county_cd": "111", "state_abbreviation": "IA", "full_county_name": "Lee County", "county_name": "Lee", "feat_class": "Populated Place", "primary_latitude": "40.64", "primary_longitude": "-91.56", "name": "Donnellson"}, {"link_title": null, "guid": "2cff99f29669457688f0738ccadc82cf", "description": null, "fips_class": "C1", "url": "http://www.linngroveiowa.org/", "feature_id": "3748", "state_name": "Iowa", "fips_county_cd": "21", "state_abbreviation": "IA", "full_county_name": "Buena Vista County", "county_name": "Buena Vista", "feat_class": "Populated Place", "primary_latitude": "42.89", "primary_longitude": "-95.24", "name": "Linn Grove"}, {"link_title": null, "guid": "b8d6baee1ee147819d30dcf56208cda3", "description": null, "fips_class": "C1", "url": "http://www.lisboniowa.com/", "feature_id": "3749", "state_name": "Iowa", "fips_county_cd": "113", "state_abbreviation": "IA", "full_county_name": "Linn County", "county_name": "Linn", "feat_class": "Populated Place", "primary_latitude": "41.92", "primary_longitude": "-91.38", "name": "Lisbon"}, {"link_title": null, "guid": "aaf0fa0e00b64de59095ae957c024720", "description": null, "fips_class": "C1", "url": "http://www.fmtcs.com/web/robins/", "feature_id": "4007", "state_name": "Iowa", "fips_county_cd": "113", "state_abbreviation": "IA", "full_county_name": "Linn County", "county_name": "Linn", "feat_class": "Populated Place", "primary_latitude": "42.07", "primary_longitude": "-91.66", "name": "Robins"}, {"link_title": null, "guid": "4751ec384d8044598517ee5c115441d3", "description": null, "fips_class": "C1", "url": "http://www.rockfallsiowa.com/", "feature_id": "4008", "state_name": "Iowa", "fips_county_cd": "33", "state_abbreviation": "IA", "full_county_name": "Cerro Gordo County", "county_name": "Cerro Gordo", "feat_class": "Populated Place", "primary_latitude": "43.2", "primary_longitude": "-93.08", "name": "Rock Falls"}, {"link_title": null, "guid": "4873bc7788ef4687bea50a27de110c67", "description": null, "fips_class": "C2", "url": "http://www.cityofdubuque.org/", "feature_id": "3499", "state_name": "Iowa", "fips_county_cd": "61", "state_abbreviation": "IA", "full_county_name": "Dubuque County", "county_name": "Dubuque", "feat_class": "Populated Place", "primary_latitude": "42.5", "primary_longitude": "-90.66", "name": "Dubuque"}, {"link_title": null, "guid": "0b370c3b01644c3f82b2d11c7ae8778d", "description": null, "fips_class": "C1", "url": "http://www.loganiowa.com/", "feature_id": "3756", "state_name": "Iowa", "fips_county_cd": "85", "state_abbreviation": "IA", "full_county_name": "Harrison County", "county_name": "Harrison", "feat_class": "Populated Place", "primary_latitude": "41.64", "primary_longitude": "-95.78", "name": "Logan"}, {"link_title": null, "guid": "18db88f0e5464d3f97278e7f674ada68", "description": null, "fips_class": "C1", "url": "http://www.rockwell-ia.org/", "feature_id": "4012", "state_name": "Iowa", "fips_county_cd": "33", "state_abbreviation": "IA", "full_county_name": "Cerro Gordo County", "county_name": "Cerro Gordo", "feat_class": "Populated Place", "primary_latitude": "42.98", "primary_longitude": "-93.19", "name": "Rockwell"}, {"link_title": null, "guid": "7ea696abd8b541e2b4f031daea247efb", "description": null, "fips_class": "C1", "url": "http://www.dunlapia.org/", "feature_id": "3504", "state_name": "Iowa", "fips_county_cd": "85", "state_abbreviation": "IA", "full_county_name": "Harrison County", "county_name": "Harrison", "feat_class": "Populated Place", "primary_latitude": "41.85", "primary_longitude": "-95.6", "name": "Dunlap"}, {"link_title": null, "guid": "3b7e9eb268254d8696bf8012b2bbb1af", "description": null, "fips_class": "C1", "url": "http://www.longgroveia.org/", "feature_id": "3760", "state_name": "Iowa", "fips_county_cd": "163", "state_abbreviation": "IA", "full_county_name": "Scott County", "county_name": "Scott", "feat_class": "Populated Place", "primary_latitude": "41.69", "primary_longitude": "-90.58", "name": "Long Grove"}, {"link_title": null, "guid": "3fb9fabfde0f4f4f8078c9dc73d483d0", "description": null, "fips_class": "C1", "url": "http://www.cityofroland.org/", "feature_id": "4016", "state_name": "Iowa", "fips_county_cd": "169", "state_abbreviation": "IA", "full_county_name": "Story County", "county_name": "Story", "feat_class": "Populated Place", "primary_latitude": "42.16", "primary_longitude": "-93.5", "name": "Roland"}, {"link_title": null, "guid": "f774e8e411574e0c9a064aa8cd17dc7f", "description": null, "fips_class": "C2", "url": "http://rolfeiowa.com/", "feature_id": "4017", "state_name": "Iowa", "fips_county_cd": "151", "state_abbreviation": "IA", "full_county_name": "Pocahontas County", "county_name": "Pocahontas", "feat_class": "Populated Place", "primary_latitude": "42.81", "primary_longitude": "-94.52", "name": "Rolfe"}, {"link_title": null, "guid": "3b4f0678498e4a5ea7c42ebd65b581db", "description": null, "fips_class": "C1", "url": "http://www.lostnationiowa.org/", "feature_id": "3762", "state_name": "Iowa", "fips_county_cd": "45", "state_abbreviation": "IA", "full_county_name": "Clinton County", "county_name": "Clinton", "feat_class": "Populated Place", "primary_latitude": "41.96", "primary_longitude": "-90.81", "name": "Lost Nation"}, {"link_title": null, "guid": "f5fd0c34de3c4170a3914eea93b68ffe", "description": null, "fips_class": "C1", "url": "http://www.cityoflowden.org/", "feature_id": "3765", "state_name": "Iowa", "fips_county_cd": "31", "state_abbreviation": "IA", "full_county_name": "Cedar County", "county_name": "Cedar", "feat_class": "Populated Place", "primary_latitude": "41.85", "primary_longitude": "-90.92", "name": "Lowden"}, {"link_title": null, "guid": "0a2a08f55a1f4458846932ac97981af2", "description": null, "fips_class": "C1", "url": "http://adeliowa.org/", "feature_id": "3258", "state_name": "Iowa", "fips_county_cd": "49", "state_abbreviation": "IA", "full_county_name": "Dallas County", "county_name": "Dallas", "feat_class": "Populated Place", "primary_latitude": "41.61", "primary_longitude": "-94.01", "name": "Adel"}, {"link_title": null, "guid": "a81c68da4d754bf6994700ccb44d44fc", "description": null, "fips_class": "C1", "url": "http://www.aftoniowa.com/", "feature_id": "3259", "state_name": "Iowa", "fips_county_cd": "175", "state_abbreviation": "IA", "full_county_name": "Union County", "county_name": "Union", "feat_class": "Populated Place", "primary_latitude": "41.02", "primary_longitude": "-94.19", "name": "Afton"}, {"link_title": null, "guid": "15effc8329c643e9af7279a2cc436da8", "description": null, "fips_class": "C1", "url": "http://www.albertcity.com/", "feature_id": "3263", "state_name": "Iowa", "fips_county_cd": "21", "state_abbreviation": "IA", "full_county_name": "Buena Vista County", "county_name": "Buena Vista", "feat_class": "Populated Place", "primary_latitude": "42.78", "primary_longitude": "-94.94", "name": "Albert City"}, {"link_title": null, "guid": "d8a45d7477bb4312a84281d4373a5172", "description": null, "fips_class": "C1", "url": "http://www.eldridge.org/", "feature_id": "3522", "state_name": "Iowa", "fips_county_cd": "163", "state_abbreviation": "IA", "full_county_name": "Scott County", "county_name": "Scott", "feat_class": "Populated Place", "primary_latitude": "41.65", "primary_longitude": "-90.58", "name": "Eldridge"}, {"link_title": null, "guid": "b824bc3dc6ec4503ba53bed72e4263e2", "description": null, "fips_class": "C1", "url": "http://www.elginiowa.org/", "feature_id": "3523", "state_name": "Iowa", "fips_county_cd": "65", "state_abbreviation": "IA", "full_county_name": "Fayette County", "county_name": "Fayette", "feat_class": "Populated Place", "primary_latitude": "42.95", "primary_longitude": "-91.63", "name": "Elgin"}, {"link_title": null, "guid": "cef5c992b6164ae693a746dca3ddf8ba", "description": null, "fips_class": "C1", "url": "http://mayors-office.town.alexander.ia.us/", "feature_id": "3268", "state_name": "Iowa", "fips_county_cd": "69", "state_abbreviation": "IA", "full_county_name": "Franklin County", "county_name": "Franklin", "feat_class": "Populated Place", "primary_latitude": "42.8", "primary_longitude": "-93.47", "name": "Alexander"}, {"link_title": null, "guid": "ab5d33c0c28041869b47f3d4e23a7fd9", "description": null, "fips_class": "C2", "url": "http://www.ci.algona.ia.us/", "feature_id": "3269", "state_name": "Iowa", "fips_county_cd": "109", "state_abbreviation": "IA", "full_county_name": "Kossuth County", "county_name": "Kossuth", "feat_class": "Populated Place", "primary_latitude": "43.06", "primary_longitude": "-94.23", "name": "Algona"}, {"link_title": null, "guid": "342a531acd6d4aa19f2ac1d5ac66666a", "description": null, "fips_class": "C1", "url": "http://www.vediccity.net/", "feature_id": "3781", "state_name": "Iowa", "fips_county_cd": "101", "state_abbreviation": "IA", "full_county_name": "Jefferson County", "county_name": "Jefferson", "feat_class": "Populated Place", "primary_latitude": "41.0525185", "primary_longitude": "-91.9948961", "name": "Maharishi Vedic City"}, {"link_title": null, "guid": "87920c6b2a15483fad17ef25bdaf0de1", "description": null, "fips_class": "C1", "url": "http://www.manchester-ia.org/", "feature_id": "3786", "state_name": "Iowa", "fips_county_cd": "55", "state_abbreviation": "IA", "full_county_name": "Delaware County", "county_name": "Delaware", "feat_class": "Populated Place", "primary_latitude": "42.48", "primary_longitude": "-91.45", "name": "Manchester"}, {"link_title": null, "guid": "6d9d14589063479782133411fa25d53e", "description": null, "fips_class": "C1", "url": "http://manillaia.com/", "feature_id": "3787", "state_name": "Iowa", "fips_county_cd": "47", "state_abbreviation": "IA", "full_county_name": "Crawford County", "county_name": "Crawford", "feat_class": "Populated Place", "primary_latitude": "41.88", "primary_longitude": "-95.23", "name": "Manilla"}, {"link_title": null, "guid": "79ccc95d661f46ff9d81ca38f9308dd7", "description": null, "fips_class": "C1", "url": "http://www.altoona-iowa.com/", "feature_id": "3276", "state_name": "Iowa", "fips_county_cd": "153", "state_abbreviation": "IA", "full_county_name": "Polk County", "county_name": "Polk", "feat_class": "Populated Place", "primary_latitude": "41.64", "primary_longitude": "-93.46", "name": "Altoona"}, {"link_title": null, "guid": "98049a4f008b47acbaedaa1fb1d28863", "description": null, "fips_class": "C1", "url": "http://www.elyiowa.com/", "feature_id": "3533", "state_name": "Iowa", "fips_county_cd": "113", "state_abbreviation": "IA", "full_county_name": "Linn County", "county_name": "Linn", "feat_class": "Populated Place", "primary_latitude": "41.87", "primary_longitude": "-91.58", "name": "Ely"}, {"link_title": null, "guid": "a522f346b1a94021a00eea28734a2098", "description": null, "fips_class": "C1", "url": "http://www.cityofames.org/", "feature_id": "3278", "state_name": "Iowa", "fips_county_cd": "169", "state_abbreviation": "IA", "full_county_name": "Story County", "county_name": "Story", "feat_class": "Populated Place", "primary_latitude": "42.03", "primary_longitude": "-93.61", "name": "Ames"}, {"link_title": null, "guid": "3203e8e4c88f458e9cf66382d19ef833", "description": null, "fips_class": "C1", "url": "http://www.emmetsburg.com/", "feature_id": "3535", "state_name": "Iowa", "fips_county_cd": "147", "state_abbreviation": "IA", "full_county_name": "Palo Alto County", "county_name": "Palo Alto", "feat_class": "Populated Place", "primary_latitude": "43.11", "primary_longitude": "-94.68", "name": "Emmetsburg"}, {"link_title": null, "guid": "002bcd4b38144294b6a439190adf675d", "description": null, "fips_class": "C1", "url": "http://www.maquoketaia.com/", "feature_id": "3792", "state_name": "Iowa", "fips_county_cd": "97", "state_abbreviation": "IA", "full_county_name": "Jackson County", "county_name": "Jackson", "feat_class": "Populated Place", "primary_latitude": "42.06", "primary_longitude": "-90.66", "name": "Maquoketa"}, {"link_title": null, "guid": "24c4faf6015d4b11bf2f49bed386f8c5", "description": null, "fips_class": "C1", "url": "http://www.anitaiowa.com/", "feature_id": "3282", "state_name": "Iowa", "fips_county_cd": "29", "state_abbreviation": "IA", "full_county_name": "Cass County", "county_name": "Cass", "feat_class": "Populated Place", "primary_latitude": "41.44", "primary_longitude": "-94.76", "name": "Anita"}, {"link_title": null, "guid": "1a20d8bd87d74a4d90d78f170b0e529a", "description": null, "fips_class": "C1", "url": "http://www.cityofsergeantbluff.com/", "feature_id": "4050", "state_name": "Iowa", "fips_county_cd": "193", "state_abbreviation": "IA", "full_county_name": "Woodbury County", "county_name": "Woodbury", "feat_class": "Populated Place", "primary_latitude": "42.4", "primary_longitude": "-96.35", "name": "Sergeant Bluff"}, {"link_title": null, "guid": "fa2d8ceb523748ebbe7e1d8fd839326f", "description": null, "fips_class": "C1", "url": "http://www.ci.ankeny.ia.us/", "feature_id": "3283", "state_name": "Iowa", "fips_county_cd": "153", "state_abbreviation": "IA", "full_county_name": "Polk County", "county_name": "Polk", "feat_class": "Populated Place", "primary_latitude": "41.72", "primary_longitude": "-93.6", "name": "Ankeny"}, {"link_title": null, "guid": "2dd6d89e2580470f8dde173ffae41d8e", "description": null, "fips_class": "C2", "url": "http://evansdale.govoffice.com/", "feature_id": "3539", "state_name": "Iowa", "fips_county_cd": "13", "state_abbreviation": "IA", "full_county_name": "Black Hawk County", "county_name": "Black Hawk", "feat_class": "Populated Place", "primary_latitude": "42.46", "primary_longitude": "-92.28", "name": "Evansdale"}, {"link_title": null, "guid": "4a5d1f54ecc64a77a5da0b6373409e34", "description": null, "fips_class": "C1", "url": "http://www.marengoiowa.com/", "feature_id": "3796", "state_name": "Iowa", "fips_county_cd": "95", "state_abbreviation": "IA", "full_county_name": "Iowa County", "county_name": "Iowa", "feat_class": "Populated Place", "primary_latitude": "41.79", "primary_longitude": "-92.07", "name": "Marengo"}, {"link_title": null, "guid": "ba69c8391a44489485aca94d962575dd", "description": null, "fips_class": "C1", "url": "http://aplingtonia.com/", "feature_id": "3285", "state_name": "Iowa", "fips_county_cd": "23", "state_abbreviation": "IA", "full_county_name": "Butler County", "county_name": "Butler", "feat_class": "Populated Place", "primary_latitude": "42.58", "primary_longitude": "-92.88", "name": "Aplington"}, {"link_title": null, "guid": "47f639afcf954917a1142fc7ee3c1607", "description": null, "fips_class": "C1", "url": "http://www.cityofmarion.org/", "feature_id": "3797", "state_name": "Iowa", "fips_county_cd": "113", "state_abbreviation": "IA", "full_county_name": "Linn County", "county_name": "Linn", "feat_class": "Populated Place", "primary_latitude": "42.03", "primary_longitude": "-91.59", "name": "Marion"}, {"link_title": null, "guid": "049865014092469b86a71203aaeec70b", "description": null, "fips_class": "C1", "url": "http://www.fairbank-ia.org/", "feature_id": "3543", "state_name": "Iowa", "fips_county_cd": "19", "state_abbreviation": "IA", "full_county_name": "Buchanan County", "county_name": "Buchanan", "feat_class": "Populated Place", "primary_latitude": "42.63", "primary_longitude": "-92.04", "name": "Fairbank"}, {"link_title": null, "guid": "3436eb1fdefc411891b904fb6cd43ecd", "description": null, "fips_class": "C1", "url": "http://www.ci.marshalltown.ia.us/", "feature_id": "3800", "state_name": "Iowa", "fips_county_cd": "127", "state_abbreviation": "IA", "full_county_name": "Marshall County", "county_name": "Marshall", "feat_class": "Populated Place", "primary_latitude": "42.04", "primary_longitude": "-92.9", "name": "Marshalltown"}, {"link_title": null, "guid": "252ba6495aa14d7baa99916b02484c4c", "description": null, "fips_class": "C1", "url": "http://www.shelbyia.com/", "feature_id": "4056", "state_name": "Iowa", "fips_county_cd": "165", "state_abbreviation": "IA", "full_county_name": "Shelby County", "county_name": "Shelby", "feat_class": "Populated Place", "primary_latitude": "41.51", "primary_longitude": "-95.45", "name": "Shelby"}, {"link_title": null, "guid": "e083a71d9f7843fd937fa855ad350838", "description": null, "fips_class": "C2", "url": "http://www.cityoffairfieldiowa.com/", "feature_id": "3545", "state_name": "Iowa", "fips_county_cd": "101", "state_abbreviation": "IA", "full_county_name": "Jefferson County", "county_name": "Jefferson", "feat_class": "Populated Place", "primary_latitude": "41", "primary_longitude": "-91.96", "name": "Fairfield"}, {"link_title": null, "guid": "9d9aa3e4c7b74acf8a8e3a880a225db6", "description": null, "fips_class": "C1", "url": "http://www.sheldoniowa.com/", "feature_id": "4060", "state_name": "Iowa", "fips_county_cd": "141", "state_abbreviation": "IA", "full_county_name": "O'Brien County", "county_name": "O'Brien", "feat_class": "Populated Place", "primary_latitude": "43.18", "primary_longitude": "-95.85", "name": "Sheldon"}, {"link_title": null, "guid": "39eecefed66c4e39be06499f7588f75c", "description": null, "fips_class": "C1", "url": "http://arnoldsparkcity.com/", "feature_id": "3293", "state_name": "Iowa", "fips_county_cd": "59", "state_abbreviation": "IA", "full_county_name": "Dickinson County", "county_name": "Dickinson", "feat_class": "Populated Place", "primary_latitude": "43.37", "primary_longitude": "-95.12", "name": "Arnolds Park"}, {"link_title": null, "guid": "d4a34c1b2ee64d27a7921b9192f1f3e1", "description": null, "fips_class": "C2", "url": "http://www.masoncity.net/", "feature_id": "3805", "state_name": "Iowa", "fips_county_cd": "33", "state_abbreviation": "IA", "full_county_name": "Cerro Gordo County", "county_name": "Cerro Gordo", "feat_class": "Populated Place", "primary_latitude": "43.15", "primary_longitude": "-93.2", "name": "Mason City"}, {"link_title": null, "guid": "f53841f746e0411591edf1855a1f3472", "description": null, "fips_class": "C1", "url": "http://www.shellrockiowa.org/", "feature_id": "4061", "state_name": "Iowa", "fips_county_cd": "23", "state_abbreviation": "IA", "full_county_name": "Butler County", "county_name": "Butler", "feat_class": "Populated Place", "primary_latitude": "42.71", "primary_longitude": "-92.58", "name": "Shell Rock"}, {"link_title": null, "guid": "56e5d6ad81484f52bbd1564e1b4fc711", "description": null, "fips_class": "C2", "url": "http://www.fayetteia.com/", "feature_id": "3551", "state_name": "Iowa", "fips_county_cd": "65", "state_abbreviation": "IA", "full_county_name": "Fayette County", "county_name": "Fayette", "feat_class": "Populated Place", "primary_latitude": "42.84", "primary_longitude": "-91.8", "name": "Fayette"}, {"link_title": null, "guid": "d88def4f98cc43a5845274d00c1c0ae2", "description": null, "fips_class": "C1", "url": "http://www.cityofatkins.com/", "feature_id": "3299", "state_name": "Iowa", "fips_county_cd": "11", "state_abbreviation": "IA", "full_county_name": "Benton County", "county_name": "Benton", "feat_class": "Populated Place", "primary_latitude": "41.99", "primary_longitude": "-91.86", "name": "Atkins"}, {"link_title": null, "guid": "fdf9bcf3eaa94245af5796fb34e987b2", "description": null, "fips_class": "C1", "url": "http://www.mccallsburg.com/", "feature_id": "3813", "state_name": "Iowa", "fips_county_cd": "169", "state_abbreviation": "IA", "full_county_name": "Story County", "county_name": "Story", "feat_class": "Populated Place", "primary_latitude": "42.16", "primary_longitude": "-93.38", "name": "McCallsburg"}, {"link_title": null, "guid": "4177b72c8796408aaa4c219c5d920b93", "description": null, "fips_class": "C1", "url": "http://www.siouxcenter.org/", "feature_id": "4071", "state_name": "Iowa", "fips_county_cd": "167", "state_abbreviation": "IA", "full_county_name": "Sioux County", "county_name": "Sioux", "feat_class": "Populated Place", "primary_latitude": "43.07", "primary_longitude": "-96.17", "name": "Sioux Center"}, {"link_title": null, "guid": "6d4ac21608394cdca42256a7284134fe", "description": null, "fips_class": "C1", "url": "http://www.east-buc.k12.ia.us/Aurora/aurora.htm", "feature_id": "3304", "state_name": "Iowa", "fips_county_cd": "19", "state_abbreviation": "IA", "full_county_name": "Buchanan County", "county_name": "Buchanan", "feat_class": "Populated Place", "primary_latitude": "42.61", "primary_longitude": "-91.72", "name": "Aurora"}, {"link_title": null, "guid": "fdd35aef002b4534827fd41599a271f9", "description": null, "fips_class": "C5", "url": "http://www.sioux-city.org/", "feature_id": "4072", "state_name": "Iowa", "fips_county_cd": "193", "state_abbreviation": "IA", "full_county_name": "Woodbury County", "county_name": "Woodbury", "feat_class": "Populated Place", "primary_latitude": "42.49", "primary_longitude": "-96.4", "name": "Sioux City"}, {"link_title": null, "guid": "c27123f22a1d41a49c5db0ebeaa94181", "description": null, "fips_class": "H1", "url": "http://www.adamscountyia.com/", "feature_id": "37097", "state_name": "Iowa", "fips_county_cd": "3", "state_abbreviation": "IA", "full_county_name": null, "county_name": null, "feat_class": "Civil", "primary_latitude": "41.03", "primary_longitude": "-94.7", "name": "Adams County"}, {"link_title": null, "guid": "7820dc4f19904a418aeba927e08e3d83", "description": null, "fips_class": "C2", "url": "http://www.fortdodgeiowa.org/", "feature_id": "3562", "state_name": "Iowa", "fips_county_cd": "187", "state_abbreviation": "IA", "full_county_name": "Webster County", "county_name": "Webster", "feat_class": "Populated Place", "primary_latitude": "42.49", "primary_longitude": "-94.16", "name": "Fort Dodge"}, {"link_title": null, "guid": "f85397ae6daf4e559f087fd197e6d6e8", "description": null, "fips_class": "C1", "url": "http://www.cityofmechanicsville.net/", "feature_id": "3818", "state_name": "Iowa", "fips_county_cd": "31", "state_abbreviation": "IA", "full_county_name": "Cedar County", "county_name": "Cedar", "feat_class": "Populated Place", "primary_latitude": "41.9", "primary_longitude": "-91.25", "name": "Mechanicsville"}, {"link_title": null, "guid": "fc6d42b466004b1fba8754ada8f374bf", "description": null, "fips_class": "C1", "url": "http://www.slater-iowa.org/", "feature_id": "4074", "state_name": "Iowa", "fips_county_cd": "169", "state_abbreviation": "IA", "full_county_name": "Story County", "county_name": "Story", "feat_class": "Populated Place", "primary_latitude": "41.87", "primary_longitude": "-93.67", "name": "Slater"}, {"link_title": null, "guid": "c6c9574ed25f43e98bbab5fe834dec6f", "description": null, "fips_class": "H1", "url": "http://www.co.allamakee.ia.us/", "feature_id": "37098", "state_name": "Iowa", "fips_county_cd": "5", "state_abbreviation": "IA", "full_county_name": null, "county_name": null, "feat_class": "Civil", "primary_latitude": "43.28", "primary_longitude": "-91.36", "name": "Allamakee County"}, {"link_title": null, "guid": "b9e0e0e2443e4ac5ba8bfdcd29a0dc64", "description": null, "fips_class": "C1", "url": "http://solon-iowa.com/", "feature_id": "4078", "state_name": "Iowa", "fips_county_cd": "103", "state_abbreviation": "IA", "full_county_name": "Johnson County", "county_name": "Johnson", "feat_class": "Populated Place", "primary_latitude": "41.8", "primary_longitude": "-91.49", "name": "Solon"}, {"link_title": null, "guid": "bb5fb6365c4d4c1d89b6ed5014ba7a7d", "description": null, "fips_class": "H1", "url": "http://www.co.black-hawk.ia.us/", "feature_id": "37102", "state_name": "Iowa", "fips_county_cd": "13", "state_abbreviation": "IA", "full_county_name": null, "county_name": null, "feat_class": "Civil", "primary_latitude": "42.46", "primary_longitude": "-92.31", "name": "Black Hawk County"}, {"link_title": null, "guid": "7a1927ef0e6c43f2bfcd8cb6ef7ba628", "description": null, "fips_class": "H1", "url": "http://www.co.boone.ia.us/", "feature_id": "37103", "state_name": "Iowa", "fips_county_cd": "15", "state_abbreviation": "IA", "full_county_name": null, "county_name": null, "feat_class": "Civil", "primary_latitude": "42.03", "primary_longitude": "-93.93", "name": "Boone County"}, {"link_title": null, "guid": "36c89dfae1144ed5b0cd23cba4cc031e", "description": null, "fips_class": "H1", "url": "http://www.co.bremer.ia.us/", "feature_id": "37104", "state_name": "Iowa", "fips_county_cd": "17", "state_abbreviation": "IA", "full_county_name": null, "county_name": null, "feat_class": "Civil", "primary_latitude": "42.76", "primary_longitude": "-92.31", "name": "Bremer County"}, {"link_title": null, "guid": "4d14736ef71c43c5a8fd531c565bea96", "description": null, "fips_class": "C2", "url": "http://www.spenceriowacity.com/", "feature_id": "4081", "state_name": "Iowa", "fips_county_cd": "41", "state_abbreviation": "IA", "full_county_name": "Clay County", "county_name": "Clay", "feat_class": "Populated Place", "primary_latitude": "43.14", "primary_longitude": "-95.14", "name": "Spencer"}, {"link_title": null, "guid": "2a97f18f72644ba8b7168a6c6a05f058", "description": null, "fips_class": "H1", "url": "http://www.buchanancounty.com/", "feature_id": "37105", "state_name": "Iowa", "fips_county_cd": "19", "state_abbreviation": "IA", "full_county_name": null, "county_name": null, "feat_class": "Civil", "primary_latitude": "42.46", "primary_longitude": "-91.85", "name": "Buchanan County"}, {"link_title": null, "guid": "95cb0e9bad134f81999240e2355079b8", "description": null, "fips_class": "H1", "url": "http://www.co.buena-vista.ia.us/", "feature_id": "37106", "state_name": "Iowa", "fips_county_cd": "21", "state_abbreviation": "IA", "full_county_name": null, "county_name": null, "feat_class": "Civil", "primary_latitude": "42.73", "primary_longitude": "-95.15", "name": "Buena Vista County"}, {"link_title": null, "guid": "68b70e77fa88487d8628da9cf5e93bc2", "description": null, "fips_class": "H1", "url": "http://www.butlercoiowa.org/", "feature_id": "37107", "state_name": "Iowa", "fips_county_cd": "23", "state_abbreviation": "IA", "full_county_name": null, "county_name": null, "feat_class": "Civil", "primary_latitude": "42.73", "primary_longitude": "-92.78", "name": "Butler County"}, {"link_title": null, "guid": "4e6a2e0ffe4f4ecf8627ab110426eb3a", "description": null, "fips_class": "H1", "url": "http://www.co.carroll.ia.us/", "feature_id": "37109", "state_name": "Iowa", "fips_county_cd": "27", "state_abbreviation": "IA", "full_county_name": null, "county_name": null, "feat_class": "Civil", "primary_latitude": "42.03", "primary_longitude": "-94.88", "name": "Carroll County"}, {"link_title": null, "guid": "4ac44bd937324720bcc638d3ebd35025", "description": null, "fips_class": "C1", "url": "http://www.baxter-iowa.com/", "feature_id": "3318", "state_name": "Iowa", "fips_county_cd": "99", "state_abbreviation": "IA", "full_county_name": "Jasper County", "county_name": "Jasper", "feat_class": "Populated Place", "primary_latitude": "41.82", "primary_longitude": "-93.15", "name": "Baxter"}, {"link_title": null, "guid": "ed7324576ce24a7b8b49011c012ffe5c", "description": null, "fips_class": "C1", "url": "http://www.milesiowa.org/", "feature_id": "3830", "state_name": "Iowa", "fips_county_cd": "97", "state_abbreviation": "IA", "full_county_name": "Jackson County", "county_name": "Jackson", "feat_class": "Populated Place", "primary_latitude": "42.04", "primary_longitude": "-90.31", "name": "Miles"}, {"link_title": null, "guid": "5b0c7759868e45e9b79fe512558ba2c9", "description": null, "fips_class": "C1", "url": "http://www.milford.ia.us/", "feature_id": "3831", "state_name": "Iowa", "fips_county_cd": "59", "state_abbreviation": "IA", "full_county_name": "Dickinson County", "county_name": "Dickinson", "feat_class": "Populated Place", "primary_latitude": "43.32", "primary_longitude": "-95.14", "name": "Milford"}, {"link_title": null, "guid": "c7ac8bcd766a462b802d78cabd155f83", "description": null, "fips_class": "C1", "url": "http://www.ci.springville.ia.us/", "feature_id": "4087", "state_name": "Iowa", "fips_county_cd": "113", "state_abbreviation": "IA", "full_county_name": "Linn County", "county_name": "Linn", "feat_class": "Populated Place", "primary_latitude": "42.05", "primary_longitude": "-91.44", "name": "Springville"}, {"link_title": null, "guid": "16e77d967e894f728b022f395b0ed09d", "description": null, "fips_class": "C1", "url": "http://www.stacyville.com/", "feature_id": "4088", "state_name": "Iowa", "fips_county_cd": "131", "state_abbreviation": "IA", "full_county_name": "Mitchell County", "county_name": "Mitchell", "feat_class": "Populated Place", "primary_latitude": "43.43", "primary_longitude": "-92.78", "name": "Stacyville"}, {"link_title": null, "guid": "dcf867ec2f21473fb848c2e114dc40f7", "description": null, "fips_class": "H1", "url": "http://www.co.cerro-gordo.ia.us/", "feature_id": "37112", "state_name": "Iowa", "fips_county_cd": "33", "state_abbreviation": "IA", "full_county_name": null, "county_name": null, "feat_class": "Civil", "primary_latitude": "43.08", "primary_longitude": "-93.26", "name": "Cerro Gordo County"}, {"link_title": null, "guid": "8ae7b1b28e9b4bf1a5fa993b052c22de", "description": null, "fips_class": "C1", "url": "http://www.stanhopeia.com/", "feature_id": "4089", "state_name": "Iowa", "fips_county_cd": "79", "state_abbreviation": "IA", "full_county_name": "Hamilton County", "county_name": "Hamilton", "feat_class": "Populated Place", "primary_latitude": "42.28", "primary_longitude": "-93.79", "name": "Stanhope"}, {"link_title": null, "guid": "50a9d089d208465c91c20077742d2550", "description": null, "fips_class": "C1", "url": "http://www.stanleyiowa.com/", "feature_id": "4090", "state_name": "Iowa", "fips_county_cd": "19", "state_abbreviation": "IA", "full_county_name": "Buchanan County", "county_name": "Buchanan", "feat_class": "Populated Place", "primary_latitude": "42.64", "primary_longitude": "-91.81", "name": "Stanley"}, {"link_title": null, "guid": "a0000dc59694449ca12eb85bae675d30", "description": null, "fips_class": "H1", "url": "http://www.chickasawcoia.org/", "feature_id": "37114", "state_name": "Iowa", "fips_county_cd": "37", "state_abbreviation": "IA", "full_county_name": null, "county_name": null, "feat_class": "Civil", "primary_latitude": "43.06", "primary_longitude": "-92.31", "name": "Chickasaw County"}, {"link_title": null, "guid": "76f95b62a48b44c7985525aef20885e4", "description": null, "fips_class": "H1", "url": "http://www.clarkecountyia.org/", "feature_id": "37115", "state_name": "Iowa", "fips_county_cd": "39", "state_abbreviation": "IA", "full_county_name": null, "county_name": null, "feat_class": "Civil", "primary_latitude": "41.03", "primary_longitude": "-93.78", "name": "Clarke County"}, {"link_title": null, "guid": "6f0922000bf2404e9201f328a9060d4f", "description": null, "fips_class": "H1", "url": "http://www.co.clay.ia.us/", "feature_id": "37116", "state_name": "Iowa", "fips_county_cd": "41", "state_abbreviation": "IA", "full_county_name": null, "county_name": null, "feat_class": "Civil", "primary_latitude": "43.08", "primary_longitude": "-95.15", "name": "Clay County"}, {"link_title": null, "guid": "de24ea3366d14106b0d5aa6c8d0f62c2", "description": null, "fips_class": "C2", "url": "http://www.belleplaineiowa.us/", "feature_id": "3325", "state_name": "Iowa", "fips_county_cd": "11", "state_abbreviation": "IA", "full_county_name": "Benton County", "county_name": "Benton", "feat_class": "Populated Place", "primary_latitude": "41.89", "primary_longitude": "-92.27", "name": "Belle Plaine"}, {"link_title": null, "guid": "3ecb3acc80174f268d9d0cfe8da9da00", "description": null, "fips_class": "H1", "url": "http://www.claytoncountyiowa.net/", "feature_id": "37117", "state_name": "Iowa", "fips_county_cd": "43", "state_abbreviation": "IA", "full_county_name": null, "county_name": null, "feat_class": "Civil", "primary_latitude": "42.83", "primary_longitude": "-91.36", "name": "Clayton County"}, {"link_title": null, "guid": "e6aa6b71104b4385b2949547e40d4787", "description": null, "fips_class": "H1", "url": "http://www.clintoncounty-ia.gov/", "feature_id": "37118", "state_name": "Iowa", "fips_county_cd": "45", "state_abbreviation": "IA", "full_county_name": null, "county_name": null, "feat_class": "Civil", "primary_latitude": "41.88", "primary_longitude": "-90.55", "name": "Clinton County"}, {"link_title": null, "guid": "3cf5747bd9ec4492bf358a9daee41b2e", "description": null, "fips_class": "C1", "url": "http://www.belmond.com/", "feature_id": "3327", "state_name": "Iowa", "fips_county_cd": "197", "state_abbreviation": "IA", "full_county_name": "Wright County", "county_name": "Wright", "feat_class": "Populated Place", "primary_latitude": "42.84", "primary_longitude": "-93.61", "name": "Belmond"}, {"link_title": null, "guid": "a383fc1629dd4a25943588401577bb77", "description": null, "fips_class": "H1", "url": "http://www.crawfordcounty.org/", "feature_id": "37119", "state_name": "Iowa", "fips_county_cd": "47", "state_abbreviation": "IA", "full_county_name": null, "county_name": null, "feat_class": "Civil", "primary_latitude": "42.03", "primary_longitude": "-95.38", "name": "Crawford County"}, {"link_title": null, "guid": "42d5a89218454d43b476fc824f5d5818", "description": null, "fips_class": "C1", "url": "http://www.granger.govoffice.com/", "feature_id": "3604", "state_name": "Iowa", "fips_county_cd": "153", "state_abbreviation": "IA", "full_county_name": "Polk County", "county_name": "Polk", "feat_class": "Populated Place", "primary_latitude": "41.76", "primary_longitude": "-93.82", "name": "Granger"}]