[{"link_title": null, "guid": "0f7d5ac4ba5841408136756fadde43fd", "description": null, "fips_class": "H1", "url": "http://www.co.jay.in.us/", "feature_id": "37378", "state_name": "Indiana", "fips_county_cd": "75", "state_abbreviation": "IN", "full_county_name": null, "county_name": null, "feat_class": "Civil", "primary_latitude": "40.43", "primary_longitude": "-84.97", "name": "Jay County"}, {"link_title": null, "guid": "acc9da337f6441a29e7a5cae47e661bd", "description": null, "fips_class": "C1", "url": "http://townofclearlake.org/", "feature_id": "7429", "state_name": "Indiana", "fips_county_cd": "151", "state_abbreviation": "IN", "full_county_name": "Steuben County", "county_name": "Steuben", "feat_class": "Populated Place", "primary_latitude": "41.73", "primary_longitude": "-84.83", "name": "Clear Lake"}, {"link_title": null, "guid": "43a7fdcece7e4fd4b75e7bf3aac23de0", "description": null, "fips_class": "H1", "url": "http://www.co.johnson.in.us/", "feature_id": "37381", "state_name": "Indiana", "fips_county_cd": "81", "state_abbreviation": "IN", "full_county_name": null, "county_name": null, "feat_class": "Civil", "primary_latitude": "39.48", "primary_longitude": "-86.05", "name": "Johnson County"}, {"link_title": null, "guid": "326898c0169541bbb04a7133835eba80", "description": null, "fips_class": "C1", "url": "http://www.city.west-lafayette.in.us/", "feature_id": "8710", "state_name": "Indiana", "fips_county_cd": "157", "state_abbreviation": "IN", "full_county_name": "Tippecanoe County", "county_name": "Tippecanoe", "feat_class": "Populated Place", "primary_latitude": "40.42", "primary_longitude": "-86.9", "name": "West Lafayette"}, {"link_title": null, "guid": "42c13818a42a4dada49aac3b146cb905", "description": null, "fips_class": "C1", "url": "http://www.ci.south-bend.in.us/", "feature_id": "8455", "state_name": "Indiana", "fips_county_cd": "141", "state_abbreviation": "IN", "full_county_name": "St. Joseph County", "county_name": "St. Joseph", "feat_class": "Populated Place", "primary_latitude": "41.68", "primary_longitude": "-86.25", "name": "South Bend"}, {"link_title": null, "guid": "741a5064219d40369cb906d3faf40d89", "description": null, "fips_class": "H1", "url": "http://www.kcgov.com/", "feature_id": "37383", "state_name": "Indiana", "fips_county_cd": "85", "state_abbreviation": "IN", "full_county_name": null, "county_name": null, "feat_class": "Civil", "primary_latitude": "41.23", "primary_longitude": "-85.85", "name": "Kosciusko County"}, {"link_title": null, "guid": "9352f47e2029403facb0904c9269c446", "description": null, "fips_class": "H1", "url": "http://www.lagrangecounty.org/", "feature_id": "37384", "state_name": "Indiana", "fips_county_cd": "87", "state_abbreviation": "IN", "full_county_name": null, "county_name": null, "feat_class": "Civil", "primary_latitude": "41.64", "primary_longitude": "-85.41", "name": "LaGrange County"}, {"link_title": null, "guid": "ba70881381044ccca817fb545522585a", "description": null, "fips_class": "H1", "url": "http://www.lakecountyin.org/", "feature_id": "37385", "state_name": "Indiana", "fips_county_cd": "89", "state_abbreviation": "IN", "full_county_name": null, "county_name": null, "feat_class": "Civil", "primary_latitude": "41.41", "primary_longitude": "-87.36", "name": "Lake County"}, {"link_title": null, "guid": "f743f79b258b42758593ac1d7768e054", "description": null, "fips_class": "C1", "url": "http://www.gohammond.com/web/", "feature_id": "7691", "state_name": "Indiana", "fips_county_cd": "89", "state_abbreviation": "IN", "full_county_name": "Lake County", "county_name": "Lake", "feat_class": "Populated Place", "primary_latitude": "41.58", "primary_longitude": "-87.5", "name": "Hammond"}, {"link_title": null, "guid": "51bb0ce5bf7a49448d22772baac1789d", "description": null, "fips_class": "C1", "url": "http://www.westfield.in.gov/", "feature_id": "8716", "state_name": "Indiana", "fips_county_cd": "57", "state_abbreviation": "IN", "full_county_name": "Hamilton County", "county_name": "Hamilton", "feat_class": "Populated Place", "primary_latitude": "40.04", "primary_longitude": "-86.12", "name": "Westfield"}, {"link_title": null, "guid": "41896c4bc71140db93ac17c44a6355ec", "description": null, "fips_class": "H1", "url": "http://www.madisoncountyindiana.org/", "feature_id": "37388", "state_name": "Indiana", "fips_county_cd": "95", "state_abbreviation": "IN", "full_county_name": null, "county_name": null, "feat_class": "Civil", "primary_latitude": "40.19", "primary_longitude": "-85.68", "name": "Madison County"}, {"link_title": null, "guid": "71ad9b81f88c43e6bb6f2450ffd1dd4f", "description": null, "fips_class": "C1", "url": "http://www.town.orleans.in.us/", "feature_id": "8205", "state_name": "Indiana", "fips_county_cd": "117", "state_abbreviation": "IN", "full_county_name": "Orange County", "county_name": "Orange", "feat_class": "Populated Place", "primary_latitude": "38.66", "primary_longitude": "-86.45", "name": "Orleans"}, {"link_title": null, "guid": "87600ad8fdae419184b930d475e3169a", "description": null, "fips_class": "C1", "url": "http://www.townofspeedway.org/", "feature_id": "8461", "state_name": "Indiana", "fips_county_cd": "97", "state_abbreviation": "IN", "full_county_name": "Marion County", "county_name": "Marion", "feat_class": "Populated Place", "primary_latitude": "39.8", "primary_longitude": "-86.26", "name": "Speedway"}, {"link_title": null, "guid": "88e141f3b14346418beaf0a5890368f4", "description": null, "fips_class": "C1", "url": "http://www.alco.org/communities/westville/", "feature_id": "8718", "state_name": "Indiana", "fips_county_cd": "91", "state_abbreviation": "IN", "full_county_name": "LaPorte County", "county_name": "LaPorte", "feat_class": "Populated Place", "primary_latitude": "41.54", "primary_longitude": "-86.9", "name": "Westville"}, {"link_title": null, "guid": "cb9759e5b78547278093b4e8ab66b1a9", "description": null, "fips_class": "H1", "url": "http://www.co.marshall.in.us/", "feature_id": "37390", "state_name": "Indiana", "fips_county_cd": "99", "state_abbreviation": "IN", "full_county_name": null, "county_name": null, "feat_class": "Civil", "primary_latitude": "41.34", "primary_longitude": "-86.3", "name": "Marshall County"}, {"link_title": null, "guid": "bb45bbc77f714fcabf65a7e79587db77", "description": null, "fips_class": "H1", "url": "http://www.co.monroe.in.us/", "feature_id": "37393", "state_name": "Indiana", "fips_county_cd": "105", "state_abbreviation": "IN", "full_county_name": null, "county_name": null, "feat_class": "Civil", "primary_latitude": "39.16", "primary_longitude": "-86.52", "name": "Monroe County"}, {"link_title": null, "guid": "e2ea59211fd64492a89a72ac34d2e3ff", "description": null, "fips_class": "H1", "url": "http://www.morgancounty-il.com/", "feature_id": "37395", "state_name": "Indiana", "fips_county_cd": "109", "state_abbreviation": "IN", "full_county_name": null, "county_name": null, "feat_class": "Civil", "primary_latitude": "39.42", "primary_longitude": "-86.42", "name": "Morgan County"}, {"link_title": null, "guid": "b2567a311fb24fdabb9c9275e1739d5c", "description": null, "fips_class": "H1", "url": "http://www.newtoncountyin.com/", "feature_id": "37396", "state_name": "Indiana", "fips_county_cd": "111", "state_abbreviation": "IN", "full_county_name": null, "county_name": null, "feat_class": "Civil", "primary_latitude": "41.01", "primary_longitude": "-87.44", "name": "Newton County"}, {"link_title": null, "guid": "a7d3ef35d4824e96ad2ee8d37259b890", "description": null, "fips_class": "H1", "url": "http://www.nobleco.org/", "feature_id": "37397", "state_name": "Indiana", "fips_county_cd": "113", "state_abbreviation": "IN", "full_county_name": null, "county_name": null, "feat_class": "Civil", "primary_latitude": "41.39", "primary_longitude": "-85.42", "name": "Noble County"}, {"link_title": null, "guid": "9dcc42095d0641a49e5b19ab1871eb7d", "description": null, "fips_class": "H1", "url": "http://epics.co.orange.in.us/", "feature_id": "37399", "state_name": "Indiana", "fips_county_cd": "117", "state_abbreviation": "IN", "full_county_name": null, "county_name": null, "feat_class": "Civil", "primary_latitude": "38.55", "primary_longitude": "-86.46", "name": "Orange County"}, {"link_title": null, "guid": "930aef9619bc4cfb83835e0564109720", "description": null, "fips_class": "C1", "url": "http://www.townofwhiteland.com/", "feature_id": "8728", "state_name": "Indiana", "fips_county_cd": "81", "state_abbreviation": "IN", "full_county_name": "Johnson County", "county_name": "Johnson", "feat_class": "Populated Place", "primary_latitude": "39.55", "primary_longitude": "-86.07", "name": "Whiteland"}, {"link_title": null, "guid": "d42612f46fa74af68f4640d85163b16b", "description": null, "fips_class": "H1", "url": "http://www.perrycountyin.org/", "feature_id": "37402", "state_name": "Indiana", "fips_county_cd": "123", "state_abbreviation": "IN", "full_county_name": null, "county_name": null, "feat_class": "Civil", "primary_latitude": "38.1", "primary_longitude": "-86.58", "name": "Perry County"}, {"link_title": null, "guid": "d57fec0f80b0428a86fee47fc74ad51e", "description": null, "fips_class": "C1", "url": "http://www.columbiacity.net/", "feature_id": "7451", "state_name": "Indiana", "fips_county_cd": "183", "state_abbreviation": "IN", "full_county_name": "Whitley County", "county_name": "Whitley", "feat_class": "Populated Place", "primary_latitude": "41.15", "primary_longitude": "-85.48", "name": "Columbia City"}, {"link_title": null, "guid": "bbae9edbacbd4aa09d1b9acf1b9a8838", "description": null, "fips_class": "C1", "url": "http://www.whitingindiana.com/", "feature_id": "8732", "state_name": "Indiana", "fips_county_cd": "89", "state_abbreviation": "IN", "full_county_name": "Lake County", "county_name": "Lake", "feat_class": "Populated Place", "primary_latitude": "41.67", "primary_longitude": "-87.49", "name": "Whiting"}, {"link_title": null, "guid": "2c5b531851a94927aac794697ce72abc", "description": null, "fips_class": "H1", "url": "http://www.porterco.org/", "feature_id": "37404", "state_name": "Indiana", "fips_county_cd": "127", "state_abbreviation": "IN", "full_county_name": null, "county_name": null, "feat_class": "Civil", "primary_latitude": "41.47", "primary_longitude": "-87.06", "name": "Porter County"}, {"link_title": null, "guid": "0297b31d12ef422b8639bc996c9630e7", "description": null, "fips_class": "H1", "url": "http://co.putnam.in.us/", "feature_id": "37407", "state_name": "Indiana", "fips_county_cd": "133", "state_abbreviation": "IN", "full_county_name": null, "county_name": null, "feat_class": "Civil", "primary_latitude": "39.64", "primary_longitude": "-86.86", "name": "Putnam County"}, {"link_title": null, "guid": "ff3dff7291cd44748730cfbdb0ef6e16", "description": null, "fips_class": "C1", "url": "http://www.columbus.in.gov/", "feature_id": "7457", "state_name": "Indiana", "fips_county_cd": "5", "state_abbreviation": "IN", "full_county_name": "Bartholomew County", "county_name": "Bartholomew", "feat_class": "Populated Place", "primary_latitude": "39.2", "primary_longitude": "-85.92", "name": "Columbus"}, {"link_title": null, "guid": "f1de993a2e144236931af997671e3efa", "description": null, "fips_class": "H1", "url": "http://www.ripleycounty.com/", "feature_id": "37409", "state_name": "Indiana", "fips_county_cd": "137", "state_abbreviation": "IN", "full_county_name": null, "county_name": null, "feat_class": "Civil", "primary_latitude": "39.07", "primary_longitude": "-85.25", "name": "Ripley County"}, {"link_title": null, "guid": "463d3a4f8ad44c1194678cfc50495546", "description": null, "fips_class": "H1", "url": "http://www.rushcounty.in.gov/", "feature_id": "37410", "state_name": "Indiana", "fips_county_cd": "139", "state_abbreviation": "IN", "full_county_name": null, "county_name": null, "feat_class": "Civil", "primary_latitude": "39.6", "primary_longitude": "-85.44", "name": "Rush County"}, {"link_title": null, "guid": "d5022600498d4288b3f56a98cd2dfc1a", "description": null, "fips_class": "H1", "url": "http://www.stjosephcountyindiana.com/", "feature_id": "37411", "state_name": "Indiana", "fips_county_cd": "141", "state_abbreviation": "IN", "full_county_name": null, "county_name": null, "feat_class": "Civil", "primary_latitude": "41.67", "primary_longitude": "-86.23", "name": "Saint Joseph County"}, {"link_title": null, "guid": "8dd2873e74cd4e0d8853ce44240a84d5", "description": null, "fips_class": "C1", "url": "http://www.connersvillecommunity.com/", "feature_id": "7461", "state_name": "Indiana", "fips_county_cd": "41", "state_abbreviation": "IN", "full_county_name": "Fayette County", "county_name": "Fayette", "feat_class": "Populated Place", "primary_latitude": "39.64", "primary_longitude": "-85.14", "name": "Connersville"}, {"link_title": null, "guid": "9e6631532347468f89ae9eb156463d8d", "description": null, "fips_class": "H1", "url": "http://www.in-map.net/counties/STARKE/government/", "feature_id": "37415", "state_name": "Indiana", "fips_county_cd": "149", "state_abbreviation": "IN", "full_county_name": null, "county_name": null, "feat_class": "Civil", "primary_latitude": "41.29", "primary_longitude": "-86.62", "name": "Starke County"}, {"link_title": null, "guid": "28124c214bf347f1b7d06e55f13e539f", "description": null, "fips_class": "H1", "url": "http://www.co.steuben.in.us/", "feature_id": "37416", "state_name": "Indiana", "fips_county_cd": "151", "state_abbreviation": "IN", "full_county_name": null, "county_name": null, "feat_class": "Civil", "primary_latitude": "41.63", "primary_longitude": "-84.99", "name": "Steuben County"}, {"link_title": null, "guid": "1fda661a598e4884bbf117307789f42c", "description": null, "fips_class": "C1", "url": "http://www.cityofanderson.com/", "feature_id": "7209", "state_name": "Indiana", "fips_county_cd": "95", "state_abbreviation": "IN", "full_county_name": "Madison County", "county_name": "Madison", "feat_class": "Populated Place", "primary_latitude": "40.1", "primary_longitude": "-85.68", "name": "Anderson"}, {"link_title": null, "guid": "4fe9bf0b3633478bb6fc0038e74ebc3f", "description": null, "fips_class": "C1", "url": "http://www.winonalake.net/", "feature_id": "8746", "state_name": "Indiana", "fips_county_cd": "85", "state_abbreviation": "IN", "full_county_name": "Kosciusko County", "county_name": "Kosciusko", "feat_class": "Populated Place", "primary_latitude": "41.22", "primary_longitude": "-85.82", "name": "Winona Lake"}, {"link_title": null, "guid": "b0ee789f911045cda603851609a06793", "description": null, "fips_class": "H1", "url": "http://www.co.tippecanoe.in.us/", "feature_id": "37419", "state_name": "Indiana", "fips_county_cd": "157", "state_abbreviation": "IN", "full_county_name": null, "county_name": null, "feat_class": "Civil", "primary_latitude": "40.41", "primary_longitude": "-86.89", "name": "Tippecanoe County"}, {"link_title": null, "guid": "db6be85324f842f6b42d4a811f19fdbf", "description": null, "fips_class": "C1", "url": "http://www.town.pendleton.in.us/", "feature_id": "8236", "state_name": "Indiana", "fips_county_cd": "95", "state_abbreviation": "IN", "full_county_name": "Madison County", "county_name": "Madison", "feat_class": "Populated Place", "primary_latitude": "39.99", "primary_longitude": "-85.74", "name": "Pendleton"}, {"link_title": null, "guid": "fa884dfc101149e49347d13193325f87", "description": null, "fips_class": "H1", "url": "http://www.vanderburghgov.org/", "feature_id": "37422", "state_name": "Indiana", "fips_county_cd": "163", "state_abbreviation": "IN", "full_county_name": null, "county_name": null, "feat_class": "Civil", "primary_latitude": "38.08", "primary_longitude": "-87.55", "name": "Vanderburgh County"}, {"link_title": null, "guid": "4e6286c2c86a4c26b89dc88493075b89", "description": null, "fips_class": "C1", "url": "http://www.angolain.org/", "feature_id": "7215", "state_name": "Indiana", "fips_county_cd": "151", "state_abbreviation": "IN", "full_county_name": "Steuben County", "county_name": "Steuben", "feat_class": "Populated Place", "primary_latitude": "41.63", "primary_longitude": "-84.99", "name": "Angola"}, {"link_title": null, "guid": "c60d94b7644f467682d92652bcfc73b4", "description": null, "fips_class": "H1", "url": "http://www.vigocounty.in.gov/", "feature_id": "37424", "state_name": "Indiana", "fips_county_cd": "167", "state_abbreviation": "IN", "full_county_name": null, "county_name": null, "feat_class": "Civil", "primary_latitude": "39.46", "primary_longitude": "-87.41", "name": "Vigo County"}, {"link_title": null, "guid": "c6e0a84d07454a50860ec6258e26b3f8", "description": null, "fips_class": "C1", "url": "http://www.hartfordcity.net/", "feature_id": "7730", "state_name": "Indiana", "fips_county_cd": "9", "state_abbreviation": "IN", "full_county_name": "Blackford County", "county_name": "Blackford", "feat_class": "Populated Place", "primary_latitude": "40.45", "primary_longitude": "-85.36", "name": "Hartford City"}, {"link_title": null, "guid": "d2c51acc851f4ab6ad8823081b82696f", "description": null, "fips_class": "C1", "url": "http://www.lowell.net/", "feature_id": "7987", "state_name": "Indiana", "fips_county_cd": "89", "state_abbreviation": "IN", "full_county_name": "Lake County", "county_name": "Lake", "feat_class": "Populated Place", "primary_latitude": "41.29", "primary_longitude": "-87.42", "name": "Lowell"}, {"link_title": null, "guid": "fbde978754694ab59444f75df240b49c", "description": null, "fips_class": "H1", "url": "http://www.warrickcounty.gov/", "feature_id": "37427", "state_name": "Indiana", "fips_county_cd": "173", "state_abbreviation": "IN", "full_county_name": null, "county_name": null, "feat_class": "Civil", "primary_latitude": "38.04", "primary_longitude": "-87.27", "name": "Warrick County"}, {"link_title": null, "guid": "869f7f796d0443a1801b427f6b679bdd", "description": null, "fips_class": "H1", "url": "http://www.washingtoncountyindiana.com/", "feature_id": "37428", "state_name": "Indiana", "fips_county_cd": "175", "state_abbreviation": "IN", "full_county_name": null, "county_name": null, "feat_class": "Civil", "primary_latitude": "38.6", "primary_longitude": "-86.09", "name": "Washington County"}, {"link_title": null, "guid": "54403d7f71cf40bbb5c55233a7429681", "description": null, "fips_class": "C1", "url": "http://www.crownpoint.in.gov/", "feature_id": "7477", "state_name": "Indiana", "fips_county_cd": "89", "state_abbreviation": "IN", "full_county_name": "Lake County", "county_name": "Lake", "feat_class": "Populated Place", "primary_latitude": "41.41", "primary_longitude": "-87.36", "name": "Crown Point"}, {"link_title": null, "guid": "ab2fcdb59743439aabd3b1e9d4f3ed1e", "description": null, "fips_class": "H1", "url": "http://www.co.wayne.in.us/", "feature_id": "37429", "state_name": "Indiana", "fips_county_cd": "177", "state_abbreviation": "IN", "full_county_name": null, "county_name": null, "feat_class": "Civil", "primary_latitude": "39.81", "primary_longitude": "-84.99", "name": "Wayne County"}, {"link_title": null, "guid": "b90e530891b640bc9328267b91a43bca", "description": null, "fips_class": "H1", "url": "http://www.wellscounty.org/", "feature_id": "37430", "state_name": "Indiana", "fips_county_cd": "179", "state_abbreviation": "IN", "full_county_name": null, "county_name": null, "feat_class": "Civil", "primary_latitude": "40.73", "primary_longitude": "-85.17", "name": "Wells County"}, {"link_title": null, "guid": "b9b3fc01ea2c487db451dbe9f9da7626", "description": null, "fips_class": "C1", "url": "http://www.town.cumberland.in.us/", "feature_id": "7480", "state_name": "Indiana", "fips_county_cd": "97", "state_abbreviation": "IN", "full_county_name": "Marion County", "county_name": "Marion", "feat_class": "Populated Place", "primary_latitude": "39.77", "primary_longitude": "-85.95", "name": "Cumberland"}, {"link_title": null, "guid": "de8fcc72c4f2400192e4578ed974e6b9", "description": null, "fips_class": "C1", "url": "http://www.ci.auburn.in.us/", "feature_id": "7225", "state_name": "Indiana", "fips_county_cd": "33", "state_abbreviation": "IN", "full_county_name": "DeKalb County", "county_name": "DeKalb", "feat_class": "Populated Place", "primary_latitude": "41.36", "primary_longitude": "-85.05", "name": "Auburn"}, {"link_title": null, "guid": "f2376cdfe86144d49dc202fb54ac3ae7", "description": null, "fips_class": "C1", "url": "http://www.avongov.org/", "feature_id": "7229", "state_name": "Indiana", "fips_county_cd": "63", "state_abbreviation": "IN", "full_county_name": "Hendricks County", "county_name": "Hendricks", "feat_class": "Populated Place", "primary_latitude": "39.76", "primary_longitude": "-86.39", "name": "Avon"}, {"link_title": null, "guid": "ff08bafc8d2b4f178d3d13168b2d25cf", "description": null, "fips_class": "C1", "url": "http://www.syracusein.org/", "feature_id": "8511", "state_name": "Indiana", "fips_county_cd": "85", "state_abbreviation": "IN", "full_county_name": "Kosciusko County", "county_name": "Kosciusko", "feat_class": "Populated Place", "primary_latitude": "41.42", "primary_longitude": "-85.75", "name": "Syracuse"}, {"link_title": null, "guid": "fa8c9a505807470cbbf65fe6fcd95ee2", "description": null, "fips_class": "C1", "url": "http://www.danvilleindiana.org/", "feature_id": "7488", "state_name": "Indiana", "fips_county_cd": "63", "state_abbreviation": "IN", "full_county_name": "Hendricks County", "county_name": "Hendricks", "feat_class": "Populated Place", "primary_latitude": "39.76", "primary_longitude": "-86.52", "name": "Danville"}, {"link_title": null, "guid": "5b017851ac8e474a952d88fc491d588e", "description": null, "fips_class": "C1", "url": "http://www.cityofperu.org/", "feature_id": "8257", "state_name": "Indiana", "fips_county_cd": "103", "state_abbreviation": "IN", "full_county_name": "Miami County", "county_name": "Miami", "feat_class": "Populated Place", "primary_latitude": "40.75", "primary_longitude": "-86.06", "name": "Peru"}, {"link_title": null, "guid": "c7c453a47dca4c80863e47cd4c5eb35c", "description": null, "fips_class": "C1", "url": "http://www.petersburg.in.gov/", "feature_id": "8259", "state_name": "Indiana", "fips_county_cd": "125", "state_abbreviation": "IN", "full_county_name": "Pike County", "county_name": "Pike", "feat_class": "Populated Place", "primary_latitude": "38.49", "primary_longitude": "-87.27", "name": "Petersburg"}, {"link_title": null, "guid": "10154edc3d3f4d6a9da0835352db39a8", "description": null, "fips_class": "C1", "url": "http://www.terrehaute.in.gov/", "feature_id": "8518", "state_name": "Indiana", "fips_county_cd": "167", "state_abbreviation": "IN", "full_county_name": "Vigo County", "county_name": "Vigo", "feat_class": "Populated Place", "primary_latitude": "39.46", "primary_longitude": "-87.41", "name": "Terre Haute"}, {"link_title": null, "guid": "ec4518d52b6b486a85ce2580366ff44c", "description": null, "fips_class": "C1", "url": "http://www.bedford.in.us/", "feature_id": "7246", "state_name": "Indiana", "fips_county_cd": "93", "state_abbreviation": "IN", "full_county_name": "Lawrence County", "county_name": "Lawrence", "feat_class": "Populated Place", "primary_latitude": "38.86", "primary_longitude": "-86.48", "name": "Bedford"}, {"link_title": null, "guid": "9af162b0ec04489ba1d763e1c7ca5e7d", "description": null, "fips_class": "C1", "url": "http://www.cityofdelphi.org/", "feature_id": "7504", "state_name": "Indiana", "fips_county_cd": "15", "state_abbreviation": "IN", "full_county_name": "Carroll County", "county_name": "Carroll", "feat_class": "Populated Place", "primary_latitude": "40.58", "primary_longitude": "-86.67", "name": "Delphi"}, {"link_title": null, "guid": "cb48b6931c19426eadafe478e03932b1", "description": null, "fips_class": "C1", "url": "http://www.topekain.net/", "feature_id": "8529", "state_name": "Indiana", "fips_county_cd": "87", "state_abbreviation": "IN", "full_county_name": "LaGrange County", "county_name": "LaGrange", "feat_class": "Populated Place", "primary_latitude": "41.53", "primary_longitude": "-85.53", "name": "Topeka"}, {"link_title": null, "guid": "dbee4933efa44ea3802177657b19356c", "description": null, "fips_class": "C1", "url": "http://www.hudsontown.org/", "feature_id": "7762", "state_name": "Indiana", "fips_county_cd": "151", "state_abbreviation": "IN", "full_county_name": "Steuben County", "county_name": "Steuben", "feat_class": "Populated Place", "primary_latitude": "41.53", "primary_longitude": "-85.08", "name": "Hudson"}, {"link_title": null, "guid": "b26c3b79a5ca4010b3229275e8a96aa1", "description": null, "fips_class": "C1", "url": "http://www.alco.org/communities/trailcreek/", "feature_id": "8532", "state_name": "Indiana", "fips_county_cd": "91", "state_abbreviation": "IN", "full_county_name": "LaPorte County", "county_name": "LaPorte", "feat_class": "Populated Place", "primary_latitude": "41.69", "primary_longitude": "-86.85", "name": "Trail Creek"}, {"link_title": null, "guid": "295d1052b635414592b0a3a6dce63178", "description": null, "fips_class": "C1", "url": "http://townofplainfield.com/", "feature_id": "8277", "state_name": "Indiana", "fips_county_cd": "63", "state_abbreviation": "IN", "full_county_name": "Hendricks County", "county_name": "Hendricks", "feat_class": "Populated Place", "primary_latitude": "39.7", "primary_longitude": "-86.39", "name": "Plainfield"}, {"link_title": null, "guid": "8de8c7d6b22544d998ea5ec344bc420b", "description": null, "fips_class": "C1", "url": "http://www.huntingburg-in.gov/", "feature_id": "7766", "state_name": "Indiana", "fips_county_cd": "37", "state_abbreviation": "IN", "full_county_name": "Dubois County", "county_name": "Dubois", "feat_class": "Populated Place", "primary_latitude": "38.29", "primary_longitude": "-86.95", "name": "Huntingburg"}, {"link_title": null, "guid": "e072bf547e704f9087f0d63414211e1f", "description": null, "fips_class": "C1", "url": "http://www.huntington.in.us/", "feature_id": "7767", "state_name": "Indiana", "fips_county_cd": "69", "state_abbreviation": "IN", "full_county_name": "Huntington County", "county_name": "Huntington", "feat_class": "Populated Place", "primary_latitude": "40.88", "primary_longitude": "-85.49", "name": "Huntington"}, {"link_title": null, "guid": "2d8156ff1c074c3ba864a6183446647a", "description": null, "fips_class": "C1", "url": "http://www.duneacres.org/", "feature_id": "7516", "state_name": "Indiana", "fips_county_cd": "127", "state_abbreviation": "IN", "full_county_name": "Porter County", "county_name": "Porter", "feat_class": "Populated Place", "primary_latitude": "41.64", "primary_longitude": "-87.08", "name": "Dune Acres"}, {"link_title": null, "guid": "dce3629604bd48b3978c0a0663d8e745", "description": null, "fips_class": "C3", "url": "http://www.indy.gov", "feature_id": "7774", "state_name": "Indiana", "fips_county_cd": "97", "state_abbreviation": "IN", "full_county_name": "Marion County", "county_name": "Marion", "feat_class": "Populated Place", "primary_latitude": "39.76", "primary_longitude": "-86.15", "name": "Indianapolis"}, {"link_title": null, "guid": "981d79cdca724a838b74be9c4e323f01", "description": null, "fips_class": "C1", "url": "http://www.townofdyer.com/", "feature_id": "7520", "state_name": "Indiana", "fips_county_cd": "89", "state_abbreviation": "IN", "full_county_name": "Lake County", "county_name": "Lake", "feat_class": "Populated Place", "primary_latitude": "41.49", "primary_longitude": "-87.52", "name": "Dyer"}, {"link_title": null, "guid": "4c4befb7257e4da1955cadea7a6929b3", "description": null, "fips_class": "C1", "url": "http://www.bloomington.in.gov/", "feature_id": "7266", "state_name": "Indiana", "fips_county_cd": "105", "state_abbreviation": "IN", "full_county_name": "Monroe County", "county_name": "Monroe", "feat_class": "Populated Place", "primary_latitude": "39.16", "primary_longitude": "-86.52", "name": "Bloomington"}, {"link_title": null, "guid": "4c526b7229da4bf38826562f8e12041c", "description": null, "fips_class": "C1", "url": "http://www.eastchicago.com/", "feature_id": "7524", "state_name": "Indiana", "fips_county_cd": "89", "state_abbreviation": "IN", "full_county_name": "Lake County", "county_name": "Lake", "feat_class": "Populated Place", "primary_latitude": "41.63", "primary_longitude": "-87.45", "name": "East Chicago"}, {"link_title": null, "guid": "d3affadcb6684329a70642d6b86fd227", "description": null, "fips_class": "C1", "url": "http://www.mccordsville.org/", "feature_id": "8036", "state_name": "Indiana", "fips_county_cd": "59", "state_abbreviation": "IN", "full_county_name": "Hancock County", "county_name": "Hancock", "feat_class": "Populated Place", "primary_latitude": "39.9", "primary_longitude": "-85.92", "name": "McCordsville"}, {"link_title": null, "guid": "d588bef0e6334fdea96af48f3f3f3847", "description": null, "fips_class": "C1", "url": "http://www.ci.portage.in.us/", "feature_id": "8295", "state_name": "Indiana", "fips_county_cd": "127", "state_abbreviation": "IN", "full_county_name": "Porter County", "county_name": "Porter", "feat_class": "Populated Place", "primary_latitude": "41.57", "primary_longitude": "-87.17", "name": "Portage"}, {"link_title": null, "guid": "fe33361ba4e74e6aad97e5d6b1572785", "description": null, "fips_class": "C1", "url": "http://www.ci.bluffton.in.us/", "feature_id": "7274", "state_name": "Indiana", "fips_county_cd": "179", "state_abbreviation": "IN", "full_county_name": "Wells County", "county_name": "Wells", "feat_class": "Populated Place", "primary_latitude": "40.73", "primary_longitude": "-85.17", "name": "Bluffton"}, {"link_title": null, "guid": "922cf2222d60469ea78b8790c4d4908a", "description": null, "fips_class": "C1", "url": "http://www.townofporter.com/", "feature_id": "8298", "state_name": "Indiana", "fips_county_cd": "127", "state_abbreviation": "IN", "full_county_name": "Porter County", "county_name": "Porter", "feat_class": "Populated Place", "primary_latitude": "41.61", "primary_longitude": "-87.07", "name": "Porter"}, {"link_title": null, "guid": "3d5e1c3c8a1f4ab3a64380bb105c98c0", "description": null, "fips_class": "C1", "url": "http://www.meridianhills.org/", "feature_id": "8043", "state_name": "Indiana", "fips_county_cd": "97", "state_abbreviation": "IN", "full_county_name": "Marion County", "county_name": "Marion", "feat_class": "Populated Place", "primary_latitude": "39.89", "primary_longitude": "-86.15", "name": "Meridian Hills"}, {"link_title": null, "guid": "bc10d457fb2147838114128111c63348", "description": null, "fips_class": "C1", "url": "http://www.merrillville.in.gov/", "feature_id": "8045", "state_name": "Indiana", "fips_county_cd": "89", "state_abbreviation": "IN", "full_county_name": "Lake County", "county_name": "Lake", "feat_class": "Populated Place", "primary_latitude": "41.48", "primary_longitude": "-87.33", "name": "Merrillville"}, {"link_title": null, "guid": "ed71a1881b084197828933be6ce5f1d4", "description": null, "fips_class": "C1", "url": "http://www.michianashores.com/", "feature_id": "8048", "state_name": "Indiana", "fips_county_cd": "91", "state_abbreviation": "IN", "full_county_name": "LaPorte County", "county_name": "LaPorte", "feat_class": "Populated Place", "primary_latitude": "41.75", "primary_longitude": "-86.81", "name": "Michiana Shores"}, {"link_title": null, "guid": "058508a5ef0c4494a5a86d2d1a7a0ba8", "description": null, "fips_class": "C1", "url": "http://www.emichigancity.com/", "feature_id": "8049", "state_name": "Indiana", "fips_county_cd": "91", "state_abbreviation": "IN", "full_county_name": "LaPorte County", "county_name": "LaPorte", "feat_class": "Populated Place", "primary_latitude": "41.7", "primary_longitude": "-86.89", "name": "Michigan City"}, {"link_title": null, "guid": "fef84bcc086942a99536f77c508214c2", "description": null, "fips_class": "C1", "url": "http://www.elkhartindiana.org/", "feature_id": "7539", "state_name": "Indiana", "fips_county_cd": "39", "state_abbreviation": "IN", "full_county_name": "Elkhart County", "county_name": "Elkhart", "feat_class": "Populated Place", "primary_latitude": "41.68", "primary_longitude": "-85.97", "name": "Elkhart"}, {"link_title": null, "guid": "029ab3075fce42c091e0760edcb26cdf", "description": null, "fips_class": "C1", "url": "http://ellettsville.in.us/", "feature_id": "7542", "state_name": "Indiana", "fips_county_cd": "105", "state_abbreviation": "IN", "full_county_name": "Monroe County", "county_name": "Monroe", "feat_class": "Populated Place", "primary_latitude": "39.23", "primary_longitude": "-86.62", "name": "Ellettsville"}, {"link_title": null, "guid": "c1a31dec35b949b18675273b8d37bd3d", "description": null, "fips_class": "C1", "url": "http://www.middleburyin.org", "feature_id": "8054", "state_name": "Indiana", "fips_county_cd": "39", "state_abbreviation": "IN", "full_county_name": "Elkhart County", "county_name": "Elkhart", "feat_class": "Populated Place", "primary_latitude": "41.67", "primary_longitude": "-85.7", "name": "Middlebury"}, {"link_title": null, "guid": "982fadd901ef4ae6b2c0ece1883b930d", "description": null, "fips_class": "C1", "url": "http://www.elwoodindiana.org/", "feature_id": "7545", "state_name": "Indiana", "fips_county_cd": "95", "state_abbreviation": "IN", "full_county_name": "Madison County", "county_name": "Madison", "feat_class": "Populated Place", "primary_latitude": "40.27", "primary_longitude": "-85.84", "name": "Elwood"}, {"link_title": null, "guid": "4cdd9f54ee70457cb81a786fc3a64b63", "description": null, "fips_class": "C1", "url": "http://www.brazil.in.gov/", "feature_id": "7294", "state_name": "Indiana", "fips_county_cd": "21", "state_abbreviation": "IN", "full_county_name": "Clay County", "county_name": "Clay", "feat_class": "Populated Place", "primary_latitude": "39.52", "primary_longitude": "-87.12", "name": "Brazil"}, {"link_title": null, "guid": "6e2c36f3bc714a13bd8ed40034976a9b", "description": null, "fips_class": "C1", "url": "http://princeton-indiana.com/", "feature_id": "8320", "state_name": "Indiana", "fips_county_cd": "51", "state_abbreviation": "IN", "full_county_name": "Gibson County", "county_name": "Gibson", "feat_class": "Populated Place", "primary_latitude": "38.35", "primary_longitude": "-87.56", "name": "Princeton"}, {"link_title": null, "guid": "1b58e49cbd52491bbad36cd3cdbff993", "description": null, "fips_class": "C1", "url": "http://www.vanderburghgov.org/", "feature_id": "7553", "state_name": "Indiana", "fips_county_cd": "163", "state_abbreviation": "IN", "full_county_name": "Vanderburgh County", "county_name": "Vanderburgh", "feat_class": "Populated Place", "primary_latitude": "37.97", "primary_longitude": "-87.55", "name": "Evansville"}, {"link_title": null, "guid": "534488820e8f4d61837b25cf40793b49", "description": null, "fips_class": "C1", "url": "http://www.ci.valparaiso.in.us/", "feature_id": "8581", "state_name": "Indiana", "fips_county_cd": "127", "state_abbreviation": "IN", "full_county_name": "Porter County", "county_name": "Porter", "feat_class": "Populated Place", "primary_latitude": "41.47", "primary_longitude": "-87.06", "name": "Valparaiso"}, {"link_title": null, "guid": "937f6fcb2ecc410e8b79eb42673d99d6", "description": null, "fips_class": "C1", "url": "http://www.mishawakacity.com/", "feature_id": "8072", "state_name": "Indiana", "fips_county_cd": "141", "state_abbreviation": "IN", "full_county_name": "St. Joseph County", "county_name": "St. Joseph", "feat_class": "Populated Place", "primary_latitude": "41.66", "primary_longitude": "-86.15", "name": "Mishawaka"}, {"link_title": null, "guid": "ffac4247a46e4a86851b324523de17ab", "description": null, "fips_class": "C1", "url": "http://www.brownsburg.org/", "feature_id": "7310", "state_name": "Indiana", "fips_county_cd": "63", "state_abbreviation": "IN", "full_county_name": "Hendricks County", "county_name": "Hendricks", "feat_class": "Populated Place", "primary_latitude": "39.84", "primary_longitude": "-86.39", "name": "Brownsburg"}, {"link_title": null, "guid": "51fa6e65b2ad46b895de222209596e14", "description": null, "fips_class": "C1", "url": "http://www.jasperindiana.gov", "feature_id": "7827", "state_name": "Indiana", "fips_county_cd": "37", "state_abbreviation": "IN", "full_county_name": "Dubois County", "county_name": "Dubois", "feat_class": "Populated Place", "primary_latitude": "38.39", "primary_longitude": "-86.93", "name": "Jasper"}, {"link_title": null, "guid": "36eb667bd1c4422fad1b93525ef1ac90", "description": null, "fips_class": "H1", "url": "http://www.miamicountyin.gov/", "feature_id": "138132", "state_name": "Indiana", "fips_county_cd": "103", "state_abbreviation": "IN", "full_county_name": "Miami County", "county_name": "Miami", "feat_class": "Civil", "primary_latitude": null, "primary_longitude": null, "name": "Miami County"}, {"link_title": null, "guid": "9db721e27047402ab7348f84f8df14cd", "description": null, "fips_class": "C1", "url": "http://www.fishers.in.us/", "feature_id": "7573", "state_name": "Indiana", "fips_county_cd": "57", "state_abbreviation": "IN", "full_county_name": "Hamilton County", "county_name": "Hamilton", "feat_class": "Populated Place", "primary_latitude": "39.95", "primary_longitude": "-86.01", "name": "Fishers"}, {"link_title": null, "guid": "cea8f1fd46bb48ec8a55511ea82b4597", "description": null, "fips_class": "C1", "url": "http://www.townofflora.org", "feature_id": "7575", "state_name": "Indiana", "fips_county_cd": "15", "state_abbreviation": "IN", "full_county_name": "Carroll County", "county_name": "Carroll", "feat_class": "Populated Place", "primary_latitude": "40.54", "primary_longitude": "-86.52", "name": "Flora"}, {"link_title": null, "guid": "25e1939eb3834908a35382073eb6fa54", "description": null, "fips_class": "C1", "url": "http://www.burnsharborindiana.com/", "feature_id": "7322", "state_name": "Indiana", "fips_county_cd": "127", "state_abbreviation": "IN", "full_county_name": "Porter County", "county_name": "Porter", "feat_class": "Populated Place", "primary_latitude": "41.62", "primary_longitude": "-87.13", "name": "Burns Harbor"}, {"link_title": null, "guid": "4371e9a76bff46ab91afa9212d1bc6eb", "description": null, "fips_class": "C1", "url": "http://www.butler.in.us/", "feature_id": "7324", "state_name": "Indiana", "fips_county_cd": "33", "state_abbreviation": "IN", "full_county_name": "DeKalb County", "county_name": "DeKalb", "feat_class": "Populated Place", "primary_latitude": "41.42", "primary_longitude": "-84.87", "name": "Butler"}, {"link_title": null, "guid": "8c3d40cb37fc46b8b1f8c8b1662db5cb", "description": null, "fips_class": "C1", "url": "http://www.ci.ft-wayne.in.us/", "feature_id": "7580", "state_name": "Indiana", "fips_county_cd": "3", "state_abbreviation": "IN", "full_county_name": "Allen County", "county_name": "Allen", "feat_class": "Populated Place", "primary_latitude": "41.13", "primary_longitude": "-85.12", "name": "Fort Wayne"}, {"link_title": null, "guid": "6eb90e7b5b0c4d2a8037ad320d64b268", "description": null, "fips_class": "C1", "url": "http://www.ci.richmond.in.us/", "feature_id": "8350", "state_name": "Indiana", "fips_county_cd": "177", "state_abbreviation": "IN", "full_county_name": "Wayne County", "county_name": "Wayne", "feat_class": "Populated Place", "primary_latitude": "39.82", "primary_longitude": "-84.89", "name": "Richmond"}, {"link_title": null, "guid": "71af086724804b458752faac24bd3ab0", "description": null, "fips_class": "C1", "url": "http://www.townoffowler.com/", "feature_id": "7583", "state_name": "Indiana", "fips_county_cd": "7", "state_abbreviation": "IN", "full_county_name": "Benton County", "county_name": "Benton", "feat_class": "Populated Place", "primary_latitude": "40.61", "primary_longitude": "-87.32", "name": "Fowler"}, {"link_title": null, "guid": "b593960380884a8eb2c5524334781b46", "description": null, "fips_class": "C1", "url": "http://www.vincennes.org/", "feature_id": "8607", "state_name": "Indiana", "fips_county_cd": "83", "state_abbreviation": "IN", "full_county_name": "Knox County", "county_name": "Knox", "feat_class": "Populated Place", "primary_latitude": "38.67", "primary_longitude": "-87.52", "name": "Vincennes"}, {"link_title": null, "guid": "48109b7bec0549e9955b692a5e3cdb0b", "description": null, "fips_class": "C1", "url": "http://www.cityofwabash.org/", "feature_id": "8609", "state_name": "Indiana", "fips_county_cd": "169", "state_abbreviation": "IN", "full_county_name": "Wabash County", "county_name": "Wabash", "feat_class": "Populated Place", "primary_latitude": "40.79", "primary_longitude": "-85.82", "name": "Wabash"}, {"link_title": null, "guid": "3ba6c732856442e888e583860781cdea", "description": null, "fips_class": "C1", "url": "http://www.cityoffrankfort.net/", "feature_id": "7587", "state_name": "Indiana", "fips_county_cd": "23", "state_abbreviation": "IN", "full_county_name": "Clinton County", "county_name": "Clinton", "feat_class": "Populated Place", "primary_latitude": "40.27", "primary_longitude": "-86.51", "name": "Frankfort"}, {"link_title": null, "guid": "6b0fc41e8c004675be4d75badc12a342", "description": null, "fips_class": "C1", "url": "http://www.franklin-in.gov/", "feature_id": "7588", "state_name": "Indiana", "fips_county_cd": "81", "state_abbreviation": "IN", "full_county_name": "Johnson County", "county_name": "Johnson", "feat_class": "Populated Place", "primary_latitude": "39.48", "primary_longitude": "-86.05", "name": "Franklin"}, {"link_title": null, "guid": "29c34314d5054716a4e698d3342c7fed", "description": null, "fips_class": "C1", "url": "http://www.rochester.in.us/", "feature_id": "8363", "state_name": "Indiana", "fips_county_cd": "49", "state_abbreviation": "IN", "full_county_name": "Fulton County", "county_name": "Fulton", "feat_class": "Populated Place", "primary_latitude": "41.06", "primary_longitude": "-86.21", "name": "Rochester"}, {"link_title": null, "guid": "45bb2417032d4a9c9ab97337604ce5d9", "description": null, "fips_class": "C1", "url": "http://www.walkerton.org/", "feature_id": "8619", "state_name": "Indiana", "fips_county_cd": "141", "state_abbreviation": "IN", "full_county_name": "St. Joseph County", "county_name": "St. Joseph", "feat_class": "Populated Place", "primary_latitude": "41.46", "primary_longitude": "-86.48", "name": "Walkerton"}, {"link_title": null, "guid": "2584969f17fc416b8a9864c63ac89ba7", "description": null, "fips_class": "C1", "url": "http://www.ci.carmel.in.us/", "feature_id": "7342", "state_name": "Indiana", "fips_county_cd": "57", "state_abbreviation": "IN", "full_county_name": "Hamilton County", "county_name": "Hamilton", "feat_class": "Populated Place", "primary_latitude": "39.97", "primary_longitude": "-86.11", "name": "Carmel"}, {"link_title": null, "guid": "d0a224d99fd04fbea8f607f94fb70293", "description": null, "fips_class": "C1", "url": "http://www.townofmorocco.com/", "feature_id": "8114", "state_name": "Indiana", "fips_county_cd": "111", "state_abbreviation": "IN", "full_county_name": "Newton County", "county_name": "Newton", "feat_class": "Populated Place", "primary_latitude": "40.94", "primary_longitude": "-87.45", "name": "Morocco"}, {"link_title": null, "guid": "f548121061f74c88bbc0931269ba1da7", "description": null, "fips_class": "C1", "url": "http://www.warsawcity.net/", "feature_id": "8635", "state_name": "Indiana", "fips_county_cd": "85", "state_abbreviation": "IN", "full_county_name": "Kosciusko County", "county_name": "Kosciusko", "feat_class": "Populated Place", "primary_latitude": "41.23", "primary_longitude": "-85.85", "name": "Warsaw"}, {"link_title": null, "guid": "3e4adc762a1040fba89b8e5ec10735db", "description": null, "fips_class": "C1", "url": "http://www.washingtonin.us/", "feature_id": "8636", "state_name": "Indiana", "fips_county_cd": "27", "state_abbreviation": "IN", "full_county_name": "Daviess County", "county_name": "Daviess", "feat_class": "Populated Place", "primary_latitude": "38.65", "primary_longitude": "-87.17", "name": "Washington"}, {"link_title": null, "guid": "405414a944404ffe94cb2dd665b5eabb", "description": null, "fips_class": "C1", "url": "http://www.cityofmuncie.com/", "feature_id": "8125", "state_name": "Indiana", "fips_county_cd": "35", "state_abbreviation": "IN", "full_county_name": "Delaware County", "county_name": "Delaware", "feat_class": "Populated Place", "primary_latitude": "40.19", "primary_longitude": "-85.38", "name": "Muncie"}, {"link_title": null, "guid": "8a5b6751fc444e25b6e335d43f1b11f3", "description": null, "fips_class": "C1", "url": "http://www.cityofrushville.com/", "feature_id": "8381", "state_name": "Indiana", "fips_county_cd": "139", "state_abbreviation": "IN", "full_county_name": "Rush County", "county_name": "Rush", "feat_class": "Populated Place", "primary_latitude": "39.6", "primary_longitude": "-85.44", "name": "Rushville"}, {"link_title": null, "guid": "6a0f1dea87d847149138566f951d04f1", "description": null, "fips_class": "C1", "url": "http://www.ci.munster.in.us/", "feature_id": "8126", "state_name": "Indiana", "fips_county_cd": "89", "state_abbreviation": "IN", "full_county_name": "Lake County", "county_name": "Lake", "feat_class": "Populated Place", "primary_latitude": "41.56", "primary_longitude": "-87.51", "name": "Munster"}, {"link_title": null, "guid": "413fe5fe7dd14481a811562508392fd9", "description": null, "fips_class": "C1", "url": "http://www.townofnashville.org/", "feature_id": "8129", "state_name": "Indiana", "fips_county_cd": "13", "state_abbreviation": "IN", "full_county_name": "Brown County", "county_name": "Brown", "feat_class": "Populated Place", "primary_latitude": "39.2", "primary_longitude": "-86.25", "name": "Nashville"}, {"link_title": null, "guid": "75784082a1a64f6ab371b254898bcd0a", "description": null, "fips_class": "C1", "url": "http://www.garrettindiana.us/", "feature_id": "7618", "state_name": "Indiana", "fips_county_cd": "33", "state_abbreviation": "IN", "full_county_name": "DeKalb County", "county_name": "DeKalb", "feat_class": "Populated Place", "primary_latitude": "41.34", "primary_longitude": "-85.13", "name": "Garrett"}, {"link_title": null, "guid": "fb8df51e2f664c4082251d2ddb58286b", "description": null, "fips_class": "C1", "url": "http://www.gary.in.us/", "feature_id": "7619", "state_name": "Indiana", "fips_county_cd": "89", "state_abbreviation": "IN", "full_county_name": "Lake County", "county_name": "Lake", "feat_class": "Populated Place", "primary_latitude": "41.59", "primary_longitude": "-87.34", "name": "Gary"}, {"link_title": null, "guid": "2b3df25d379c40b7b6047a36738c0ec7", "description": null, "fips_class": "C1", "url": "http://www.cityofnewalbany.com/", "feature_id": "8132", "state_name": "Indiana", "fips_county_cd": "43", "state_abbreviation": "IN", "full_county_name": "Floyd County", "county_name": "Floyd", "feat_class": "Populated Place", "primary_latitude": "38.28", "primary_longitude": "-85.82", "name": "New Albany"}, {"link_title": null, "guid": "41ea8b63af204970ac2a816bdf436bc6", "description": null, "fips_class": "C1", "url": "http://www.stjohnin.com/", "feature_id": "8388", "state_name": "Indiana", "fips_county_cd": "89", "state_abbreviation": "IN", "full_county_name": "Lake County", "county_name": "Lake", "feat_class": "Populated Place", "primary_latitude": "41.45", "primary_longitude": "-87.47", "name": "Saint John"}, {"link_title": null, "guid": "e110eaecca944414ad1b597e582071f9", "description": null, "fips_class": "C1", "url": "http://www.newhavenin.org/", "feature_id": "8141", "state_name": "Indiana", "fips_county_cd": "3", "state_abbreviation": "IN", "full_county_name": "Allen County", "county_name": "Allen", "feat_class": "Populated Place", "primary_latitude": "41.07", "primary_longitude": "-85.01", "name": "New Haven"}, {"link_title": null, "guid": "918e5ed55fdb4bdc989dfd0cfcf249f2", "description": null, "fips_class": "C1", "url": "http://www.ci.goshen.in.us/", "feature_id": "7638", "state_name": "Indiana", "fips_county_cd": "39", "state_abbreviation": "IN", "full_county_name": "Elkhart County", "county_name": "Elkhart", "feat_class": "Populated Place", "primary_latitude": "41.58", "primary_longitude": "-85.83", "name": "Goshen"}, {"link_title": null, "guid": "8f53943b9e9a4c4b81ba91be630d9b3c", "description": null, "fips_class": "C1", "url": "http://www.cityofknox.net/", "feature_id": "7894", "state_name": "Indiana", "fips_county_cd": "149", "state_abbreviation": "IN", "full_county_name": "Starke County", "county_name": "Starke", "feat_class": "Populated Place", "primary_latitude": "41.29", "primary_longitude": "-86.62", "name": "Knox"}, {"link_title": null, "guid": "f5ea79819b1f4462abc29cf1f4c4ab39", "description": null, "fips_class": "C1", "url": "http://www.newburgh.org/", "feature_id": "8151", "state_name": "Indiana", "fips_county_cd": "173", "state_abbreviation": "IN", "full_county_name": "Warrick County", "county_name": "Warrick", "feat_class": "Populated Place", "primary_latitude": "37.94", "primary_longitude": "-87.4", "name": "Newburgh"}, {"link_title": null, "guid": "0586e78993bc495da08f8de28e1ce5d2", "description": null, "fips_class": "C1", "url": "http://www.cityofkokomo.org/", "feature_id": "7896", "state_name": "Indiana", "fips_county_cd": "67", "state_abbreviation": "IN", "full_county_name": "Howard County", "county_name": "Howard", "feat_class": "Populated Place", "primary_latitude": "40.48", "primary_longitude": "-86.13", "name": "Kokomo"}, {"link_title": null, "guid": "2577fff1a5524de1b40b37035cd463ad", "description": null, "fips_class": "C1", "url": "http://www.ci.schererville.in.us/", "feature_id": "8413", "state_name": "Indiana", "fips_county_cd": "89", "state_abbreviation": "IN", "full_county_name": "Lake County", "county_name": "Lake", "feat_class": "Populated Place", "primary_latitude": "41.47", "primary_longitude": "-87.45", "name": "Schererville"}, {"link_title": null, "guid": "9fb8da190cf84feb9900c62c52297d11", "description": null, "fips_class": "H1", "url": "http://www.co.adams.in.us/", "feature_id": "37341", "state_name": "Indiana", "fips_county_cd": "1", "state_abbreviation": "IN", "full_county_name": null, "county_name": null, "feat_class": "Civil", "primary_latitude": "40.74", "primary_longitude": "-84.93", "name": "Adams County"}, {"link_title": null, "guid": "f573ea431c0c40baaf39dcfa3cbcf7d8", "description": null, "fips_class": "H1", "url": "http://www.allencounty.us/", "feature_id": "37342", "state_name": "Indiana", "fips_county_cd": "3", "state_abbreviation": "IN", "full_county_name": null, "county_name": null, "feat_class": "Civil", "primary_latitude": "41.07", "primary_longitude": "-85.01", "name": "Allen County"}, {"link_title": null, "guid": "835a304a24f941c79d3ea41d144991ca", "description": null, "fips_class": "C1", "url": "http://www.city.lafayette.in.us/", "feature_id": "7903", "state_name": "Indiana", "fips_county_cd": "157", "state_abbreviation": "IN", "full_county_name": "Tippecanoe County", "county_name": "Tippecanoe", "feat_class": "Populated Place", "primary_latitude": "40.41", "primary_longitude": "-86.87", "name": "Lafayette"}, {"link_title": null, "guid": "7b04f5a02d1a4300bc1d7b0c6181ad38", "description": null, "fips_class": "H1", "url": "http://bartholomewco.com/", "feature_id": "37343", "state_name": "Indiana", "fips_county_cd": "5", "state_abbreviation": "IN", "full_county_name": null, "county_name": null, "feat_class": "Civil", "primary_latitude": "39.2", "primary_longitude": "-85.92", "name": "Bartholomew County"}, {"link_title": null, "guid": "3da0f571d96d41408ddbe55d5e8c89b7", "description": null, "fips_class": "H1", "url": "http://www.blackfordcounty.com/", "feature_id": "37345", "state_name": "Indiana", "fips_county_cd": "9", "state_abbreviation": "IN", "full_county_name": null, "county_name": null, "feat_class": "Civil", "primary_latitude": "40.45", "primary_longitude": "-85.36", "name": "Blackford County"}, {"link_title": null, "guid": "157d14012fd2475daabacdcd542ef7a8", "description": null, "fips_class": "H1", "url": "http://www.bccn.boone.in.us/", "feature_id": "37346", "state_name": "Indiana", "fips_county_cd": "11", "state_abbreviation": "IN", "full_county_name": null, "county_name": null, "feat_class": "Civil", "primary_latitude": "40.04", "primary_longitude": "-86.46", "name": "Boone County"}, {"link_title": null, "guid": "94178622eae2449caf5202d19b7148a5", "description": null, "fips_class": "C1", "url": "http://www.chestertonin.org/", "feature_id": "7397", "state_name": "Indiana", "fips_county_cd": "127", "state_abbreviation": "IN", "full_county_name": "Porter County", "county_name": "Porter", "feat_class": "Populated Place", "primary_latitude": "41.61", "primary_longitude": "-87.06", "name": "Chesterton"}, {"link_title": null, "guid": "b5781d62fad74e4ca271cf64c9af0fb3", "description": null, "fips_class": "H1", "url": "http://www.co.clark.in.us/", "feature_id": "37350", "state_name": "Indiana", "fips_county_cd": "19", "state_abbreviation": "IN", "full_county_name": null, "county_name": null, "feat_class": "Civil", "primary_latitude": "38.48", "primary_longitude": "-85.76", "name": "Clark County"}, {"link_title": null, "guid": "3cf81c6dcd144200b15f5743c82c76cd", "description": null, "fips_class": "C1", "url": "http://www.churubusco.net/", "feature_id": "7399", "state_name": "Indiana", "fips_county_cd": "183", "state_abbreviation": "IN", "full_county_name": "Whitley County", "county_name": "Whitley", "feat_class": "Populated Place", "primary_latitude": "41.23", "primary_longitude": "-85.31", "name": "Churubusco"}, {"link_title": null, "guid": "0085ecf1b3664163b6731aedfc07efc5", "description": null, "fips_class": "C1", "url": "http://www.cityofnoblesville.org/", "feature_id": "8167", "state_name": "Indiana", "fips_county_cd": "57", "state_abbreviation": "IN", "full_county_name": "Hamilton County", "county_name": "Hamilton", "feat_class": "Populated Place", "primary_latitude": "40.04", "primary_longitude": "-86", "name": "Noblesville"}, {"link_title": null, "guid": "8ba7dc221c3b4c34944afaef07861928", "description": null, "fips_class": "C1", "url": "http://www.lakestation.in.gov/", "feature_id": "7912", "state_name": "Indiana", "fips_county_cd": "89", "state_abbreviation": "IN", "full_county_name": "Lake County", "county_name": "Lake", "feat_class": "Populated Place", "primary_latitude": "41.57", "primary_longitude": "-87.23", "name": "Lake Station"}, {"link_title": null, "guid": "11caf80ec81b48958808040423c07866", "description": null, "fips_class": "C1", "url": "http://www.seymourcity.com/", "feature_id": "8426", "state_name": "Indiana", "fips_county_cd": "71", "state_abbreviation": "IN", "full_county_name": "Jackson County", "county_name": "Jackson", "feat_class": "Populated Place", "primary_latitude": "38.95", "primary_longitude": "-85.89", "name": "Seymour"}, {"link_title": null, "guid": "413a593d6bb448a7a79c956d0ead2c44", "description": null, "fips_class": "H1", "url": "http://www.dearborncounty.org/", "feature_id": "37355", "state_name": "Indiana", "fips_county_cd": "29", "state_abbreviation": "IN", "full_county_name": null, "county_name": null, "feat_class": "Civil", "primary_latitude": "39.16", "primary_longitude": "-84.91", "name": "Dearborn County"}, {"link_title": null, "guid": "63acbaf12875456c991362166e8247c6", "description": null, "fips_class": "H1", "url": "http://www.decaturcounty.in.gov/", "feature_id": "37356", "state_name": "Indiana", "fips_county_cd": "31", "state_abbreviation": "IN", "full_county_name": null, "county_name": null, "feat_class": "Civil", "primary_latitude": "39.33", "primary_longitude": "-85.48", "name": "Decatur County"}, {"link_title": null, "guid": "d725e32b1fbb45bfa0e970065b35321d", "description": null, "fips_class": "C1", "url": "http://www.nmanchester.org/", "feature_id": "8173", "state_name": "Indiana", "fips_county_cd": "169", "state_abbreviation": "IN", "full_county_name": "Wabash County", "county_name": "Wabash", "feat_class": "Populated Place", "primary_latitude": "41", "primary_longitude": "-85.76", "name": "North Manchester"}, {"link_title": null, "guid": "d1bf18c853b64b6895e8b43a2289a5c7", "description": null, "fips_class": "H1", "url": "http://www.co.dekalb.in.us/", "feature_id": "37357", "state_name": "Indiana", "fips_county_cd": "33", "state_abbreviation": "IN", "full_county_name": null, "county_name": null, "feat_class": "Civil", "primary_latitude": "41.36", "primary_longitude": "-85.05", "name": "DeKalb County"}, {"link_title": null, "guid": "9fcb7bea7ba84f0aba0a3ddba6d1a498", "description": null, "fips_class": "C1", "url": "http://town.clarksville.in.us/", "feature_id": "7406", "state_name": "Indiana", "fips_county_cd": "19", "state_abbreviation": "IN", "full_county_name": "Clark County", "county_name": "Clark", "feat_class": "Populated Place", "primary_latitude": "38.29", "primary_longitude": "-85.75", "name": "Clarksville"}, {"link_title": null, "guid": "45587903fe244f03880ea0292138dc89", "description": null, "fips_class": "H1", "url": "http://www.co.delaware.in.us/", "feature_id": "37358", "state_name": "Indiana", "fips_county_cd": "35", "state_abbreviation": "IN", "full_county_name": null, "county_name": null, "feat_class": "Civil", "primary_latitude": "40.19", "primary_longitude": "-85.38", "name": "Delaware County"}, {"link_title": null, "guid": "e91d2159d5874fd69f21ee841128b0c8", "description": null, "fips_class": "C1", "url": "http://www.greenfieldin.org/", "feature_id": "7663", "state_name": "Indiana", "fips_county_cd": "59", "state_abbreviation": "IN", "full_county_name": "Hancock County", "county_name": "Hancock", "feat_class": "Populated Place", "primary_latitude": "39.78", "primary_longitude": "-85.76", "name": "Greenfield"}, {"link_title": null, "guid": "b04479df4a99415993adf0514390069c", "description": null, "fips_class": "H1", "url": "http://www.elkhartcountyindiana.com/", "feature_id": "37360", "state_name": "Indiana", "fips_county_cd": "39", "state_abbreviation": "IN", "full_county_name": null, "county_name": null, "feat_class": "Civil", "primary_latitude": "41.58", "primary_longitude": "-85.83", "name": "Elkhart County"}, {"link_title": null, "guid": "08e25ff390834c8a9271e387fef843d5", "description": null, "fips_class": "H1", "url": "http://www.co.fayette.in.us/", "feature_id": "37361", "state_name": "Indiana", "fips_county_cd": "41", "state_abbreviation": "IN", "full_county_name": null, "county_name": null, "feat_class": "Civil", "primary_latitude": "39.75", "primary_longitude": "-85.25", "name": "Fayette County"}, {"link_title": null, "guid": "923a4db451da43068fdc110b4eac8876", "description": null, "fips_class": "H1", "url": "http://www.floydcounty.in.gov/", "feature_id": "37362", "state_name": "Indiana", "fips_county_cd": "43", "state_abbreviation": "IN", "full_county_name": null, "county_name": null, "feat_class": "Civil", "primary_latitude": "38.32", "primary_longitude": "-85.87", "name": "Floyd County"}, {"link_title": null, "guid": "aa974eaabe4a44e7a3f01972ae41ca01", "description": null, "fips_class": "C1", "url": "http://www.cityoflaporte.com/", "feature_id": "7923", "state_name": "Indiana", "fips_county_cd": "91", "state_abbreviation": "IN", "full_county_name": "LaPorte County", "county_name": "LaPorte", "feat_class": "Populated Place", "primary_latitude": "41.61", "primary_longitude": "-86.72", "name": "LaPorte"}, {"link_title": null, "guid": "7abd601793d44bf483e90a91b0210d96", "description": null, "fips_class": "H1", "url": "http://www.co.fountain.in.us/", "feature_id": "37363", "state_name": "Indiana", "fips_county_cd": "45", "state_abbreviation": "IN", "full_county_name": null, "county_name": null, "feat_class": "Civil", "primary_latitude": "40.11", "primary_longitude": "-87.26", "name": "Fountain County"}, {"link_title": null, "guid": "6ffc99cedf3d40a5be494a59ef44cde0", "description": null, "fips_class": "H1", "url": "http://www.co.fulton.in.us/", "feature_id": "37365", "state_name": "Indiana", "fips_county_cd": "49", "state_abbreviation": "IN", "full_county_name": null, "county_name": null, "feat_class": "Civil", "primary_latitude": "41.06", "primary_longitude": "-86.21", "name": "Fulton County"}, {"link_title": null, "guid": "6b7636a2a34d417bb780337cd691e78f", "description": null, "fips_class": "C1", "url": "http://www.cityofshelbyvillein.com/", "feature_id": "8438", "state_name": "Indiana", "fips_county_cd": "145", "state_abbreviation": "IN", "full_county_name": "Shelby County", "county_name": "Shelby", "feat_class": "Populated Place", "primary_latitude": "39.52", "primary_longitude": "-85.77", "name": "Shelbyville"}, {"link_title": null, "guid": "c91a2f0e6aca4003b1213122c97a26f1", "description": null, "fips_class": "H1", "url": "http://www.grantcounty.net/", "feature_id": "37367", "state_name": "Indiana", "fips_county_cd": "53", "state_abbreviation": "IN", "full_county_name": null, "county_name": null, "feat_class": "Civil", "primary_latitude": "40.55", "primary_longitude": "-85.65", "name": "Grant County"}, {"link_title": null, "guid": "d304ed3022cd4a218d4ca1dc7eb248cc", "description": null, "fips_class": "C1", "url": "http://www.shipshewana.org/", "feature_id": "8440", "state_name": "Indiana", "fips_county_cd": "87", "state_abbreviation": "IN", "full_county_name": "LaGrange County", "county_name": "LaGrange", "feat_class": "Populated Place", "primary_latitude": "41.67", "primary_longitude": "-85.58", "name": "Shipshewana"}, {"link_title": null, "guid": "5d16a8ad7a8448838622305773e40e4a", "description": null, "fips_class": "C1", "url": "http://www.cityoflawrence.org/", "feature_id": "7929", "state_name": "Indiana", "fips_county_cd": "97", "state_abbreviation": "IN", "full_county_name": "Marion County", "county_name": "Marion", "feat_class": "Populated Place", "primary_latitude": "39.83", "primary_longitude": "-86.02", "name": "Lawrence"}, {"link_title": null, "guid": "65fedbe333e142f39436cc77faf4a7e3", "description": null, "fips_class": "H1", "url": "http://www.co.hamilton.in.us/", "feature_id": "37369", "state_name": "Indiana", "fips_county_cd": "57", "state_abbreviation": "IN", "full_county_name": null, "county_name": null, "feat_class": "Civil", "primary_latitude": "40.04", "primary_longitude": "-86", "name": "Hamilton County"}, {"link_title": null, "guid": "98b2f138a11c4498a96d75da4f132c3c", "description": null, "fips_class": "C1", "url": "http://www.greenwood.in.gov/", "feature_id": "7674", "state_name": "Indiana", "fips_county_cd": "81", "state_abbreviation": "IN", "full_county_name": "Johnson County", "county_name": "Johnson", "feat_class": "Populated Place", "primary_latitude": "39.61", "primary_longitude": "-86.1", "name": "Greenwood"}, {"link_title": null, "guid": "9d0f7f8104d546e780f55186b1fd5af5", "description": null, "fips_class": "H1", "url": "http://www.hancockcoingov.org/", "feature_id": "37370", "state_name": "Indiana", "fips_county_cd": "59", "state_abbreviation": "IN", "full_county_name": null, "county_name": null, "feat_class": "Civil", "primary_latitude": "39.78", "primary_longitude": "-85.76", "name": "Hancock County"}, {"link_title": null, "guid": "ed71f26bc0974520b681354e5a2f256e", "description": null, "fips_class": "H1", "url": "http://www.co.hendricks.in.us/", "feature_id": "37372", "state_name": "Indiana", "fips_county_cd": "63", "state_abbreviation": "IN", "full_county_name": null, "county_name": null, "feat_class": "Civil", "primary_latitude": "39.76", "primary_longitude": "-86.52", "name": "Hendricks County"}, {"link_title": null, "guid": "2adc703d7b724fd7aac45799aefda034", "description": null, "fips_class": "H1", "url": "http://www.henryco.net/", "feature_id": "37373", "state_name": "Indiana", "fips_county_cd": "65", "state_abbreviation": "IN", "full_county_name": null, "county_name": null, "feat_class": "Civil", "primary_latitude": "39.92", "primary_longitude": "-85.37", "name": "Henry County"}, {"link_title": null, "guid": "d7e1296e96fb47c3bdc61d54de92d684", "description": null, "fips_class": "C1", "url": "http://www.crownpoint.in.gov/", "feature_id": "7678", "state_name": "Indiana", "fips_county_cd": "89", "state_abbreviation": "IN", "full_county_name": "Lake County", "county_name": "Lake", "feat_class": "Populated Place", "primary_latitude": "41.52", "primary_longitude": "-87.42", "name": "Griffith"}, {"link_title": null, "guid": "f2a6d39cd92b4f83afa885dfd519ea63", "description": null, "fips_class": "C1", "url": "http://www.bccn.boone.in.us/lebanon/", "feature_id": "7934", "state_name": "Indiana", "fips_county_cd": "11", "state_abbreviation": "IN", "full_county_name": "Boone County", "county_name": "Boone", "feat_class": "Populated Place", "primary_latitude": "40.04", "primary_longitude": "-86.46", "name": "Lebanon"}, {"link_title": null, "guid": "0c9c348530cd462c912e857598bbf0ea", "description": null, "fips_class": "H1", "url": "http://www.co.howard.in.us/", "feature_id": "37374", "state_name": "Indiana", "fips_county_cd": "67", "state_abbreviation": "IN", "full_county_name": null, "county_name": null, "feat_class": "Civil", "primary_latitude": "40.48", "primary_longitude": "-86.13", "name": "Howard County"}, {"link_title": null, "guid": "4e414ff2113c4e68b438fbf96e48adc3", "description": null, "fips_class": "H1", "url": "http://www.huntington.in.us/", "feature_id": "37375", "state_name": "Indiana", "fips_county_cd": "69", "state_abbreviation": "IN", "full_county_name": null, "county_name": null, "feat_class": "Civil", "primary_latitude": "40.88", "primary_longitude": "-85.49", "name": "Huntington County"}]