[{"link_title": null, "guid": "0d134add850a484b8f5298308776f61e", "description": null, "fips_class": "H1", "url": "http://www.co.cascade.mt.us/", "feature_id": "38147", "state_name": "Montana", "fips_county_cd": "13", "state_abbreviation": "MT", "full_county_name": null, "county_name": null, "feat_class": "Civil", "primary_latitude": "47.29", "primary_longitude": "-111.36", "name": "Cascade County"}, {"link_title": null, "guid": "f64857d1d90943788d29bd8b03e4e0ab", "description": null, "fips_class": "H1", "url": "http://www.co.chouteau.mt.us/", "feature_id": "38148", "state_name": "Montana", "fips_county_cd": "15", "state_abbreviation": "MT", "full_county_name": null, "county_name": null, "feat_class": "Civil", "primary_latitude": "47.86", "primary_longitude": "-110.46", "name": "Chouteau County"}, {"link_title": null, "guid": "210a9e46fc7643729376a2ecf4ad2efa", "description": null, "fips_class": "H6", "url": "http://www.anacondamt.org/", "feature_id": "38152", "state_name": "Montana", "fips_county_cd": "23", "state_abbreviation": "MT", "full_county_name": null, "county_name": null, "feat_class": "Civil", "primary_latitude": "46.0499251", "primary_longitude": "-113.0342116", "name": "Deer Lodge County"}, {"link_title": null, "guid": "5e7f695801cb413bb554ab734d26bb1a", "description": null, "fips_class": "H1", "url": "http://www.co.fergus.mt.us/", "feature_id": "38154", "state_name": "Montana", "fips_county_cd": "27", "state_abbreviation": "MT", "full_county_name": null, "county_name": null, "feat_class": "Civil", "primary_latitude": "47.29", "primary_longitude": "-109.26", "name": "Fergus County"}, {"link_title": null, "guid": "38208da03a0545838167cb8ce0f48a2d", "description": null, "fips_class": "H1", "url": "http://flathead.mt.gov/", "feature_id": "38155", "state_name": "Montana", "fips_county_cd": "29", "state_abbreviation": "MT", "full_county_name": null, "county_name": null, "feat_class": "Civil", "primary_latitude": "48.33", "primary_longitude": "-114.25", "name": "Flathead County"}, {"link_title": null, "guid": "5078f3a2eda44e38a40744d44c081f74", "description": null, "fips_class": "H1", "url": "http://www.gallatin.mt.gov/", "feature_id": "38156", "state_name": "Montana", "fips_county_cd": "31", "state_abbreviation": "MT", "full_county_name": null, "county_name": null, "feat_class": "Civil", "primary_latitude": "45.66", "primary_longitude": "-111.2", "name": "Gallatin County"}, {"link_title": null, "guid": "d92f4fa6135b4020a205f0411d5bac69", "description": null, "fips_class": "H1", "url": "http://co.hill.mt.us/", "feature_id": "38161", "state_name": "Montana", "fips_county_cd": "41", "state_abbreviation": "MT", "full_county_name": null, "county_name": null, "feat_class": "Civil", "primary_latitude": "48.64", "primary_longitude": "-110.1", "name": "Hill County"}, {"link_title": null, "guid": "7b7438c97e284fd6a36ce23745dbf3c2", "description": null, "fips_class": "H1", "url": "http://www.jeffco.mt.gov/", "feature_id": "38162", "state_name": "Montana", "fips_county_cd": "43", "state_abbreviation": "MT", "full_county_name": null, "county_name": null, "feat_class": "Civil", "primary_latitude": "46.18", "primary_longitude": "-112.16", "name": "Jefferson County"}, {"link_title": null, "guid": "dfd6d73a03994946ba1d3766c57d2967", "description": null, "fips_class": "H1", "url": "http://www.lakecounty-mt.org/", "feature_id": "38164", "state_name": "Montana", "fips_county_cd": "47", "state_abbreviation": "MT", "full_county_name": null, "county_name": null, "feat_class": "Civil", "primary_latitude": "47.66", "primary_longitude": "-114.08", "name": "Lake County"}, {"link_title": null, "guid": "00bc131eb7874c8e93e871effb3ecd77", "description": null, "fips_class": "H1", "url": "http://www.co.lewis-clark.mt.us/", "feature_id": "38165", "state_name": "Montana", "fips_county_cd": "49", "state_abbreviation": "MT", "full_county_name": null, "county_name": null, "feat_class": "Civil", "primary_latitude": "47.03", "primary_longitude": "-112.48", "name": "Lewis and Clark County"}, {"link_title": null, "guid": "41cd790c914c40bea7019abea31bbe42", "description": null, "fips_class": "H1", "url": "http://www.lincolncountymt.us/", "feature_id": "38167", "state_name": "Montana", "fips_county_cd": "53", "state_abbreviation": "MT", "full_county_name": null, "county_name": null, "feat_class": "Civil", "primary_latitude": "48.54", "primary_longitude": "-115.38", "name": "Lincoln County"}, {"link_title": null, "guid": "e6fa9adf5d864bce9ddd80625eb70c9b", "description": null, "fips_class": "H1", "url": "http://co.mineral.mt.us/", "feature_id": "38171", "state_name": "Montana", "fips_county_cd": "61", "state_abbreviation": "MT", "full_county_name": null, "county_name": null, "feat_class": "Civil", "primary_latitude": "47.13", "primary_longitude": "-114.96", "name": "Mineral County"}, {"link_title": null, "guid": "fc647f15a4b84011ac792824eb6b20e8", "description": null, "fips_class": "H1", "url": "http://www.co.missoula.mt.us/", "feature_id": "38172", "state_name": "Montana", "fips_county_cd": "63", "state_abbreviation": "MT", "full_county_name": null, "county_name": null, "feat_class": "Civil", "primary_latitude": "47.01", "primary_longitude": "-113.8", "name": "Missoula County"}, {"link_title": null, "guid": "50e067ccf66344cb9fd9d5fee78e8125", "description": null, "fips_class": "H1", "url": "http://www.parkcounty.org/", "feature_id": "38174", "state_name": "Montana", "fips_county_cd": "67", "state_abbreviation": "MT", "full_county_name": null, "county_name": null, "feat_class": "Civil", "primary_latitude": "45.48", "primary_longitude": "-110.56", "name": "Park County"}, {"link_title": null, "guid": "6fc92ea84d844452845c00801aaf0f7c", "description": null, "fips_class": "H1", "url": "http://www.ponderacountymontana.org/", "feature_id": "38177", "state_name": "Montana", "fips_county_cd": "73", "state_abbreviation": "MT", "full_county_name": null, "county_name": null, "feat_class": "Civil", "primary_latitude": "48.21", "primary_longitude": "-112.18", "name": "Pondera County"}, {"link_title": null, "guid": "0d04161b584c481483a38e0c858159a3", "description": null, "fips_class": "H1", "url": "http://www.ravallicounty.mt.gov/", "feature_id": "38181", "state_name": "Montana", "fips_county_cd": "81", "state_abbreviation": "MT", "full_county_name": null, "county_name": null, "feat_class": "Civil", "primary_latitude": "46.13", "primary_longitude": "-114.13", "name": "Ravalli County"}, {"link_title": null, "guid": "fa8c99e71b7e4851974977b00b3234c8", "description": null, "fips_class": "H1", "url": "http://www.richland.org/", "feature_id": "38182", "state_name": "Montana", "fips_county_cd": "83", "state_abbreviation": "MT", "full_county_name": null, "county_name": null, "feat_class": "Civil", "primary_latitude": "47.78", "primary_longitude": "-104.53", "name": "Richland County"}, {"link_title": null, "guid": "b24ff3f7b4bf4a878cc031a0138c0679", "description": null, "fips_class": "H1", "url": "http://www.co.sanders.mt.us/", "feature_id": "38185", "state_name": "Montana", "fips_county_cd": "89", "state_abbreviation": "MT", "full_county_name": null, "county_name": null, "feat_class": "Civil", "primary_latitude": "47.66", "primary_longitude": "-115.16", "name": "Sanders County"}, {"link_title": null, "guid": "e0d34710316842fcbe47a3345c0b7cbc", "description": null, "fips_class": "H1", "url": "http://www.co.sheridan.mt.us/", "feature_id": "38186", "state_name": "Montana", "fips_county_cd": "91", "state_abbreviation": "MT", "full_county_name": null, "county_name": null, "feat_class": "Civil", "primary_latitude": "48.71", "primary_longitude": "-104.4", "name": "Sheridan County"}, {"link_title": null, "guid": "7adb93e17f5e4f5d9ff8df0c8ae951ee", "description": null, "fips_class": "H1", "url": "http://www.co.yellowstone.mt.us/", "feature_id": "38196", "state_name": "Montana", "fips_county_cd": "111", "state_abbreviation": "MT", "full_county_name": null, "county_name": null, "feat_class": "Civil", "primary_latitude": "45.91", "primary_longitude": "-108.3", "name": "Yellowstone County"}, {"link_title": null, "guid": "41d3368bbbfb4967afa22901a59b1edf", "description": null, "fips_class": "C4", "url": "http://www.anacondamt.org/", "feature_id": "18531", "state_name": "Montana", "fips_county_cd": "23", "state_abbreviation": "MT", "full_county_name": "Deer Lodge County", "county_name": "Deer Lodge", "feat_class": "Populated Place", "primary_latitude": "46.12", "primary_longitude": "-112.94", "name": "Anaconda"}, {"link_title": null, "guid": "f80634139ee34f3683c25ff83c37e128", "description": null, "fips_class": "C1", "url": "http://www.ci.belgrade.mt.us/", "feature_id": "18535", "state_name": "Montana", "fips_county_cd": "31", "state_abbreviation": "MT", "full_county_name": "Gallatin County", "county_name": "Gallatin", "feat_class": "Populated Place", "primary_latitude": "45.77", "primary_longitude": "-111.17", "name": "Belgrade"}, {"link_title": null, "guid": "e25488b3bd4e416d8054b22f5896c626", "description": null, "fips_class": "C1", "url": "http://ci.billings.mt.us/", "feature_id": "18539", "state_name": "Montana", "fips_county_cd": "111", "state_abbreviation": "MT", "full_county_name": "Yellowstone County", "county_name": "Yellowstone", "feat_class": "Populated Place", "primary_latitude": "45.78", "primary_longitude": "-108.5", "name": "Billings"}, {"link_title": null, "guid": "72d0293af67a411d8256736721f84947", "description": null, "fips_class": "C1", "url": "http://www.bozeman.net/", "feature_id": "18541", "state_name": "Montana", "fips_county_cd": "31", "state_abbreviation": "MT", "full_county_name": "Gallatin County", "county_name": "Gallatin", "feat_class": "Populated Place", "primary_latitude": "45.67", "primary_longitude": "-111.03", "name": "Bozeman"}, {"link_title": null, "guid": "af031072dc3c41c99c63e21aef78cdc7", "description": null, "fips_class": "C4", "url": "http://co.silverbow.mt.us/", "feature_id": "18547", "state_name": "Montana", "fips_county_cd": "93", "state_abbreviation": "MT", "full_county_name": "Silver Bow County", "county_name": "Silver Bow", "feat_class": "Populated Place", "primary_latitude": "46", "primary_longitude": "-112.53", "name": "Butte"}, {"link_title": null, "guid": "67c4bc3eabc94664a4e9a6ae6fada93d", "description": null, "fips_class": "C1", "url": "http://www.greatfallsmt.net/", "feature_id": "18582", "state_name": "Montana", "fips_county_cd": "13", "state_abbreviation": "MT", "full_county_name": "Cascade County", "county_name": "Cascade", "feat_class": "Populated Place", "primary_latitude": "47.5", "primary_longitude": "-111.3", "name": "Great Falls"}, {"link_title": null, "guid": "2ab3339cec764b12b869d31cef290659", "description": null, "fips_class": "C1", "url": "http://www.cityofhamilton.net/", "feature_id": "18583", "state_name": "Montana", "fips_county_cd": "81", "state_abbreviation": "MT", "full_county_name": "Ravalli County", "county_name": "Ravalli", "feat_class": "Populated Place", "primary_latitude": "46.24", "primary_longitude": "-114.16", "name": "Hamilton"}, {"link_title": null, "guid": "be702dcaa88c4f05a905807a4cb077e2", "description": null, "fips_class": "C1", "url": "http://www.ci.havre.mt.us/", "feature_id": "18587", "state_name": "Montana", "fips_county_cd": "41", "state_abbreviation": "MT", "full_county_name": "Hill County", "county_name": "Hill", "feat_class": "Populated Place", "primary_latitude": "48.54", "primary_longitude": "-109.68", "name": "Havre"}, {"link_title": null, "guid": "e6aea2597d2449cdad77ea2f30f32956", "description": null, "fips_class": "C1", "url": "http://www.ci.helena.mt.us/", "feature_id": "18588", "state_name": "Montana", "fips_county_cd": "49", "state_abbreviation": "MT", "full_county_name": "Lewis and Clark County", "county_name": "Lewis and Clark", "feat_class": "Populated Place", "primary_latitude": "46.59", "primary_longitude": "-112.03", "name": "Helena"}, {"link_title": null, "guid": "be59d7452b2f435f8f3ea56d28d0ed4d", "description": null, "fips_class": "C1", "url": "http://www.kalispell.com/", "feature_id": "18597", "state_name": "Montana", "fips_county_cd": "29", "state_abbreviation": "MT", "full_county_name": "Flathead County", "county_name": "Flathead", "feat_class": "Populated Place", "primary_latitude": "48.19", "primary_longitude": "-114.31", "name": "Kalispell"}, {"link_title": null, "guid": "2632e70067b846e5b25da2e7eb322e69", "description": null, "fips_class": "C1", "url": "http://www.mylaurel.com/", "feature_id": "18599", "state_name": "Montana", "fips_county_cd": "111", "state_abbreviation": "MT", "full_county_name": "Yellowstone County", "county_name": "Yellowstone", "feat_class": "Populated Place", "primary_latitude": "45.66", "primary_longitude": "-108.77", "name": "Laurel"}, {"link_title": null, "guid": "2ddd3407aa1741738b992cb4a0eb719e", "description": null, "fips_class": "C1", "url": "http://www.cityoflibby.com/", "feature_id": "18602", "state_name": "Montana", "fips_county_cd": "53", "state_abbreviation": "MT", "full_county_name": "Lincoln County", "county_name": "Lincoln", "feat_class": "Populated Place", "primary_latitude": "48.38", "primary_longitude": "-115.55", "name": "Libby"}, {"link_title": null, "guid": "a6af45d6253543eb86d1af8b860aa117", "description": null, "fips_class": "C1", "url": "http://www.ci.missoula.mt.us/", "feature_id": "18611", "state_name": "Montana", "fips_county_cd": "63", "state_abbreviation": "MT", "full_county_name": "Missoula County", "county_name": "Missoula", "feat_class": "Populated Place", "primary_latitude": "46.87", "primary_longitude": "-113.99", "name": "Missoula"}, {"link_title": null, "guid": "d3c650f6c4a945ff889b08f30a5bcfcc", "description": null, "fips_class": "C1", "url": "http://www.shelbymt.com/", "feature_id": "18633", "state_name": "Montana", "fips_county_cd": "101", "state_abbreviation": "MT", "full_county_name": "Toole County", "county_name": "Toole", "feat_class": "Populated Place", "primary_latitude": "48.5", "primary_longitude": "-111.85", "name": "Shelby"}]