[{"link_title": null, "guid": "065c2c272d51439895abbd335d25bc68", "description": null, "fips_class": "H1", "url": "http://www.municipiodebayamon.com/", "feature_id": "38899", "state_name": "Puerto Rico", "fips_county_cd": "21", "state_abbreviation": "PR", "full_county_name": null, "county_name": null, "feat_class": "Civil", "primary_latitude": "18.35", "primary_longitude": "-66.17", "name": "Municipio Aut\u00c3\u00b3nomo de Bayam\u00c3\u00b3n"}, {"link_title": null, "guid": "bcf1fa4bb2bc4a858cb34d27d717b616", "description": null, "fips_class": "H1", "url": "http://www.caguas.gov.pr/", "feature_id": "38900", "state_name": "Puerto Rico", "fips_county_cd": "25", "state_abbreviation": "PR", "full_county_name": null, "county_name": null, "feat_class": "Civil", "primary_latitude": "18.21", "primary_longitude": "-66.04", "name": "Municipio Aut\u00c3\u00b3nomo de Caguas"}, {"link_title": null, "guid": "0306dad290c149ddbafeb403911c9c0f", "description": null, "fips_class": "H1", "url": "http://www.guaynabocity.gov.pr/Guaynabo/", "feature_id": "38901", "state_name": "Puerto Rico", "fips_county_cd": "61", "state_abbreviation": "PR", "full_county_name": null, "county_name": null, "feat_class": "Civil", "primary_latitude": "18.34", "primary_longitude": "-66.11", "name": "Municipio Aut\u00c3\u00b3nomo de Guaynabo"}, {"link_title": null, "guid": "61a0df543c504fc08fcb09384c3e9cba", "description": null, "fips_class": "H1", "url": "http://www.ponceweb.org/", "feature_id": "38902", "state_name": "Puerto Rico", "fips_county_cd": "113", "state_abbreviation": "PR", "full_county_name": null, "county_name": null, "feat_class": "Civil", "primary_latitude": "18.07", "primary_longitude": "-66.61", "name": "Municipio Aut\u00c3\u00b3nomo de Ponce"}, {"link_title": null, "guid": "fc05c65382e54c2d9206b8be1700fc7b", "description": null, "fips_class": "H1", "url": "http://www.cidrapr.com/", "feature_id": "38903", "state_name": "Puerto Rico", "fips_county_cd": "41", "state_abbreviation": "PR", "full_county_name": null, "county_name": null, "feat_class": "Civil", "primary_latitude": "18.17", "primary_longitude": "-66.16", "name": "Municipio de Cidra"}, {"link_title": null, "guid": "29169a8c1ab74f368c09aa7b12981f5b", "description": null, "fips_class": "H1", "url": "http://www.fajardopr.org/", "feature_id": "38904", "state_name": "Puerto Rico", "fips_county_cd": "53", "state_abbreviation": "PR", "full_county_name": null, "county_name": null, "feat_class": "Civil", "primary_latitude": "18.31", "primary_longitude": "-65.67", "name": "Municipio de Fajardo"}, {"link_title": null, "guid": "a9cb7a303cc7479e859f919ad81139d9", "description": null, "fips_class": "H1", "url": "http://www.mayaguezpr.com/", "feature_id": "38905", "state_name": "Puerto Rico", "fips_county_cd": "97", "state_abbreviation": "PR", "full_county_name": null, "county_name": null, "feat_class": "Civil", "primary_latitude": "18.2", "primary_longitude": "-67.1", "name": "Municipio de Mayag\u00c3\u00bcez"}, {"link_title": null, "guid": "09ce0fb8a7944c8aa1bc6099c99367da", "description": null, "fips_class": "H1", "url": "http://www.sanjuan.pr/", "feature_id": "38906", "state_name": "Puerto Rico", "fips_county_cd": "127", "state_abbreviation": "PR", "full_county_name": null, "county_name": null, "feat_class": "Civil", "primary_latitude": "18.39", "primary_longitude": "-66.06", "name": "Municipio de San Juan"}, {"link_title": null, "guid": "b27de0aceaec4dd88e9d6e9476cbcf5a", "description": null, "fips_class": "H1", "url": "http://www.sansebastianpr.com/", "feature_id": "38907", "state_name": "Puerto Rico", "fips_county_cd": "131", "state_abbreviation": "PR", "full_county_name": null, "county_name": null, "feat_class": "Civil", "primary_latitude": "18.32", "primary_longitude": "-66.97", "name": "Municipio de San Sebasti\u00c3\u00a1n"}, {"link_title": null, "guid": "d653b80da1e14b51804733481f15533f", "description": null, "fips_class": "H1", "url": "http://www.vegabaja.gov.pr/", "feature_id": "38908", "state_name": "Puerto Rico", "fips_county_cd": "145", "state_abbreviation": "PR", "full_county_name": null, "county_name": null, "feat_class": "Civil", "primary_latitude": "18.42", "primary_longitude": "-66.39", "name": "Municipio de Vega Baja"}]