[{"link_title": null, "guid": "f0ef4d42cdc94b1ca93e24d2d447d7ee", "description": null, "fips_class": "C1", "url": "http://www.town.ashland.va.us/", "feature_id": "33536", "state_name": "Virginia", "fips_county_cd": "85", "state_abbreviation": "VA", "full_county_name": "Hanover County", "county_name": "Hanover", "feat_class": "Populated Place", "primary_latitude": "37.75", "primary_longitude": "-77.47", "name": "Ashland"}, {"link_title": null, "guid": "22f345dc83bb413f920828830bb8b301", "description": null, "fips_class": "H1", "url": "http://www.co.accomack.va.us/", "feature_id": "39426", "state_name": "Virginia", "fips_county_cd": "1", "state_abbreviation": "VA", "full_county_name": null, "county_name": null, "feat_class": "Civil", "primary_latitude": "37.75", "primary_longitude": "-75.66", "name": "Accomack County"}, {"link_title": null, "guid": "00b1b6530eac4a92867888d81bc4d79f", "description": null, "fips_class": "C1", "url": "http://www.berryvilleva.gov", "feature_id": "33539", "state_name": "Virginia", "fips_county_cd": "43", "state_abbreviation": "VA", "full_county_name": "Clarke County", "county_name": "Clarke", "feat_class": "Populated Place", "primary_latitude": "39.15", "primary_longitude": "-77.98", "name": "Berryville"}, {"link_title": null, "guid": "2cd83beab10c4255aa47405166d64428", "description": null, "fips_class": "H1", "url": "http://www.albemarle.org/", "feature_id": "39427", "state_name": "Virginia", "fips_county_cd": "3", "state_abbreviation": "VA", "full_county_name": null, "county_name": null, "feat_class": "Civil", "primary_latitude": "38.03", "primary_longitude": "-78.54", "name": "Albemarle County"}, {"link_title": null, "guid": "dda8f694a0944d679fa7c05814b30d53", "description": null, "fips_class": "C1", "url": "http://www.bigstonegap.org/", "feature_id": "33540", "state_name": "Virginia", "fips_county_cd": "195", "state_abbreviation": "VA", "full_county_name": "Wise County", "county_name": "Wise", "feat_class": "Populated Place", "primary_latitude": "36.88", "primary_longitude": "-82.74", "name": "Big Stone Gap"}, {"link_title": null, "guid": "b9c58a6c1e3746c1800e32f2731efb3a", "description": null, "fips_class": "H1", "url": "http://www.co.alleghany.va.us/", "feature_id": "39428", "state_name": "Virginia", "fips_county_cd": "5", "state_abbreviation": "VA", "full_county_name": null, "county_name": null, "feat_class": "Civil", "primary_latitude": "37.78", "primary_longitude": "-80", "name": "Alleghany County"}, {"link_title": null, "guid": "251ab12933994bb3a165c9dc0da34ac7", "description": null, "fips_class": "C1", "url": "http://www.blacksburg.va.us/", "feature_id": "33541", "state_name": "Virginia", "fips_county_cd": "121", "state_abbreviation": "VA", "full_county_name": "Montgomery County", "county_name": "Montgomery", "feat_class": "Populated Place", "primary_latitude": "37.22", "primary_longitude": "-80.41", "name": "Blacksburg"}, {"link_title": null, "guid": "d87b7b6e4d5947b6a902be00ec224fc4", "description": null, "fips_class": "H1", "url": "http://www.ameliacova.com/", "feature_id": "39429", "state_name": "Virginia", "fips_county_cd": "7", "state_abbreviation": "VA", "full_county_name": null, "county_name": null, "feat_class": "Civil", "primary_latitude": "37.35", "primary_longitude": "-78.01", "name": "Amelia County"}, {"link_title": null, "guid": "c70e93558c944451af7026f056c0464f", "description": null, "fips_class": "H1", "url": "http://www.countyofamherst.com/", "feature_id": "39430", "state_name": "Virginia", "fips_county_cd": "9", "state_abbreviation": "VA", "full_county_name": null, "county_name": null, "feat_class": "Civil", "primary_latitude": "37.61", "primary_longitude": "-79.25", "name": "Amherst County"}, {"link_title": null, "guid": "e32c2835146443f19068aff0dbe98591", "description": null, "fips_class": "H1", "url": "http://www.appomattox.com/", "feature_id": "39431", "state_name": "Virginia", "fips_county_cd": "11", "state_abbreviation": "VA", "full_county_name": null, "county_name": null, "feat_class": "Civil", "primary_latitude": "37.36", "primary_longitude": "-78.81", "name": "Appomattox County"}, {"link_title": null, "guid": "a41630bcca644a9b8a5018ec424685fe", "description": null, "fips_class": "H1", "url": "http://www.arlingtonva.us/", "feature_id": "39432", "state_name": "Virginia", "fips_county_cd": "13", "state_abbreviation": "VA", "full_county_name": null, "county_name": null, "feat_class": "Civil", "primary_latitude": "38.86", "primary_longitude": "-77.09", "name": "Arlington County"}, {"link_title": null, "guid": "84ea3d46ea2d41a5aad2be4f8b27580c", "description": null, "fips_class": "H1", "url": "http://www.co.augusta.va.us/", "feature_id": "39433", "state_name": "Virginia", "fips_county_cd": "15", "state_abbreviation": "VA", "full_county_name": null, "county_name": null, "feat_class": "Civil", "primary_latitude": "38.16", "primary_longitude": "-79.11", "name": "Augusta County"}, {"link_title": null, "guid": "a9c50db21a59405a91555b5e7845e24a", "description": null, "fips_class": "C1", "url": "http://www.townofbowlinggreen.com/", "feature_id": "33546", "state_name": "Virginia", "fips_county_cd": "33", "state_abbreviation": "VA", "full_county_name": "Caroline County", "county_name": "Caroline", "feat_class": "Populated Place", "primary_latitude": "38.04", "primary_longitude": "-77.34", "name": "Bowling Green"}, {"link_title": null, "guid": "f4fc836dfeaa46f7aa227436920953f4", "description": null, "fips_class": "H1", "url": "http://www.bathcountyva.org/", "feature_id": "39434", "state_name": "Virginia", "fips_county_cd": "17", "state_abbreviation": "VA", "full_county_name": null, "county_name": null, "feat_class": "Civil", "primary_latitude": "38.06", "primary_longitude": "-79.73", "name": "Bath County"}, {"link_title": null, "guid": "2c1d3a5e18024be78e102d26d1cc1e4e", "description": null, "fips_class": "H1", "url": "http://www.co.bedford.va.us/", "feature_id": "39435", "state_name": "Virginia", "fips_county_cd": "19", "state_abbreviation": "VA", "full_county_name": null, "county_name": null, "feat_class": "Civil", "primary_latitude": "37.3", "primary_longitude": "-79.56", "name": "Bedford County"}, {"link_title": null, "guid": "fad7af08546e42a1868eae2e6b646107", "description": null, "fips_class": "H1", "url": "http://www.bland.org/", "feature_id": "39436", "state_name": "Virginia", "fips_county_cd": "21", "state_abbreviation": "VA", "full_county_name": null, "county_name": null, "feat_class": "Civil", "primary_latitude": "37.15", "primary_longitude": "-81.13", "name": "Bland County"}, {"link_title": null, "guid": "647b244570114e378b5d463f7c0c0832", "description": null, "fips_class": "H1", "url": "http://www.co.botetourt.va.us/", "feature_id": "39437", "state_name": "Virginia", "fips_county_cd": "23", "state_abbreviation": "VA", "full_county_name": null, "county_name": null, "feat_class": "Civil", "primary_latitude": "37.56", "primary_longitude": "-79.78", "name": "Botetourt County"}, {"link_title": null, "guid": "9f8c7e9f759644f9ba3cbf36367e2c3f", "description": null, "fips_class": "C1", "url": "http://town.bridgewater.va.us/", "feature_id": "33551", "state_name": "Virginia", "fips_county_cd": "165", "state_abbreviation": "VA", "full_county_name": "Rockingham County", "county_name": "Rockingham", "feat_class": "Populated Place", "primary_latitude": "38.38", "primary_longitude": "-78.97", "name": "Bridgewater"}, {"link_title": null, "guid": "d44e65e2c868422096a6f15d340dedf9", "description": null, "fips_class": "C7", "url": "http://www.bristolva.org/", "feature_id": "33552", "state_name": "Virginia", "fips_county_cd": "520", "state_abbreviation": "VA", "full_county_name": "Bristol (City)", "county_name": "Bristol (city)", "feat_class": "Populated Place", "primary_latitude": "36.59", "primary_longitude": "-82.18", "name": "Bristol"}, {"link_title": null, "guid": "f11803e5362c4fd19ee2e8f9e6d2a5c7", "description": null, "fips_class": "C1", "url": "http://www.town.broadway.va.us/", "feature_id": "33553", "state_name": "Virginia", "fips_county_cd": "165", "state_abbreviation": "VA", "full_county_name": "Rockingham County", "county_name": "Rockingham", "feat_class": "Populated Place", "primary_latitude": "38.61", "primary_longitude": "-78.79", "name": "Broadway"}, {"link_title": null, "guid": "27f688cb89a940c2b2c37c94e4d09c0a", "description": null, "fips_class": "H1", "url": "http://www.co.campbell.va.us/", "feature_id": "39441", "state_name": "Virginia", "fips_county_cd": "31", "state_abbreviation": "VA", "full_county_name": null, "county_name": null, "feat_class": "Civil", "primary_latitude": "37.23", "primary_longitude": "-79.09", "name": "Campbell County"}, {"link_title": null, "guid": "e4fcd18e049f43ed9bec72dddc30053e", "description": null, "fips_class": "H1", "url": "http://www.co.caroline.va.us/", "feature_id": "39442", "state_name": "Virginia", "fips_county_cd": "33", "state_abbreviation": "VA", "full_county_name": null, "county_name": null, "feat_class": "Civil", "primary_latitude": "38.03", "primary_longitude": "-77.34", "name": "Caroline County"}, {"link_title": null, "guid": "b8fbac7328c34211b2f17aeb35091f04", "description": null, "fips_class": "C7", "url": "http://www.buenavistavirginia.org/", "feature_id": "33557", "state_name": "Virginia", "fips_county_cd": "530", "state_abbreviation": "VA", "full_county_name": "Buena Vista (City)", "county_name": "Buena Vista (city)", "feat_class": "Populated Place", "primary_latitude": "37.73", "primary_longitude": "-79.35", "name": "Buena Vista"}, {"link_title": null, "guid": "312fc96717604d568f18c6c69d995e4b", "description": null, "fips_class": "H1", "url": "http://www.charlotteva.com/", "feature_id": "39445", "state_name": "Virginia", "fips_county_cd": "37", "state_abbreviation": "VA", "full_county_name": null, "county_name": null, "feat_class": "Civil", "primary_latitude": "37", "primary_longitude": "-78.68", "name": "Charlotte County"}, {"link_title": null, "guid": "b22b65b2bfe6443291cb14222dd71cee", "description": null, "fips_class": "H1", "url": "http://www.chesterfield.gov", "feature_id": "39446", "state_name": "Virginia", "fips_county_cd": "41", "state_abbreviation": "VA", "full_county_name": null, "county_name": null, "feat_class": "Civil", "primary_latitude": "37.38", "primary_longitude": "-77.59", "name": "Chesterfield County"}, {"link_title": null, "guid": "bc0181a5d6774ba9bf4bffdfd614f4f0", "description": null, "fips_class": "C1", "url": "http://capecharles.org/", "feature_id": "33559", "state_name": "Virginia", "fips_county_cd": "131", "state_abbreviation": "VA", "full_county_name": "Northampton County", "county_name": "Northampton", "feat_class": "Populated Place", "primary_latitude": "37.26", "primary_longitude": "-76.01", "name": "Cape Charles"}, {"link_title": null, "guid": "85197b66ea254422917c1dfc5e071539", "description": null, "fips_class": "H1", "url": "http://www.clarkecounty.gov", "feature_id": "39447", "state_name": "Virginia", "fips_county_cd": "43", "state_abbreviation": "VA", "full_county_name": null, "county_name": null, "feat_class": "Civil", "primary_latitude": "39.11", "primary_longitude": "-77.96", "name": "Clarke County"}, {"link_title": null, "guid": "a25571725ce949e4b28bf57a5c76a0be", "description": null, "fips_class": "H1", "url": "http://www.culpepercounty.gov/", "feature_id": "39449", "state_name": "Virginia", "fips_county_cd": "47", "state_abbreviation": "VA", "full_county_name": null, "county_name": null, "feat_class": "Civil", "primary_latitude": "38.5", "primary_longitude": "-77.96", "name": "Culpeper County"}, {"link_title": null, "guid": "fd96ae3a8ff949bc9e5f399a58d81afd", "description": null, "fips_class": "H1", "url": "http://www.cumberlandcounty.virginia.gov/", "feature_id": "39450", "state_name": "Virginia", "fips_county_cd": "49", "state_abbreviation": "VA", "full_county_name": null, "county_name": null, "feat_class": "Civil", "primary_latitude": "37.5", "primary_longitude": "-78.24", "name": "Cumberland County"}, {"link_title": null, "guid": "2025c69026ce4f30b3ce8395be0695ce", "description": null, "fips_class": "C7", "url": "http://www.charlottesville.org/", "feature_id": "33563", "state_name": "Virginia", "fips_county_cd": "540", "state_abbreviation": "VA", "full_county_name": "Charlottesville (City)", "county_name": "Charlottesville (city)", "feat_class": "Populated Place", "primary_latitude": "38.02", "primary_longitude": "-78.47", "name": "Charlottesville"}, {"link_title": null, "guid": "e97c180521fa4d78be496a59c718b142", "description": null, "fips_class": "H1", "url": "http://www.dickensonctyva.com/", "feature_id": "39451", "state_name": "Virginia", "fips_county_cd": "51", "state_abbreviation": "VA", "full_county_name": null, "county_name": null, "feat_class": "Civil", "primary_latitude": "37.13", "primary_longitude": "-82.34", "name": "Dickenson County"}, {"link_title": null, "guid": "2a8c036445884baea4dfb72f4bfdda3b", "description": null, "fips_class": "H1", "url": "http://www.dinwiddieva.us/", "feature_id": "39452", "state_name": "Virginia", "fips_county_cd": "53", "state_abbreviation": "VA", "full_county_name": null, "county_name": null, "feat_class": "Civil", "primary_latitude": "37.06", "primary_longitude": "-77.63", "name": "Dinwiddie County"}, {"link_title": null, "guid": "cfb2107e2fad47e69470554d2c33f68f", "description": null, "fips_class": "H1", "url": "http://www.fairfaxcounty.gov/", "feature_id": "39454", "state_name": "Virginia", "fips_county_cd": "59", "state_abbreviation": "VA", "full_county_name": null, "county_name": null, "feat_class": "Civil", "primary_latitude": "38.85", "primary_longitude": "-77.34", "name": "Fairfax County"}, {"link_title": null, "guid": "26723467261640ff8cdd93ea587569f6", "description": null, "fips_class": "C7", "url": "http://www.chesapeake.va.us/", "feature_id": "33567", "state_name": "Virginia", "fips_county_cd": "550", "state_abbreviation": "VA", "full_county_name": "Chesapeake (City)", "county_name": "Chesapeake (city)", "feat_class": "Populated Place", "primary_latitude": "36.81", "primary_longitude": "-76.27", "name": "Chesapeake"}, {"link_title": null, "guid": "a7ff8c1e80be4433a4f25a6eb0fada95", "description": null, "fips_class": "H1", "url": "http://www.fauquiercounty.gov/", "feature_id": "39455", "state_name": "Virginia", "fips_county_cd": "61", "state_abbreviation": "VA", "full_county_name": null, "county_name": null, "feat_class": "Civil", "primary_latitude": "38.73", "primary_longitude": "-77.81", "name": "Fauquier County"}, {"link_title": null, "guid": "d3f5f4688f0c47c6bfb9914e9560f16e", "description": null, "fips_class": "H1", "url": "http://www.fin.org/", "feature_id": "39456", "state_name": "Virginia", "fips_county_cd": "63", "state_abbreviation": "VA", "full_county_name": null, "county_name": null, "feat_class": "Civil", "primary_latitude": "36.91", "primary_longitude": "-80.39", "name": "Floyd County"}, {"link_title": null, "guid": "4454bfe133b44667a3a92a0f2aef5578", "description": null, "fips_class": "C1", "url": "http://www.chincoteague-va.gov/", "feature_id": "33569", "state_name": "Virginia", "fips_county_cd": "1", "state_abbreviation": "VA", "full_county_name": "Accomack County", "county_name": "Accomack", "feat_class": "Populated Place", "primary_latitude": "37.93", "primary_longitude": "-75.37", "name": "Chincoteague"}, {"link_title": null, "guid": "a274b95d2c0d4a259086d08bd2f810cf", "description": null, "fips_class": "H1", "url": "http://www.co.fluvanna.va.us/", "feature_id": "39457", "state_name": "Virginia", "fips_county_cd": "65", "state_abbreviation": "VA", "full_county_name": null, "county_name": null, "feat_class": "Civil", "primary_latitude": "37.85", "primary_longitude": "-78.26", "name": "Fluvanna County"}, {"link_title": null, "guid": "779516bce114415dbee9e7ac9437fa29", "description": null, "fips_class": "C1", "url": "http://www.christiansburg.org/", "feature_id": "33570", "state_name": "Virginia", "fips_county_cd": "121", "state_abbreviation": "VA", "full_county_name": "Montgomery County", "county_name": "Montgomery", "feat_class": "Populated Place", "primary_latitude": "37.12", "primary_longitude": "-80.4", "name": "Christiansburg"}, {"link_title": null, "guid": "f129c345112847ec8f7fd5fc8bcf09ce", "description": null, "fips_class": "H1", "url": "http://www.franklincountyva.org/", "feature_id": "39458", "state_name": "Virginia", "fips_county_cd": "67", "state_abbreviation": "VA", "full_county_name": null, "county_name": null, "feat_class": "Civil", "primary_latitude": "37", "primary_longitude": "-79.86", "name": "Franklin County"}, {"link_title": null, "guid": "7822485cda4a46d2851ae08dfdbdc8e1", "description": null, "fips_class": "H1", "url": "http://www.co.frederick.va.us/", "feature_id": "39459", "state_name": "Virginia", "fips_county_cd": "69", "state_abbreviation": "VA", "full_county_name": null, "county_name": null, "feat_class": "Civil", "primary_latitude": "39.21", "primary_longitude": "-78.24", "name": "Frederick County"}, {"link_title": null, "guid": "cdce9b969953438dbfcc7004b23b9d88", "description": null, "fips_class": "H1", "url": "http://www.co.gloucester.va.us/", "feature_id": "39461", "state_name": "Virginia", "fips_county_cd": "73", "state_abbreviation": "VA", "full_county_name": null, "county_name": null, "feat_class": "Civil", "primary_latitude": "37.41", "primary_longitude": "-76.54", "name": "Gloucester County"}, {"link_title": null, "guid": "626523fe81c0468ca5c1db0631f1a237", "description": null, "fips_class": "H1", "url": "http://www.co.goochland.va.us/", "feature_id": "39462", "state_name": "Virginia", "fips_county_cd": "75", "state_abbreviation": "VA", "full_county_name": null, "county_name": null, "feat_class": "Civil", "primary_latitude": "37.73", "primary_longitude": "-77.91", "name": "Goochland County"}, {"link_title": null, "guid": "260d0f6e380542499db9ab94dfa3ec64", "description": null, "fips_class": "C1", "url": "http://www.cliftonforge.org/", "feature_id": "33575", "state_name": "Virginia", "fips_county_cd": "5", "state_abbreviation": "VA", "full_county_name": "Alleghany County", "county_name": "Alleghany", "feat_class": "Populated Place", "primary_latitude": "37.81", "primary_longitude": "-79.82", "name": "Clifton Forge"}, {"link_title": null, "guid": "bfb58b5b0e9748e0ac126b1d8ceadf59", "description": null, "fips_class": "H1", "url": "http://www.gcva.us/", "feature_id": "39464", "state_name": "Virginia", "fips_county_cd": "79", "state_abbreviation": "VA", "full_county_name": null, "county_name": null, "feat_class": "Civil", "primary_latitude": "38.3", "primary_longitude": "-78.46", "name": "Greene County"}, {"link_title": null, "guid": "0a9903ccb99a451b9a3f16d1a37520c9", "description": null, "fips_class": "H1", "url": "http://www.greensvillecountyva.gov/", "feature_id": "39465", "state_name": "Virginia", "fips_county_cd": "81", "state_abbreviation": "VA", "full_county_name": null, "county_name": null, "feat_class": "Civil", "primary_latitude": "36.68", "primary_longitude": "-77.56", "name": "Greensville County"}, {"link_title": null, "guid": "9e7f008390a9403caa3f495df100f0f1", "description": null, "fips_class": "H1", "url": "http://www.co.hanover.va.us/", "feature_id": "39467", "state_name": "Virginia", "fips_county_cd": "85", "state_abbreviation": "VA", "full_county_name": null, "county_name": null, "feat_class": "Civil", "primary_latitude": "37.75", "primary_longitude": "-77.48", "name": "Hanover County"}, {"link_title": null, "guid": "682b9084124a4642aad0029a02acdf73", "description": null, "fips_class": "H1", "url": "http://www.co.henrico.va.us/", "feature_id": "39468", "state_name": "Virginia", "fips_county_cd": "87", "state_abbreviation": "VA", "full_county_name": null, "county_name": null, "feat_class": "Civil", "primary_latitude": "37.55", "primary_longitude": "-77.36", "name": "Henrico County"}, {"link_title": null, "guid": "61c3afcb9dcb4106bb515fc6f9bd3dc2", "description": null, "fips_class": "C7", "url": "http://www.colonial-heights.com/", "feature_id": "33581", "state_name": "Virginia", "fips_county_cd": "570", "state_abbreviation": "VA", "full_county_name": "Colonial Heights (City)", "county_name": "Colonial Heights (city)", "feat_class": "Populated Place", "primary_latitude": "37.24", "primary_longitude": "-77.41", "name": "Colonial Heights"}, {"link_title": null, "guid": "07c25033ae31470ca4d98e794d3ecc03", "description": null, "fips_class": "H1", "url": "http://www.henrycountyva.gov", "feature_id": "39469", "state_name": "Virginia", "fips_county_cd": "89", "state_abbreviation": "VA", "full_county_name": null, "county_name": null, "feat_class": "Civil", "primary_latitude": "36.66", "primary_longitude": "-79.88", "name": "Henry County"}, {"link_title": null, "guid": "5d27aa2b03e847b79832bc26c582e8b6", "description": null, "fips_class": "H1", "url": "http://www.highlandcova.org/", "feature_id": "39470", "state_name": "Virginia", "fips_county_cd": "91", "state_abbreviation": "VA", "full_county_name": null, "county_name": null, "feat_class": "Civil", "primary_latitude": "38.36", "primary_longitude": "-79.36", "name": "Highland County"}, {"link_title": null, "guid": "1f1c66e648a04b4bbecccd43be44b2fa", "description": null, "fips_class": "H1", "url": "http://www.co.isle-of-wight.va.us/", "feature_id": "39471", "state_name": "Virginia", "fips_county_cd": "93", "state_abbreviation": "VA", "full_county_name": null, "county_name": null, "feat_class": "Civil", "primary_latitude": "36.88", "primary_longitude": "-76.69", "name": "Isle of Wight County"}, {"link_title": null, "guid": "27e6cd7c8382420b836210be981ac62a", "description": null, "fips_class": "C7", "url": "http://www.covington.va.us/", "feature_id": "33584", "state_name": "Virginia", "fips_county_cd": "580", "state_abbreviation": "VA", "full_county_name": "Covington (City)", "county_name": "Covington (city)", "feat_class": "Populated Place", "primary_latitude": "37.79", "primary_longitude": "-79.99", "name": "Covington"}, {"link_title": null, "guid": "09da00e78cfc47489688de623cfa095b", "description": null, "fips_class": "H1", "url": "http://www.jccegov.com", "feature_id": "39472", "state_name": "Virginia", "fips_county_cd": "95", "state_abbreviation": "VA", "full_county_name": null, "county_name": null, "feat_class": "Civil", "primary_latitude": "37.3", "primary_longitude": "-76.76", "name": "James City County"}, {"link_title": null, "guid": "dfbcf502f6c94df98d5a1344672e5f80", "description": null, "fips_class": "H1", "url": "http://www.king-george.va.us/", "feature_id": "39474", "state_name": "Virginia", "fips_county_cd": "99", "state_abbreviation": "VA", "full_county_name": null, "county_name": null, "feat_class": "Civil", "primary_latitude": "38.26", "primary_longitude": "-77.14", "name": "King George County"}, {"link_title": null, "guid": "cf30cac34081493bb0ad7ff8f4ff6b3c", "description": null, "fips_class": "C1", "url": "http://www.culpeper.to/", "feature_id": "33587", "state_name": "Virginia", "fips_county_cd": "47", "state_abbreviation": "VA", "full_county_name": "Culpeper County", "county_name": "Culpeper", "feat_class": "Populated Place", "primary_latitude": "38.47", "primary_longitude": "-77.99", "name": "Culpeper"}, {"link_title": null, "guid": "b2cdf5585978413db93ecf356b7d1612", "description": null, "fips_class": "H1", "url": "http://www.kingwilliamcounty.us/", "feature_id": "39475", "state_name": "Virginia", "fips_county_cd": "101", "state_abbreviation": "VA", "full_county_name": null, "county_name": null, "feat_class": "Civil", "primary_latitude": "37.68", "primary_longitude": "-77.08", "name": "King William County"}, {"link_title": null, "guid": "67803d42495547c2a5f64e4ae94fe69d", "description": null, "fips_class": "C1", "url": "http://www.damascus.org/", "feature_id": "33588", "state_name": "Virginia", "fips_county_cd": "191", "state_abbreviation": "VA", "full_county_name": "Washington County", "county_name": "Washington", "feat_class": "Populated Place", "primary_latitude": "36.63", "primary_longitude": "-81.78", "name": "Damascus"}, {"link_title": null, "guid": "88653d6fba294f38a347447b4c9084ed", "description": null, "fips_class": "H1", "url": "http://www.lancova.com/", "feature_id": "39476", "state_name": "Virginia", "fips_county_cd": "103", "state_abbreviation": "VA", "full_county_name": null, "county_name": null, "feat_class": "Civil", "primary_latitude": "37.73", "primary_longitude": "-76.43", "name": "Lancaster County"}, {"link_title": null, "guid": "9b97c54d0c0b45ee92b5ffa71b485878", "description": null, "fips_class": "C7", "url": "http://www.danville-va.gov/", "feature_id": "33589", "state_name": "Virginia", "fips_county_cd": "590", "state_abbreviation": "VA", "full_county_name": "Danville (City)", "county_name": "Danville (city)", "feat_class": "Populated Place", "primary_latitude": "36.58", "primary_longitude": "-79.39", "name": "Danville"}, {"link_title": null, "guid": "08ccc7ae78a545f5a706cacaea1c8df6", "description": null, "fips_class": "C1", "url": "http://www.daytonva.us/", "feature_id": "33590", "state_name": "Virginia", "fips_county_cd": "165", "state_abbreviation": "VA", "full_county_name": "Rockingham County", "county_name": "Rockingham", "feat_class": "Populated Place", "primary_latitude": "38.41", "primary_longitude": "-78.93", "name": "Dayton"}, {"link_title": null, "guid": "3fdf817b6ded49cd9b48557c8ee96db8", "description": null, "fips_class": "H1", "url": "http://www.loudoun.gov/", "feature_id": "39478", "state_name": "Virginia", "fips_county_cd": "107", "state_abbreviation": "VA", "full_county_name": null, "county_name": null, "feat_class": "Civil", "primary_latitude": "39.08", "primary_longitude": "-77.64", "name": "Loudoun County"}, {"link_title": null, "guid": "8dc8533f968e4c4884aa6d6de80ffef1", "description": null, "fips_class": "H1", "url": "http://www.louisacounty.com/", "feature_id": "39479", "state_name": "Virginia", "fips_county_cd": "109", "state_abbreviation": "VA", "full_county_name": null, "county_name": null, "feat_class": "Civil", "primary_latitude": "37.98", "primary_longitude": "-77.96", "name": "Louisa County"}, {"link_title": null, "guid": "bafe209add84414384e01924380ec1fa", "description": null, "fips_class": "C1", "url": "http://www.dublintown.org/", "feature_id": "33594", "state_name": "Virginia", "fips_county_cd": "155", "state_abbreviation": "VA", "full_county_name": "Pulaski County", "county_name": "Pulaski", "feat_class": "Populated Place", "primary_latitude": "37.1", "primary_longitude": "-80.68", "name": "Dublin"}, {"link_title": null, "guid": "4c175abfab3d4da495c57d259cdaf073", "description": null, "fips_class": "H1", "url": "http://www.co.mathews.va.us/", "feature_id": "39482", "state_name": "Virginia", "fips_county_cd": "115", "state_abbreviation": "VA", "full_county_name": null, "county_name": null, "feat_class": "Civil", "primary_latitude": "37.43", "primary_longitude": "-76.36", "name": "Mathews County"}, {"link_title": null, "guid": "2537e1d1dd5148008473a7da94a924d8", "description": null, "fips_class": "H1", "url": "http://www.co.middlesex.va.us/", "feature_id": "39484", "state_name": "Virginia", "fips_county_cd": "119", "state_abbreviation": "VA", "full_county_name": null, "county_name": null, "feat_class": "Civil", "primary_latitude": "37.6", "primary_longitude": "-76.56", "name": "Middlesex County"}, {"link_title": null, "guid": "8e4a899be38645c9bd6df2344b73492d", "description": null, "fips_class": "H1", "url": "http://www.montva.com/", "feature_id": "39485", "state_name": "Virginia", "fips_county_cd": "121", "state_abbreviation": "VA", "full_county_name": null, "county_name": null, "feat_class": "Civil", "primary_latitude": "37.16", "primary_longitude": "-80.38", "name": "Montgomery County"}, {"link_title": null, "guid": "66516d5e16ce4774a707b3bb6d21dc51", "description": null, "fips_class": "H1", "url": "http://www.nelsoncounty.com/", "feature_id": "39486", "state_name": "Virginia", "fips_county_cd": "125", "state_abbreviation": "VA", "full_county_name": null, "county_name": null, "feat_class": "Civil", "primary_latitude": "37.78", "primary_longitude": "-78.78", "name": "Nelson County"}, {"link_title": null, "guid": "25d7fceebbb64d018af4cea046035717", "description": null, "fips_class": "H1", "url": "http://www.co.new-kent.va.us/", "feature_id": "39487", "state_name": "Virginia", "fips_county_cd": "127", "state_abbreviation": "VA", "full_county_name": null, "county_name": null, "feat_class": "Civil", "primary_latitude": "37.48", "primary_longitude": "-76.99", "name": "New Kent County"}, {"link_title": null, "guid": "9414d37f003a48b095c409fdbbf11b51", "description": null, "fips_class": "H1", "url": "http://www.co.northampton.va.us/", "feature_id": "39488", "state_name": "Virginia", "fips_county_cd": "131", "state_abbreviation": "VA", "full_county_name": null, "county_name": null, "feat_class": "Civil", "primary_latitude": "37.35", "primary_longitude": "-75.93", "name": "Northampton County"}, {"link_title": null, "guid": "32676fb007364e1689ab385eaddb928e", "description": null, "fips_class": "C7", "url": "http://www.ci.emporia.va.us/", "feature_id": "33601", "state_name": "Virginia", "fips_county_cd": "595", "state_abbreviation": "VA", "full_county_name": "Emporia (City)", "county_name": "Emporia (city)", "feat_class": "Populated Place", "primary_latitude": "36.68", "primary_longitude": "-77.54", "name": "Emporia"}, {"link_title": null, "guid": "ef62f9097bc341bf874e0e5eaec8d98d", "description": null, "fips_class": "H1", "url": "http://www.co.northumberland.va.us/", "feature_id": "39489", "state_name": "Virginia", "fips_county_cd": "133", "state_abbreviation": "VA", "full_county_name": null, "county_name": null, "feat_class": "Civil", "primary_latitude": "37.88", "primary_longitude": "-76.41", "name": "Northumberland County"}, {"link_title": null, "guid": "7ab53dc004fd43038393fc452edf86c6", "description": null, "fips_class": "H1", "url": "http://www.nottoway.org/", "feature_id": "39490", "state_name": "Virginia", "fips_county_cd": "135", "state_abbreviation": "VA", "full_county_name": null, "county_name": null, "feat_class": "Civil", "primary_latitude": "37.13", "primary_longitude": "-78.06", "name": "Nottoway County"}, {"link_title": null, "guid": "452d532187a840e981ea1ed7def32487", "description": null, "fips_class": "C7", "url": "http://www.fairfaxva.gov", "feature_id": "33603", "state_name": "Virginia", "fips_county_cd": "600", "state_abbreviation": "VA", "full_county_name": "Fairfax (City)", "county_name": "Fairfax (city)", "feat_class": "Populated Place", "primary_latitude": "38.84", "primary_longitude": "-77.3", "name": "Fairfax"}, {"link_title": null, "guid": "480353c56e4a43f49a3f483ea7f5614a", "description": null, "fips_class": "H1", "url": "http://www.orangecova.com/", "feature_id": "39491", "state_name": "Virginia", "fips_county_cd": "137", "state_abbreviation": "VA", "full_county_name": null, "county_name": null, "feat_class": "Civil", "primary_latitude": "38.25", "primary_longitude": "-78.03", "name": "Orange County"}, {"link_title": null, "guid": "a4b50093997a43248f71451c849bb1ec", "description": null, "fips_class": "C7", "url": "http://www.fallschurchva.gov/", "feature_id": "33604", "state_name": "Virginia", "fips_county_cd": "610", "state_abbreviation": "VA", "full_county_name": "Falls Church (City)", "county_name": "Falls Church (city)", "feat_class": "Populated Place", "primary_latitude": "38.88", "primary_longitude": "-77.17", "name": "Falls Church"}, {"link_title": null, "guid": "157da517371c45f68582e04d3e7c3d29", "description": null, "fips_class": "H1", "url": "http://pagecounty.virginia.gov/", "feature_id": "39492", "state_name": "Virginia", "fips_county_cd": "139", "state_abbreviation": "VA", "full_county_name": null, "county_name": null, "feat_class": "Civil", "primary_latitude": "38.63", "primary_longitude": "-78.46", "name": "Page County"}, {"link_title": null, "guid": "95d4306c0a354cffa265792dddbb1664", "description": null, "fips_class": "C1", "url": "http://www.farmvilleva.com/", "feature_id": "33605", "state_name": "Virginia", "fips_county_cd": "147", "state_abbreviation": "VA", "full_county_name": "Prince Edward County", "county_name": "Prince Edward", "feat_class": "Populated Place", "primary_latitude": "37.3", "primary_longitude": "-78.39", "name": "Farmville"}, {"link_title": null, "guid": "abf9e92897c04526a93036db70b6cc76", "description": null, "fips_class": "H1", "url": "http://www.co.patrick.va.us/", "feature_id": "39493", "state_name": "Virginia", "fips_county_cd": "141", "state_abbreviation": "VA", "full_county_name": null, "county_name": null, "feat_class": "Civil", "primary_latitude": "36.66", "primary_longitude": "-80.28", "name": "Patrick County"}, {"link_title": null, "guid": "a3f05088a08645c59aa7d45397b21240", "description": null, "fips_class": "H1", "url": "http://www.pittgov.org/", "feature_id": "39494", "state_name": "Virginia", "fips_county_cd": "143", "state_abbreviation": "VA", "full_county_name": null, "county_name": null, "feat_class": "Civil", "primary_latitude": "36.81", "primary_longitude": "-79.39", "name": "Pittsylvania County"}, {"link_title": null, "guid": "6f716fb704104dbaab581fa758eec36d", "description": null, "fips_class": "H1", "url": "http://www.powhatanva.gov/", "feature_id": "39495", "state_name": "Virginia", "fips_county_cd": "145", "state_abbreviation": "VA", "full_county_name": null, "county_name": null, "feat_class": "Civil", "primary_latitude": "37.56", "primary_longitude": "-77.91", "name": "Powhatan County"}, {"link_title": null, "guid": "b9bcd9bb16a84f298f2ac845eb2040a4", "description": null, "fips_class": "H1", "url": "http://www.co.prince-edward.va.us/", "feature_id": "39496", "state_name": "Virginia", "fips_county_cd": "147", "state_abbreviation": "VA", "full_county_name": null, "county_name": null, "feat_class": "Civil", "primary_latitude": "37.2", "primary_longitude": "-78.44", "name": "Prince Edward County"}, {"link_title": null, "guid": "30728352b09f44658618113071eb4e5f", "description": null, "fips_class": "C7", "url": "http://www.fredericksburgva.gov/", "feature_id": "33609", "state_name": "Virginia", "fips_county_cd": "630", "state_abbreviation": "VA", "full_county_name": "Fredericksburg (City)", "county_name": "Fredericksburg (city)", "feat_class": "Populated Place", "primary_latitude": "38.3", "primary_longitude": "-77.46", "name": "Fredericksburg"}, {"link_title": null, "guid": "7071c952717c4dbbb2808df1f4fd3412", "description": null, "fips_class": "H1", "url": "http://www.princegeorgeva.org/", "feature_id": "39497", "state_name": "Virginia", "fips_county_cd": "149", "state_abbreviation": "VA", "full_county_name": null, "county_name": null, "feat_class": "Civil", "primary_latitude": "37.2", "primary_longitude": "-77.23", "name": "Prince George County"}, {"link_title": null, "guid": "6c4e3f70096d4e3a8fe5af742051d56b", "description": null, "fips_class": "H1", "url": "http://www.pwcgov.org/", "feature_id": "39498", "state_name": "Virginia", "fips_county_cd": "153", "state_abbreviation": "VA", "full_county_name": null, "county_name": null, "feat_class": "Civil", "primary_latitude": "38.7", "primary_longitude": "-77.48", "name": "Prince William County"}, {"link_title": null, "guid": "c11017c2c3454224af5a16da5ab6b876", "description": null, "fips_class": "H1", "url": "http://www.pulaskicounty.org/", "feature_id": "39499", "state_name": "Virginia", "fips_county_cd": "155", "state_abbreviation": "VA", "full_county_name": null, "county_name": null, "feat_class": "Civil", "primary_latitude": "37.06", "primary_longitude": "-80.71", "name": "Pulaski County"}, {"link_title": null, "guid": "fae67204cd3e4223991b8651ec54f7bb", "description": null, "fips_class": "H1", "url": "http://www.co.richmond.va.us/", "feature_id": "39501", "state_name": "Virginia", "fips_county_cd": "159", "state_abbreviation": "VA", "full_county_name": null, "county_name": null, "feat_class": "Civil", "primary_latitude": "37.95", "primary_longitude": "-76.73", "name": "Richmond County"}, {"link_title": null, "guid": "9fb31aeff0ff4239bb26b8cf3ffcf400", "description": null, "fips_class": "H1", "url": "http://www.roanokecountyva.gov/", "feature_id": "39502", "state_name": "Virginia", "fips_county_cd": "161", "state_abbreviation": "VA", "full_county_name": null, "county_name": null, "feat_class": "Civil", "primary_latitude": "37.28", "primary_longitude": "-80.04", "name": "Roanoke County"}, {"link_title": null, "guid": "3ed1c92cde7347d3aaf3527ffe3edca4", "description": null, "fips_class": "H1", "url": "http://www.co.rockbridge.va.us/", "feature_id": "39503", "state_name": "Virginia", "fips_county_cd": "163", "state_abbreviation": "VA", "full_county_name": null, "county_name": null, "feat_class": "Civil", "primary_latitude": "37.8", "primary_longitude": "-79.43", "name": "Rockbridge County"}, {"link_title": null, "guid": "604ca125372e478ca44e01a22c10771c", "description": null, "fips_class": "H1", "url": "http://www.rockinghamcountyva.gov/", "feature_id": "39504", "state_name": "Virginia", "fips_county_cd": "165", "state_abbreviation": "VA", "full_county_name": null, "county_name": null, "feat_class": "Civil", "primary_latitude": "38.51", "primary_longitude": "-78.88", "name": "Rockingham County"}, {"link_title": null, "guid": "591298eca2734c63868bd956be813f6d", "description": null, "fips_class": "H1", "url": "http://www.scottcountyva.com/", "feature_id": "39506", "state_name": "Virginia", "fips_county_cd": "169", "state_abbreviation": "VA", "full_county_name": null, "county_name": null, "feat_class": "Civil", "primary_latitude": "36.7", "primary_longitude": "-82.58", "name": "Scott County"}, {"link_title": null, "guid": "d3fe0b84157041d3b2a9cc76a240ca73", "description": null, "fips_class": "H1", "url": "http://www.shenandoahcountyva.us/", "feature_id": "39507", "state_name": "Virginia", "fips_county_cd": "171", "state_abbreviation": "VA", "full_county_name": null, "county_name": null, "feat_class": "Civil", "primary_latitude": "38.86", "primary_longitude": "-78.59", "name": "Shenandoah County"}, {"link_title": null, "guid": "4389b015bf6e40139d68697d7b19f890", "description": null, "fips_class": "C1", "url": "http://www.ci.grottoes.va.us/", "feature_id": "33620", "state_name": "Virginia", "fips_county_cd": "165", "state_abbreviation": "VA", "full_county_name": "Rockingham County", "county_name": "Rockingham", "feat_class": "Populated Place", "primary_latitude": "38.26", "primary_longitude": "-78.82", "name": "Grottoes"}, {"link_title": null, "guid": "8a656d8e357840d9ad1eed4fd6ed43f8", "description": null, "fips_class": "H1", "url": "http://www.smythcounty.org/", "feature_id": "39508", "state_name": "Virginia", "fips_county_cd": "173", "state_abbreviation": "VA", "full_county_name": null, "county_name": null, "feat_class": "Civil", "primary_latitude": "36.85", "primary_longitude": "-81.51", "name": "Smyth County"}, {"link_title": null, "guid": "2359758b5b934407b9e6bf006775e440", "description": null, "fips_class": "H1", "url": "http://www.southamptoncounty.org/", "feature_id": "39509", "state_name": "Virginia", "fips_county_cd": "175", "state_abbreviation": "VA", "full_county_name": null, "county_name": null, "feat_class": "Civil", "primary_latitude": "36.73", "primary_longitude": "-77.09", "name": "Southampton County"}, {"link_title": null, "guid": "b43a3b58d32c42d88b08138e15505ea2", "description": null, "fips_class": "H1", "url": "http://www.spotsylvania.va.us/", "feature_id": "39510", "state_name": "Virginia", "fips_county_cd": "177", "state_abbreviation": "VA", "full_county_name": null, "county_name": null, "feat_class": "Civil", "primary_latitude": "38.18", "primary_longitude": "-77.64", "name": "Spotsylvania County"}, {"link_title": null, "guid": "6f6baadd333542caa4d14dda5ef30076", "description": null, "fips_class": "H1", "url": "http://www.co.stafford.va.us/", "feature_id": "39511", "state_name": "Virginia", "fips_county_cd": "179", "state_abbreviation": "VA", "full_county_name": null, "county_name": null, "feat_class": "Civil", "primary_latitude": "38.41", "primary_longitude": "-77.46", "name": "Stafford County"}, {"link_title": null, "guid": "904de2cade3145638a0cb833ca9db875", "description": null, "fips_class": "C7", "url": "http://www.hampton.va.us/", "feature_id": "33625", "state_name": "Virginia", "fips_county_cd": "650", "state_abbreviation": "VA", "full_county_name": "Hampton (City)", "county_name": "Hampton (city)", "feat_class": "Populated Place", "primary_latitude": "37.02", "primary_longitude": "-76.34", "name": "Hampton"}, {"link_title": null, "guid": "762b13c205d1424aad215df447f0ced1", "description": null, "fips_class": "C7", "url": "http://www.harrisonburgva.gov/", "feature_id": "33626", "state_name": "Virginia", "fips_county_cd": "660", "state_abbreviation": "VA", "full_county_name": "Harrisonburg (City)", "county_name": "Harrisonburg (city)", "feat_class": "Populated Place", "primary_latitude": "38.44", "primary_longitude": "-78.86", "name": "Harrisonburg"}, {"link_title": null, "guid": "217c3c64ee004ceabb305f3c34bd4f3a", "description": null, "fips_class": "H1", "url": "http://www.warrencountyva.net/", "feature_id": "39515", "state_name": "Virginia", "fips_county_cd": "187", "state_abbreviation": "VA", "full_county_name": null, "county_name": null, "feat_class": "Civil", "primary_latitude": "38.93", "primary_longitude": "-78.18", "name": "Warren County"}, {"link_title": null, "guid": "da7673d9122f4473864de6a9d2caf1cc", "description": null, "fips_class": "H1", "url": "http://www.washcova.com/", "feature_id": "39516", "state_name": "Virginia", "fips_county_cd": "191", "state_abbreviation": "VA", "full_county_name": null, "county_name": null, "feat_class": "Civil", "primary_latitude": "36.71", "primary_longitude": "-81.96", "name": "Washington County"}, {"link_title": null, "guid": "20a6812d4d314ca080abefd1a85d6342", "description": null, "fips_class": "C1", "url": "http://www.herndon-va.gov/", "feature_id": "33629", "state_name": "Virginia", "fips_county_cd": "59", "state_abbreviation": "VA", "full_county_name": "Fairfax County", "county_name": "Fairfax", "feat_class": "Populated Place", "primary_latitude": "38.96", "primary_longitude": "-77.38", "name": "Herndon"}, {"link_title": null, "guid": "99a7504c55eb410c88fb309b985d7585", "description": null, "fips_class": "H1", "url": "http://www.wisecounty.org/", "feature_id": "39518", "state_name": "Virginia", "fips_county_cd": "195", "state_abbreviation": "VA", "full_county_name": null, "county_name": null, "feat_class": "Civil", "primary_latitude": "36.96", "primary_longitude": "-82.59", "name": "Wise County"}, {"link_title": null, "guid": "a309bea574e249939053061b9517b4a2", "description": null, "fips_class": "H1", "url": "http://www.yorkcounty.gov/", "feature_id": "39520", "state_name": "Virginia", "fips_county_cd": "199", "state_abbreviation": "VA", "full_county_name": null, "county_name": null, "feat_class": "Civil", "primary_latitude": "37.23", "primary_longitude": "-76.54", "name": "York County"}, {"link_title": null, "guid": "1eee84cbaf234d7ca8f9e1f6d2b9284f", "description": null, "fips_class": "C7", "url": "http://www.hopewellva.gov/", "feature_id": "33633", "state_name": "Virginia", "fips_county_cd": "670", "state_abbreviation": "VA", "full_county_name": "Hopewell (City)", "county_name": "Hopewell (city)", "feat_class": "Populated Place", "primary_latitude": "37.3", "primary_longitude": "-77.28", "name": "Hopewell"}, {"link_title": null, "guid": "247e9f672a0440abab323b6101d4d35b", "description": null, "fips_class": "C1", "url": "http://www.townoflacrosse.org/", "feature_id": "33647", "state_name": "Virginia", "fips_county_cd": "117", "state_abbreviation": "VA", "full_county_name": "Mecklenburg County", "county_name": "Mecklenburg", "feat_class": "Populated Place", "primary_latitude": "36.7", "primary_longitude": "-78.09", "name": "La Crosse"}, {"link_title": null, "guid": "2d3a5dbb98634b92ae6a802cd8ffa5f2", "description": null, "fips_class": "C1", "url": "http://www.leesburgva.gov/", "feature_id": "33650", "state_name": "Virginia", "fips_county_cd": "107", "state_abbreviation": "VA", "full_county_name": "Loudoun County", "county_name": "Loudoun", "feat_class": "Populated Place", "primary_latitude": "39.11", "primary_longitude": "-77.56", "name": "Leesburg"}, {"link_title": null, "guid": "11e4eb48fc7244e0b9fd42e3482463f7", "description": null, "fips_class": "C7", "url": "http://www.ci.lexington.va.us/", "feature_id": "33651", "state_name": "Virginia", "fips_county_cd": "678", "state_abbreviation": "VA", "full_county_name": "Lexington (City)", "county_name": "Lexington (city)", "feat_class": "Populated Place", "primary_latitude": "37.78", "primary_longitude": "-79.44", "name": "Lexington"}, {"link_title": null, "guid": "bc80f04884af4c8f87aa02365abf5012", "description": null, "fips_class": "C1", "url": "http://louisatown.org/", "feature_id": "33652", "state_name": "Virginia", "fips_county_cd": "109", "state_abbreviation": "VA", "full_county_name": "Louisa County", "county_name": "Louisa", "feat_class": "Populated Place", "primary_latitude": "38.02", "primary_longitude": "-78", "name": "Louisa"}, {"link_title": null, "guid": "714c0b9c2e7f4858b5d2ccea4f8b6542", "description": null, "fips_class": "C1", "url": "http://www.townofluray.com/", "feature_id": "33654", "state_name": "Virginia", "fips_county_cd": "139", "state_abbreviation": "VA", "full_county_name": "Page County", "county_name": "Page", "feat_class": "Populated Place", "primary_latitude": "38.66", "primary_longitude": "-78.45", "name": "Luray"}, {"link_title": null, "guid": "3b75547d28b644faa63ca51383f17714", "description": null, "fips_class": "C7", "url": "http://www.lynchburgva.gov/", "feature_id": "33655", "state_name": "Virginia", "fips_county_cd": "680", "state_abbreviation": "VA", "full_county_name": "Lynchburg (City)", "county_name": "Lynchburg (city)", "feat_class": "Populated Place", "primary_latitude": "37.41", "primary_longitude": "-79.14", "name": "Lynchburg"}, {"link_title": null, "guid": "811e68ed995b44259bd4ea2efc82a44d", "description": null, "fips_class": "C7", "url": "http://www.manassascity.org/", "feature_id": "33657", "state_name": "Virginia", "fips_county_cd": "683", "state_abbreviation": "VA", "full_county_name": "Manassas (City)", "county_name": "Manassas (city)", "feat_class": "Populated Place", "primary_latitude": "38.75", "primary_longitude": "-77.47", "name": "Manassas"}, {"link_title": null, "guid": "108249aea08c42b9ad64ddb5280a9e30", "description": null, "fips_class": "C7", "url": "http://www.cityofmanassaspark.us/", "feature_id": "33658", "state_name": "Virginia", "fips_county_cd": "685", "state_abbreviation": "VA", "full_county_name": "Manassas Park (City)", "county_name": "Manassas Park (city)", "feat_class": "Populated Place", "primary_latitude": "38.78", "primary_longitude": "-77.46", "name": "Manassas Park"}, {"link_title": null, "guid": "4fbe855e12804687820cba1269d83e67", "description": null, "fips_class": "C1", "url": "http://www.marionva.org/", "feature_id": "33659", "state_name": "Virginia", "fips_county_cd": "173", "state_abbreviation": "VA", "full_county_name": "Smyth County", "county_name": "Smyth", "feat_class": "Populated Place", "primary_latitude": "36.83", "primary_longitude": "-81.51", "name": "Marion"}, {"link_title": null, "guid": "e807458e26fa46728e07e2f72ea7fa02", "description": null, "fips_class": "C7", "url": "http://www.ci.martinsville.va.us/", "feature_id": "33660", "state_name": "Virginia", "fips_county_cd": "690", "state_abbreviation": "VA", "full_county_name": "Martinsville (City)", "county_name": "Martinsville (city)", "feat_class": "Populated Place", "primary_latitude": "36.69", "primary_longitude": "-79.87", "name": "Martinsville"}, {"link_title": null, "guid": "2a62ee7fb6544f2db972f993f9c539fe", "description": null, "fips_class": "C1", "url": "http://www.middleburg.org/", "feature_id": "33663", "state_name": "Virginia", "fips_county_cd": "107", "state_abbreviation": "VA", "full_county_name": "Loudoun County", "county_name": "Loudoun", "feat_class": "Populated Place", "primary_latitude": "38.96", "primary_longitude": "-77.73", "name": "Middleburg"}, {"link_title": null, "guid": "f85084caa9e94a60a4abf25d3fafee96", "description": null, "fips_class": "C1", "url": "http://mountjackson.com/", "feature_id": "33669", "state_name": "Virginia", "fips_county_cd": "171", "state_abbreviation": "VA", "full_county_name": "Shenandoah County", "county_name": "Shenandoah", "feat_class": "Populated Place", "primary_latitude": "38.74", "primary_longitude": "-78.64", "name": "Mount Jackson"}, {"link_title": null, "guid": "ac508012ffa84cd88412b4754ecf3c43", "description": null, "fips_class": "C1", "url": "http://www.newmarketvirginia.com/", "feature_id": "33673", "state_name": "Virginia", "fips_county_cd": "171", "state_abbreviation": "VA", "full_county_name": "Shenandoah County", "county_name": "Shenandoah", "feat_class": "Populated Place", "primary_latitude": "38.64", "primary_longitude": "-78.67", "name": "New Market"}, {"link_title": null, "guid": "567a7c07792a4163b8dd7875bb144ec7", "description": null, "fips_class": "C7", "url": "http://www.nngov.com/", "feature_id": "33674", "state_name": "Virginia", "fips_county_cd": "700", "state_abbreviation": "VA", "full_county_name": "Newport News (City)", "county_name": "Newport News (city)", "feat_class": "Populated Place", "primary_latitude": "36.97", "primary_longitude": "-76.42", "name": "Newport News"}, {"link_title": null, "guid": "08a590c9d77a4b6cb776c8deaea561b6", "description": null, "fips_class": "C7", "url": "http://www.norfolk.gov/", "feature_id": "33677", "state_name": "Virginia", "fips_county_cd": "710", "state_abbreviation": "VA", "full_county_name": "Norfolk (City)", "county_name": "Norfolk (city)", "feat_class": "Populated Place", "primary_latitude": "36.84", "primary_longitude": "-76.28", "name": "Norfolk"}, {"link_title": null, "guid": "11a8f104bb714f4b818b88623887333e", "description": null, "fips_class": "C7", "url": "http://www.nortonva.org/", "feature_id": "33679", "state_name": "Virginia", "fips_county_cd": "720", "state_abbreviation": "VA", "full_county_name": "Norton (City)", "county_name": "Norton (city)", "feat_class": "Populated Place", "primary_latitude": "36.93", "primary_longitude": "-82.62", "name": "Norton"}, {"link_title": null, "guid": "e5e00d7101d24c4b9546305ae1c4ffa5", "description": null, "fips_class": "C1", "url": "http://www.townoforangeva.org/", "feature_id": "33683", "state_name": "Virginia", "fips_county_cd": "137", "state_abbreviation": "VA", "full_county_name": "Orange County", "county_name": "Orange", "feat_class": "Populated Place", "primary_latitude": "38.24", "primary_longitude": "-78.11", "name": "Orange"}, {"link_title": null, "guid": "b08c021444254d9e8abf364fac2b8605", "description": null, "fips_class": "C1", "url": "http://www.pearisburg.org/", "feature_id": "33687", "state_name": "Virginia", "fips_county_cd": "71", "state_abbreviation": "VA", "full_county_name": "Giles County", "county_name": "Giles", "feat_class": "Populated Place", "primary_latitude": "37.32", "primary_longitude": "-80.73", "name": "Pearisburg"}, {"link_title": null, "guid": "d228897a19264adeb2ec098f8ae1613b", "description": null, "fips_class": "C7", "url": "http://www.petersburg-va.org/", "feature_id": "33690", "state_name": "Virginia", "fips_county_cd": "730", "state_abbreviation": "VA", "full_county_name": "Petersburg (City)", "county_name": "Petersburg (city)", "feat_class": "Populated Place", "primary_latitude": "37.22", "primary_longitude": "-77.4", "name": "Petersburg"}, {"link_title": null, "guid": "fd9b91502df34b558652950079526f2b", "description": null, "fips_class": "C7", "url": "http://www.ci.poquoson.va.us/", "feature_id": "33693", "state_name": "Virginia", "fips_county_cd": "735", "state_abbreviation": "VA", "full_county_name": "Poquoson (City)", "county_name": "Poquoson (city)", "feat_class": "Populated Place", "primary_latitude": "37.12", "primary_longitude": "-76.34", "name": "Poquoson"}, {"link_title": null, "guid": "1c28904d9ee94558a77db4dc3cb69d9e", "description": null, "fips_class": "C7", "url": "http://www.portsmouthva.gov/", "feature_id": "33695", "state_name": "Virginia", "fips_county_cd": "740", "state_abbreviation": "VA", "full_county_name": "Portsmouth (City)", "county_name": "Portsmouth (city)", "feat_class": "Populated Place", "primary_latitude": "36.83", "primary_longitude": "-76.29", "name": "Portsmouth"}, {"link_title": null, "guid": "99ce5e17ed484606976e549524d0fc73", "description": null, "fips_class": "C1", "url": "http://www.pulaskitown.org/", "feature_id": "33697", "state_name": "Virginia", "fips_county_cd": "155", "state_abbreviation": "VA", "full_county_name": "Pulaski County", "county_name": "Pulaski", "feat_class": "Populated Place", "primary_latitude": "37.04", "primary_longitude": "-80.77", "name": "Pulaski"}, {"link_title": null, "guid": "82fbee15be644ae88c40a93beca4f994", "description": null, "fips_class": "C1", "url": "http://www.purcellvilleva.com/", "feature_id": "33698", "state_name": "Virginia", "fips_county_cd": "107", "state_abbreviation": "VA", "full_county_name": "Loudoun County", "county_name": "Loudoun", "feat_class": "Populated Place", "primary_latitude": "39.13", "primary_longitude": "-77.71", "name": "Purcellville"}, {"link_title": null, "guid": "1cee1514aee64ae28cca2426564e4d48", "description": null, "fips_class": "C7", "url": "http://www.radford.va.us/", "feature_id": "33700", "state_name": "Virginia", "fips_county_cd": "750", "state_abbreviation": "VA", "full_county_name": "Radford (City)", "county_name": "Radford (city)", "feat_class": "Populated Place", "primary_latitude": "37.13", "primary_longitude": "-80.57", "name": "Radford"}, {"link_title": null, "guid": "c1883ae52b3d43a9895895f8a6480cfa", "description": null, "fips_class": "C7", "url": "http://www.richmondgov.com/", "feature_id": "33704", "state_name": "Virginia", "fips_county_cd": "760", "state_abbreviation": "VA", "full_county_name": "Richmond (City)", "county_name": "Richmond (city)", "feat_class": "Populated Place", "primary_latitude": "37.55", "primary_longitude": "-77.46", "name": "Richmond"}, {"link_title": null, "guid": "f9945bef7781473fac40cf2dacaa630a", "description": null, "fips_class": "C7", "url": "http://www.roanokeva.gov/", "feature_id": "33706", "state_name": "Virginia", "fips_county_cd": "770", "state_abbreviation": "VA", "full_county_name": "Roanoke (City)", "county_name": "Roanoke (city)", "feat_class": "Populated Place", "primary_latitude": "37.27", "primary_longitude": "-79.94", "name": "Roanoke"}, {"link_title": null, "guid": "56b4ee0024114438b007f84e8a615e62", "description": null, "fips_class": "C1", "url": "http://www.rockymountva.org/", "feature_id": "33707", "state_name": "Virginia", "fips_county_cd": "67", "state_abbreviation": "VA", "full_county_name": "Franklin County", "county_name": "Franklin", "feat_class": "Populated Place", "primary_latitude": "36.99", "primary_longitude": "-79.89", "name": "Rocky Mount"}, {"link_title": null, "guid": "508a6aee00d447bf996799293c91a32e", "description": null, "fips_class": "C1", "url": "http://www.roundhillva.org/", "feature_id": "33708", "state_name": "Virginia", "fips_county_cd": "107", "state_abbreviation": "VA", "full_county_name": "Loudoun County", "county_name": "Loudoun", "feat_class": "Populated Place", "primary_latitude": "39.13", "primary_longitude": "-77.76", "name": "Round Hill"}, {"link_title": null, "guid": "3b2e741a11dc41298767ee73793af1e1", "description": null, "fips_class": "C1", "url": "http://www.townofruralretreat.com/", "feature_id": "33709", "state_name": "Virginia", "fips_county_cd": "197", "state_abbreviation": "VA", "full_county_name": "Wythe County", "county_name": "Wythe", "feat_class": "Populated Place", "primary_latitude": "36.89", "primary_longitude": "-81.27", "name": "Rural Retreat"}, {"link_title": null, "guid": "2a6b2069170b4ee5b3a8df5eef4f588b", "description": null, "fips_class": "C7", "url": "http://www.ci.salem.va.us/", "feature_id": "33713", "state_name": "Virginia", "fips_county_cd": "775", "state_abbreviation": "VA", "full_county_name": "Salem (City)", "county_name": "Salem (city)", "feat_class": "Populated Place", "primary_latitude": "37.29", "primary_longitude": "-80.05", "name": "Salem"}, {"link_title": null, "guid": "53fe86a5e813478aa51b296a1083d5aa", "description": null, "fips_class": "C1", "url": "http://www.scottsville.org/", "feature_id": "33717", "state_name": "Virginia", "fips_county_cd": "3", "state_abbreviation": "VA", "full_county_name": "Albemarle County", "county_name": "Albemarle", "feat_class": "Populated Place", "primary_latitude": "37.79", "primary_longitude": "-78.49", "name": "Scottsville"}, {"link_title": null, "guid": "57c8775eb5f04f47a7c9bdb882acfa55", "description": null, "fips_class": "C1", "url": "http://www.townofshenandoah.com/", "feature_id": "33719", "state_name": "Virginia", "fips_county_cd": "139", "state_abbreviation": "VA", "full_county_name": "Page County", "county_name": "Page", "feat_class": "Populated Place", "primary_latitude": "38.48", "primary_longitude": "-78.62", "name": "Shenandoah"}, {"link_title": null, "guid": "23e538ec145647b8a273cf8692ec56d2", "description": null, "fips_class": "C1", "url": "http://www.smithfieldva.gov/", "feature_id": "33720", "state_name": "Virginia", "fips_county_cd": "93", "state_abbreviation": "VA", "full_county_name": "Isle of Wight County", "county_name": "Isle of Wight", "feat_class": "Populated Place", "primary_latitude": "36.98", "primary_longitude": "-76.63", "name": "Smithfield"}, {"link_title": null, "guid": "1966e10f39f342839fa1be3dc6072d77", "description": null, "fips_class": "C1", "url": "http://www.southboston.com/town/", "feature_id": "33721", "state_name": "Virginia", "fips_county_cd": "83", "state_abbreviation": "VA", "full_county_name": "Halifax County", "county_name": "Halifax", "feat_class": "Populated Place", "primary_latitude": "36.69", "primary_longitude": "-78.9", "name": "South Boston"}, {"link_title": null, "guid": "d831029b727945faadf1888bdd9f75e9", "description": null, "fips_class": "C1", "url": "http://www.southhillva.org/", "feature_id": "33722", "state_name": "Virginia", "fips_county_cd": "117", "state_abbreviation": "VA", "full_county_name": "Mecklenburg County", "county_name": "Mecklenburg", "feat_class": "Populated Place", "primary_latitude": "36.72", "primary_longitude": "-78.12", "name": "South Hill"}, {"link_title": null, "guid": "de4f9869532745e3a69e5966755c9313", "description": null, "fips_class": "C7", "url": "http://www.staunton.va.us/", "feature_id": "33725", "state_name": "Virginia", "fips_county_cd": "790", "state_abbreviation": "VA", "full_county_name": "Staunton (City)", "county_name": "Staunton (city)", "feat_class": "Populated Place", "primary_latitude": "38.14", "primary_longitude": "-79.07", "name": "Staunton"}, {"link_title": null, "guid": "426d0f88c03f4c5a91c8130b7dd21993", "description": null, "fips_class": "C7", "url": "http://www.suffolk.va.us/", "feature_id": "33730", "state_name": "Virginia", "fips_county_cd": "800", "state_abbreviation": "VA", "full_county_name": "Suffolk (City)", "county_name": "Suffolk (city)", "feat_class": "Populated Place", "primary_latitude": "36.72", "primary_longitude": "-76.58", "name": "Suffolk"}, {"link_title": null, "guid": "8698f83a88604324beb9f2c5b8b82e05", "description": null, "fips_class": "C1", "url": "http://www.townoftazewell.org/", "feature_id": "33734", "state_name": "Virginia", "fips_county_cd": "185", "state_abbreviation": "VA", "full_county_name": "Tazewell County", "county_name": "Tazewell", "feat_class": "Populated Place", "primary_latitude": "37.11", "primary_longitude": "-81.51", "name": "Tazewell"}, {"link_title": null, "guid": "a16eb5c66d484c84888eaa75c632843a", "description": null, "fips_class": "C1", "url": "http://www.viennava.gov/", "feature_id": "33742", "state_name": "Virginia", "fips_county_cd": "59", "state_abbreviation": "VA", "full_county_name": "Fairfax County", "county_name": "Fairfax", "feat_class": "Populated Place", "primary_latitude": "38.9", "primary_longitude": "-77.26", "name": "Vienna"}, {"link_title": null, "guid": "69778b771806459e87f0b59daa2dc2fc", "description": null, "fips_class": "C1", "url": "http://www.vintonva.gov/", "feature_id": "33743", "state_name": "Virginia", "fips_county_cd": "161", "state_abbreviation": "VA", "full_county_name": "Roanoke County", "county_name": "Roanoke", "feat_class": "Populated Place", "primary_latitude": "37.28", "primary_longitude": "-79.89", "name": "Vinton"}, {"link_title": null, "guid": "7f6a89e5019c4a49b30dc92fbedb12a0", "description": null, "fips_class": "C7", "url": "http://www.vbgov.com/", "feature_id": "33745", "state_name": "Virginia", "fips_county_cd": "810", "state_abbreviation": "VA", "full_county_name": "Virginia Beach (City)", "county_name": "Virginia Beach (city)", "feat_class": "Populated Place", "primary_latitude": "36.85", "primary_longitude": "-75.97", "name": "Virginia Beach"}, {"link_title": null, "guid": "ec1474f946484b7e889b530e6ddf3eac", "description": null, "fips_class": "C1", "url": "http://www.warrentonva.gov/", "feature_id": "33748", "state_name": "Virginia", "fips_county_cd": "61", "state_abbreviation": "VA", "full_county_name": "Fauquier County", "county_name": "Fauquier", "feat_class": "Populated Place", "primary_latitude": "38.71", "primary_longitude": "-77.79", "name": "Warrenton"}, {"link_title": null, "guid": "bb10488cc2be4598ad64e12a55814202", "description": null, "fips_class": "C7", "url": "http://www.waynesboro.va.us/", "feature_id": "33752", "state_name": "Virginia", "fips_county_cd": "820", "state_abbreviation": "VA", "full_county_name": "Waynesboro (City)", "county_name": "Waynesboro (city)", "feat_class": "Populated Place", "primary_latitude": "38.06", "primary_longitude": "-78.88", "name": "Waynesboro"}, {"link_title": null, "guid": "58ba45e9a18943ffb19ed9f7572c59ac", "description": null, "fips_class": "C1", "url": "http://www.westpointvirginia.org/", "feature_id": "33754", "state_name": "Virginia", "fips_county_cd": "101", "state_abbreviation": "VA", "full_county_name": "King William County", "county_name": "King William", "feat_class": "Populated Place", "primary_latitude": "37.53", "primary_longitude": "-76.79", "name": "West Point"}, {"link_title": null, "guid": "6fb808a6463547da9bf0ca53ba533d1e", "description": null, "fips_class": "C7", "url": "http://www.winchesterva.gov/", "feature_id": "33757", "state_name": "Virginia", "fips_county_cd": "840", "state_abbreviation": "VA", "full_county_name": "Winchester (City)", "county_name": "Winchester (city)", "feat_class": "Populated Place", "primary_latitude": "39.18", "primary_longitude": "-78.16", "name": "Winchester"}, {"link_title": null, "guid": "5f17b7bc49fb430face15569c01e31dc", "description": null, "fips_class": "C1", "url": "http://www.wytheville.org/", "feature_id": "33761", "state_name": "Virginia", "fips_county_cd": "197", "state_abbreviation": "VA", "full_county_name": "Wythe County", "county_name": "Wythe", "feat_class": "Populated Place", "primary_latitude": "36.94", "primary_longitude": "-81.08", "name": "Wytheville"}, {"link_title": null, "guid": "ab7e5868d55646d7875d85169e979b3b", "description": null, "fips_class": "C1", "url": "http://www.abingdon.com/", "feature_id": "33528", "state_name": "Virginia", "fips_county_cd": "191", "state_abbreviation": "VA", "full_county_name": "Washington County", "county_name": "Washington", "feat_class": "Populated Place", "primary_latitude": "36.7", "primary_longitude": "-81.97", "name": "Abingdon"}, {"link_title": null, "guid": "09f4b132b8a5469ba51e3f42bc3186fb", "description": null, "fips_class": "C7", "url": "http://alexandriava.gov/", "feature_id": "33531", "state_name": "Virginia", "fips_county_cd": "510", "state_abbreviation": "VA", "full_county_name": "Alexandria", "county_name": "Alexandria", "feat_class": "Populated Place", "primary_latitude": "38.8", "primary_longitude": "-77.04", "name": "Alexandria"}, {"link_title": null, "guid": "42801accc952417aa2ca71abff7eab22", "description": null, "fips_class": "C7", "url": "http://www.nortonva.org/", "feature_id": "33678", "state_name": "Virginia", "fips_county_cd": "195", "state_abbreviation": "VA", "full_county_name": "Wise County", "county_name": "Wise", "feat_class": "Populated Place", "primary_latitude": "36.93", "primary_longitude": "-82.62", "name": "Norton"}, {"link_title": null, "guid": "0e1f313bb15d437eb716754d7c51bf8f", "description": null, "fips_class": "C1", "url": "http://www.scottsville.org/", "feature_id": "33718", "state_name": "Virginia", "fips_county_cd": "65", "state_abbreviation": "VA", "full_county_name": "Fluvanna County", "county_name": "Fluvanna", "feat_class": "Populated Place", "primary_latitude": "37.79", "primary_longitude": "-78.49", "name": "Scottsville"}]