[{"link_title": null, "guid": "0f4c7819a27f4bd7b73fdc20ed02b657", "description": null, "fips_class": "C5", "url": "http://vi.hewitt.wi.us/", "feature_id": "35073", "state_name": "Wisconsin", "fips_county_cd": "141", "state_abbreviation": "WI", "full_county_name": "Wood County", "county_name": "Wood", "feat_class": "Populated Place", "primary_latitude": "44.64", "primary_longitude": "-90.1", "name": "Hewitt"}, {"link_title": null, "guid": "96d7b2ecc61d4997bce92e120acc73b5", "description": null, "fips_class": "C5", "url": "http://www.villageofmaplebluff.com/", "feature_id": "35330", "state_name": "Wisconsin", "fips_county_cd": "25", "state_abbreviation": "WI", "full_county_name": "Dane County", "county_name": "Dane", "feat_class": "Populated Place", "primary_latitude": "43.11", "primary_longitude": "-89.37", "name": "Maple Bluff"}, {"link_title": null, "guid": "95703d2a0ffc4da285b22cf7523172de", "description": null, "fips_class": "C5", "url": "http://www.cityofedgerton.com/", "feature_id": "34822", "state_name": "Wisconsin", "fips_county_cd": "105", "state_abbreviation": "WI", "full_county_name": "Rock County", "county_name": "Rock", "feat_class": "Populated Place", "primary_latitude": "42.83", "primary_longitude": "-89.06", "name": "Edgerton"}, {"link_title": null, "guid": "683f938a9c9f4ab7842832faa567283b", "description": null, "fips_class": "C5", "url": "http://www.burlington-wi.gov/", "feature_id": "34571", "state_name": "Wisconsin", "fips_county_cd": "101", "state_abbreviation": "WI", "full_county_name": "Racine County", "county_name": "Racine", "feat_class": "Populated Place", "primary_latitude": "42.67", "primary_longitude": "-88.27", "name": "Burlington"}, {"link_title": null, "guid": "c0e86838d7ff41959c4d49ac09bfe211", "description": null, "fips_class": "C5", "url": "http://www.ci.west-allis.wi.us/", "feature_id": "36107", "state_name": "Wisconsin", "fips_county_cd": "79", "state_abbreviation": "WI", "full_county_name": "Milwaukee County", "county_name": "Milwaukee", "feat_class": "Populated Place", "primary_latitude": "43.01", "primary_longitude": "-88", "name": "West Allis"}, {"link_title": null, "guid": "aa871547d5694b1684f26a66eafcc4fa", "description": null, "fips_class": "C5", "url": "http://www.ci.west-bend.wi.us/", "feature_id": "36109", "state_name": "Wisconsin", "fips_county_cd": "131", "state_abbreviation": "WI", "full_county_name": "Washington County", "county_name": "Washington", "feat_class": "Populated Place", "primary_latitude": "43.42", "primary_longitude": "-88.18", "name": "West Bend"}, {"link_title": null, "guid": "32d20b7998f44b9ba802db77afe089e5", "description": null, "fips_class": "C5", "url": "http://www.villageofshorewood.org/", "feature_id": "35854", "state_name": "Wisconsin", "fips_county_cd": "79", "state_abbreviation": "WI", "full_county_name": "Milwaukee County", "county_name": "Milwaukee", "feat_class": "Populated Place", "primary_latitude": "43.08", "primary_longitude": "-87.88", "name": "Shorewood"}, {"link_title": null, "guid": "20ce674117444482a511f5f24af3119e", "description": null, "fips_class": "C5", "url": "http://www.shorewood-hills.org/", "feature_id": "35855", "state_name": "Wisconsin", "fips_county_cd": "25", "state_abbreviation": "WI", "full_county_name": "Dane County", "county_name": "Dane", "feat_class": "Populated Place", "primary_latitude": "43.07", "primary_longitude": "-89.44", "name": "Shorewood Hills"}, {"link_title": null, "guid": "1e9056baa5ae4f5d80530337ca1228d0", "description": null, "fips_class": "C5", "url": "http://www.hobart-wi.org/", "feature_id": "35088", "state_name": "Wisconsin", "fips_county_cd": "9", "state_abbreviation": "WI", "full_county_name": "Brown County", "county_name": "Brown", "feat_class": "Populated Place", "primary_latitude": "0", "primary_longitude": "0", "name": "Hobart"}, {"link_title": null, "guid": "0a79b44b471740e2a91e71670944c1e2", "description": null, "fips_class": "C5", "url": "http://www.marinette.wi.us/", "feature_id": "35344", "state_name": "Wisconsin", "fips_county_cd": "75", "state_abbreviation": "WI", "full_county_name": "Marinette County", "county_name": "Marinette", "feat_class": "Populated Place", "primary_latitude": "45.09", "primary_longitude": "-87.63", "name": "Marinette"}, {"link_title": null, "guid": "ae35259c943340c2b0022c370e656cf6", "description": null, "fips_class": "C5", "url": "http://www.marion.govoffice2.com/", "feature_id": "35345", "state_name": "Wisconsin", "fips_county_cd": "135", "state_abbreviation": "WI", "full_county_name": "Waupaca County", "county_name": "Waupaca", "feat_class": "Populated Place", "primary_latitude": "44.67", "primary_longitude": "-88.88", "name": "Marion"}, {"link_title": null, "guid": "63b00aff60724821ae0f8e9a28e2bd6c", "description": null, "fips_class": "C5", "url": "http://www.westsalemwi.com/", "feature_id": "36115", "state_name": "Wisconsin", "fips_county_cd": "63", "state_abbreviation": "WI", "full_county_name": "La Crosse County", "county_name": "La Crosse", "feat_class": "Populated Place", "primary_latitude": "43.89", "primary_longitude": "-91.08", "name": "West Salem"}, {"link_title": null, "guid": "87a2f3bf3d434dc4a79d5bc5389479d5", "description": null, "fips_class": "C5", "url": "http://www.ci.abbotsford.wi.us/", "feature_id": "34325", "state_name": "Wisconsin", "fips_county_cd": "19", "state_abbreviation": "WI", "full_county_name": "Clark County", "county_name": "Clark", "feat_class": "Populated Place", "primary_latitude": "44.94", "primary_longitude": "-90.31", "name": "Abbotsford"}, {"link_title": null, "guid": "bb599693cd0642caa33ff6e0848c640c", "description": null, "fips_class": "C5", "url": "http://www.holmenwi.com/", "feature_id": "35093", "state_name": "Wisconsin", "fips_county_cd": "63", "state_abbreviation": "WI", "full_county_name": "La Crosse County", "county_name": "La Crosse", "feat_class": "Populated Place", "primary_latitude": "43.96", "primary_longitude": "-91.25", "name": "Holmen"}, {"link_title": null, "guid": "3eb1641438874ece9e8df4d7ddcf7509", "description": null, "fips_class": "C5", "url": "http://www.vi.silverlake.wi.gov/", "feature_id": "35861", "state_name": "Wisconsin", "fips_county_cd": "59", "state_abbreviation": "WI", "full_county_name": "Kenosha County", "county_name": "Kenosha", "feat_class": "Populated Place", "primary_latitude": "42.54", "primary_longitude": "-88.16", "name": "Silver Lake"}, {"link_title": null, "guid": "e2acdf0a959e4e72836a5bda9c3ed728", "description": null, "fips_class": "C5", "url": "http://www.marshall-wi.com/", "feature_id": "35352", "state_name": "Wisconsin", "fips_county_cd": "25", "state_abbreviation": "WI", "full_county_name": "Dane County", "county_name": "Dane", "feat_class": "Populated Place", "primary_latitude": "43.16", "primary_longitude": "-89.06", "name": "Marshall"}, {"link_title": null, "guid": "20b97773c50a4556aa64e103c735f7f1", "description": null, "fips_class": "C5", "url": "http://67.199.14.61/", "feature_id": "34329", "state_name": "Wisconsin", "fips_county_cd": "1", "state_abbreviation": "WI", "full_county_name": "Adams County", "county_name": "Adams", "feat_class": "Populated Place", "primary_latitude": "43.95", "primary_longitude": "-89.81", "name": "Adams"}, {"link_title": null, "guid": "68ab405ba204421fafbc5627cd78cfa1", "description": null, "fips_class": "C5", "url": "http://www.slinger-wi-usa.org/", "feature_id": "35867", "state_name": "Wisconsin", "fips_county_cd": "131", "state_abbreviation": "WI", "full_county_name": "Washington County", "county_name": "Washington", "feat_class": "Populated Place", "primary_latitude": "43.33", "primary_longitude": "-88.28", "name": "Slinger"}, {"link_title": null, "guid": "0f79662c8b4141aeb0ed8dab54a8bc31", "description": null, "fips_class": "C5", "url": "http://ci.marshfield.wi.us/", "feature_id": "35356", "state_name": "Wisconsin", "fips_county_cd": "141", "state_abbreviation": "WI", "full_county_name": "Wood County", "county_name": "Wood", "feat_class": "Populated Place", "primary_latitude": "44.66", "primary_longitude": "-90.17", "name": "Marshfield"}, {"link_title": null, "guid": "33876fe602c448eeb18abbd1dfd2b268", "description": null, "fips_class": "C5", "url": "http://www.villageofellsworth.org/", "feature_id": "34845", "state_name": "Wisconsin", "fips_county_cd": "93", "state_abbreviation": "WI", "full_county_name": "Pierce County", "county_name": "Pierce", "feat_class": "Populated Place", "primary_latitude": "44.73", "primary_longitude": "-92.48", "name": "Ellsworth"}, {"link_title": null, "guid": "dccd6003ee4c46b1af2a715ff73ed2d8", "description": null, "fips_class": "C5", "url": "http://www.cityofpewaukee.us/", "feature_id": "35613", "state_name": "Wisconsin", "fips_county_cd": "133", "state_abbreviation": "WI", "full_county_name": "Waukesha County", "county_name": "Waukesha", "feat_class": "Populated Place", "primary_latitude": "43.08", "primary_longitude": "-88.26", "name": "Pewaukee"}, {"link_title": null, "guid": "d1cf2a0d038a4dbb82f82a058416d4a6", "description": null, "fips_class": "C5", "url": "http://www.village.howard.wi.us/", "feature_id": "35102", "state_name": "Wisconsin", "fips_county_cd": "9", "state_abbreviation": "WI", "full_county_name": "Brown County", "county_name": "Brown", "feat_class": "Populated Place", "primary_latitude": "44.54", "primary_longitude": "-88.08", "name": "Howard"}, {"link_title": null, "guid": "c6e04a368c994905bd86a2fd501b28db", "description": null, "fips_class": "C5", "url": "http://www.elmgrovewi.org/", "feature_id": "34847", "state_name": "Wisconsin", "fips_county_cd": "133", "state_abbreviation": "WI", "full_county_name": "Waukesha County", "county_name": "Waukesha", "feat_class": "Populated Place", "primary_latitude": "43.04", "primary_longitude": "-88.07", "name": "Elm Grove"}, {"link_title": null, "guid": "7a3ebd4a64634e3bac838ec246d73db9", "description": null, "fips_class": "C5", "url": "http://www.westonwisconsin.org/", "feature_id": "36127", "state_name": "Wisconsin", "fips_county_cd": "73", "state_abbreviation": "WI", "full_county_name": "Marathon County", "county_name": "Marathon", "feat_class": "Populated Place", "primary_latitude": "44.89", "primary_longitude": "-89.54", "name": "Weston"}, {"link_title": null, "guid": "72397c93049a4c329a07e58881ba85ce", "description": null, "fips_class": "C5", "url": "http://www.valuworld.com/usa/wi/supermall/County/Columbia/cambria/cambriawisconsin/", "feature_id": "34592", "state_name": "Wisconsin", "fips_county_cd": "21", "state_abbreviation": "WI", "full_county_name": "Columbia County", "county_name": "Columbia", "feat_class": "Populated Place", "primary_latitude": "43.54", "primary_longitude": "-89.1", "name": "Cambria"}, {"link_title": null, "guid": "103a26ac2e6e45219a66f52491ecb363", "description": null, "fips_class": "C5", "url": "http://www.elroywi.com/", "feature_id": "34850", "state_name": "Wisconsin", "fips_county_cd": "57", "state_abbreviation": "WI", "full_county_name": "Juneau County", "county_name": "Juneau", "feat_class": "Populated Place", "primary_latitude": "43.74", "primary_longitude": "-90.27", "name": "Elroy"}, {"link_title": null, "guid": "4d80dced7fd54a7786792c0bf3f4453c", "description": null, "fips_class": "C5", "url": "http://www.ci.hudson.wi.us/", "feature_id": "35107", "state_name": "Wisconsin", "fips_county_cd": "109", "state_abbreviation": "WI", "full_county_name": "St. Croix County", "county_name": "St. Croix", "feat_class": "Populated Place", "primary_latitude": "44.97", "primary_longitude": "-92.75", "name": "Hudson"}, {"link_title": null, "guid": "c49ad247b8994c29890a8c0c72321ea0", "description": null, "fips_class": "C5", "url": "http://vil.albany.wi.us/", "feature_id": "34341", "state_name": "Wisconsin", "fips_county_cd": "45", "state_abbreviation": "WI", "full_county_name": "Green County", "county_name": "Green", "feat_class": "Populated Place", "primary_latitude": "42.7", "primary_longitude": "-89.43", "name": "Albany"}, {"link_title": null, "guid": "739e15b9d3dd483d80bd4310213ed75a", "description": null, "fips_class": "C5", "url": "http://www.mayvillecity.com/", "feature_id": "35365", "state_name": "Wisconsin", "fips_county_cd": "27", "state_abbreviation": "WI", "full_county_name": "Dodge County", "county_name": "Dodge", "feat_class": "Populated Place", "primary_latitude": "43.49", "primary_longitude": "-88.54", "name": "Mayville"}, {"link_title": null, "guid": "21be3f4ec7904af4b763dbfc52bfc320", "description": null, "fips_class": "C5", "url": "http://www.ci.south-milwaukee.wi.us/", "feature_id": "35878", "state_name": "Wisconsin", "fips_county_cd": "79", "state_abbreviation": "WI", "full_county_name": "Milwaukee County", "county_name": "Milwaukee", "feat_class": "Populated Place", "primary_latitude": "42.91", "primary_longitude": "-87.86", "name": "South Milwaukee"}, {"link_title": null, "guid": "9c1e34fb800244fe97088c2f51cd31ce", "description": null, "fips_class": "C5", "url": "http://campbellsport.govoffice.com/", "feature_id": "34599", "state_name": "Wisconsin", "fips_county_cd": "39", "state_abbreviation": "WI", "full_county_name": "Fond du Lac County", "county_name": "Fond du Lac", "feat_class": "Populated Place", "primary_latitude": "43.59", "primary_longitude": "-88.27", "name": "Campbellsport"}, {"link_title": null, "guid": "803df87eae04478fbe68bef12eb8ca0f", "description": null, "fips_class": "C5", "url": "http://www.villageofmazomanie.com/", "feature_id": "35367", "state_name": "Wisconsin", "fips_county_cd": "25", "state_abbreviation": "WI", "full_county_name": "Dane County", "county_name": "Dane", "feat_class": "Populated Place", "primary_latitude": "43.17", "primary_longitude": "-89.79", "name": "Mazomanie"}, {"link_title": null, "guid": "3874579030e14b2586e8242b9ee7f5b9", "description": null, "fips_class": "C5", "url": "http://www.spartawisconsin.org/", "feature_id": "35880", "state_name": "Wisconsin", "fips_county_cd": "81", "state_abbreviation": "WI", "full_county_name": "Monroe County", "county_name": "Monroe", "feat_class": "Populated Place", "primary_latitude": "43.94", "primary_longitude": "-90.81", "name": "Sparta"}, {"link_title": null, "guid": "1b36210ca76e44998cb188282fda7183", "description": null, "fips_class": "C5", "url": "http://www.mcfarland.wi.us/", "feature_id": "35369", "state_name": "Wisconsin", "fips_county_cd": "25", "state_abbreviation": "WI", "full_county_name": "Dane County", "county_name": "Dane", "feat_class": "Populated Place", "primary_latitude": "43.01", "primary_longitude": "-89.28", "name": "McFarland"}, {"link_title": null, "guid": "2f65352fdab14aa68d7e3e0a3194aa88", "description": null, "fips_class": "C5", "url": "http://www.ephraim-wisconsin.com/", "feature_id": "34859", "state_name": "Wisconsin", "fips_county_cd": "29", "state_abbreviation": "WI", "full_county_name": "Door County", "county_name": "Door", "feat_class": "Populated Place", "primary_latitude": "45.15", "primary_longitude": "-87.16", "name": "Ephraim"}, {"link_title": null, "guid": "38efcb21469c4c5f9b4edad76a45ed1c", "description": null, "fips_class": "C5", "url": "http://www.hustisford.com/", "feature_id": "35115", "state_name": "Wisconsin", "fips_county_cd": "27", "state_abbreviation": "WI", "full_county_name": "Dodge County", "county_name": "Dodge", "feat_class": "Populated Place", "primary_latitude": "43.34", "primary_longitude": "-88.6", "name": "Hustisford"}, {"link_title": null, "guid": "360ca932e2694319addba5729a878c05", "description": null, "fips_class": "C5", "url": "http://www.wfbvillage.org/", "feature_id": "36139", "state_name": "Wisconsin", "fips_county_cd": "79", "state_abbreviation": "WI", "full_county_name": "Milwaukee County", "county_name": "Milwaukee", "feat_class": "Populated Place", "primary_latitude": "43.11", "primary_longitude": "-87.9", "name": "Whitefish Bay"}, {"link_title": null, "guid": "335e93f1767c4110b645060ba3f4ffd8", "description": null, "fips_class": "C5", "url": "http://www.algomacity.org/", "feature_id": "34348", "state_name": "Wisconsin", "fips_county_cd": "61", "state_abbreviation": "WI", "full_county_name": "Kewaunee County", "county_name": "Kewaunee", "feat_class": "Populated Place", "primary_latitude": "44.6", "primary_longitude": "-87.43", "name": "Algoma"}, {"link_title": null, "guid": "c320fc6c1a334d6f85028c36a819f992", "description": null, "fips_class": "C5", "url": "http://www.platteville.org/", "feature_id": "35630", "state_name": "Wisconsin", "fips_county_cd": "43", "state_abbreviation": "WI", "full_county_name": "Grant County", "county_name": "Grant", "feat_class": "Populated Place", "primary_latitude": "42.73", "primary_longitude": "-90.47", "name": "Platteville"}, {"link_title": null, "guid": "415e5cf40c374bbba91d6b1a72abaf70", "description": null, "fips_class": "C5", "url": "http://www.cityofspooner.org/", "feature_id": "35886", "state_name": "Wisconsin", "fips_county_cd": "129", "state_abbreviation": "WI", "full_county_name": "Washburn County", "county_name": "Washburn", "feat_class": "Populated Place", "primary_latitude": "45.82", "primary_longitude": "-91.88", "name": "Spooner"}, {"link_title": null, "guid": "d833f1d855ec4ce9a3228c438f3cadb8", "description": null, "fips_class": "C5", "url": "http://www.ci.whitewater.wi.us/", "feature_id": "36144", "state_name": "Wisconsin", "fips_county_cd": "127", "state_abbreviation": "WI", "full_county_name": "Walworth County", "county_name": "Walworth", "feat_class": "Populated Place", "primary_latitude": "42.83", "primary_longitude": "-88.73", "name": "Whitewater"}, {"link_title": null, "guid": "1aecd49e62cf4f14bb3e55bebc4c2989", "description": null, "fips_class": "C5", "url": "http://www.vi.springgreen.wi.gov/", "feature_id": "35889", "state_name": "Wisconsin", "fips_county_cd": "111", "state_abbreviation": "WI", "full_county_name": "Sauk County", "county_name": "Sauk", "feat_class": "Populated Place", "primary_latitude": "43.17", "primary_longitude": "-90.06", "name": "Spring Green"}, {"link_title": null, "guid": "97b0c6a718754734b32f88395056cec0", "description": null, "fips_class": "C5", "url": "http://www.ci.evansville.wi.gov/", "feature_id": "34866", "state_name": "Wisconsin", "fips_county_cd": "105", "state_abbreviation": "WI", "full_county_name": "Rock County", "county_name": "Rock", "feat_class": "Populated Place", "primary_latitude": "42.78", "primary_longitude": "-89.29", "name": "Evansville"}, {"link_title": null, "guid": "db1924a2d6514f1ca3074f327bbf8f9f", "description": null, "fips_class": "C5", "url": "http://www.ploverwi.gov/", "feature_id": "35636", "state_name": "Wisconsin", "fips_county_cd": "97", "state_abbreviation": "WI", "full_county_name": "Portage County", "county_name": "Portage", "feat_class": "Populated Place", "primary_latitude": "44.45", "primary_longitude": "-89.54", "name": "Plover"}, {"link_title": null, "guid": "d39346e0d842461cabd7b744d7db5aff", "description": null, "fips_class": "C5", "url": "http://www.williamsbay.org/", "feature_id": "36150", "state_name": "Wisconsin", "fips_county_cd": "127", "state_abbreviation": "WI", "full_county_name": "Walworth County", "county_name": "Walworth", "feat_class": "Populated Place", "primary_latitude": "42.57", "primary_longitude": "-88.54", "name": "Williams Bay"}, {"link_title": null, "guid": "4ac4bfd9ef1d48818337bb4e898c2f87", "description": null, "fips_class": "C5", "url": "http://www.ci.altoona.wi.us/", "feature_id": "34361", "state_name": "Wisconsin", "fips_county_cd": "35", "state_abbreviation": "WI", "full_county_name": "Eau Claire County", "county_name": "Eau Claire", "feat_class": "Populated Place", "primary_latitude": "44.8", "primary_longitude": "-91.44", "name": "Altoona"}, {"link_title": null, "guid": "e0540f244f014070ae01a942579a01ef", "description": null, "fips_class": "C5", "url": "http://www.plymouthgov.com/", "feature_id": "35641", "state_name": "Wisconsin", "fips_county_cd": "117", "state_abbreviation": "WI", "full_county_name": "Sheboygan County", "county_name": "Sheboygan", "feat_class": "Populated Place", "primary_latitude": "43.74", "primary_longitude": "-87.97", "name": "Plymouth"}, {"link_title": null, "guid": "231c686813ba42abac28154c0db4d3d0", "description": null, "fips_class": "C5", "url": "http://www.cityofmenasha-wi.gov/", "feature_id": "35386", "state_name": "Wisconsin", "fips_county_cd": "139", "state_abbreviation": "WI", "full_county_name": "Winnebago County", "county_name": "Winnebago", "feat_class": "Populated Place", "primary_latitude": "44.2", "primary_longitude": "-88.44", "name": "Menasha"}, {"link_title": null, "guid": "fe278ab4de154f14aa5350920c9ecb9d", "description": null, "fips_class": "C5", "url": "http://villageofjackson.com/", "feature_id": "35131", "state_name": "Wisconsin", "fips_county_cd": "131", "state_abbreviation": "WI", "full_county_name": "Washington County", "county_name": "Washington", "feat_class": "Populated Place", "primary_latitude": "43.32", "primary_longitude": "-88.16", "name": "Jackson"}, {"link_title": null, "guid": "280f8ec54ec64b5894facefe048e3ab9", "description": null, "fips_class": "C5", "url": "http://www.menomonee-falls.org/", "feature_id": "35389", "state_name": "Wisconsin", "fips_county_cd": "133", "state_abbreviation": "WI", "full_county_name": "Waukesha County", "county_name": "Waukesha", "feat_class": "Populated Place", "primary_latitude": "43.17", "primary_longitude": "-88.11", "name": "Menomonee Falls"}, {"link_title": null, "guid": "f7fb1193984543f69edc2f7c65937653", "description": null, "fips_class": "C5", "url": "http://www.ci.cedarburg.wi.us/", "feature_id": "34625", "state_name": "Wisconsin", "fips_county_cd": "89", "state_abbreviation": "WI", "full_county_name": "Ozaukee County", "county_name": "Ozaukee", "feat_class": "Populated Place", "primary_latitude": "43.29", "primary_longitude": "-87.98", "name": "Cedarburg"}, {"link_title": null, "guid": "5706ce0d977846d2a5a8c5fc279148a0", "description": null, "fips_class": "C5", "url": "http://mequon.govoffice.com/", "feature_id": "35393", "state_name": "Wisconsin", "fips_county_cd": "89", "state_abbreviation": "WI", "full_county_name": "Ozaukee County", "county_name": "Ozaukee", "feat_class": "Populated Place", "primary_latitude": "43.23", "primary_longitude": "-87.98", "name": "Mequon"}, {"link_title": null, "guid": "515543ef36e8443cbe8acb95860cf0ac", "description": null, "fips_class": "C5", "url": "http://www.ci.janesville.wi.us/", "feature_id": "35138", "state_name": "Wisconsin", "fips_county_cd": "105", "state_abbreviation": "WI", "full_county_name": "Rock County", "county_name": "Rock", "feat_class": "Populated Place", "primary_latitude": "42.68", "primary_longitude": "-89.01", "name": "Janesville"}, {"link_title": null, "guid": "5bf5ab75c101455a8393d03f84a0fe97", "description": null, "fips_class": "C5", "url": "http://www.ci.merrill.wi.us/", "feature_id": "35395", "state_name": "Wisconsin", "fips_county_cd": "69", "state_abbreviation": "WI", "full_county_name": "Lincoln County", "county_name": "Lincoln", "feat_class": "Populated Place", "primary_latitude": "45.18", "primary_longitude": "-89.68", "name": "Merrill"}, {"link_title": null, "guid": "624b3be923c84478ba6175e6b6cfe5b0", "description": null, "fips_class": "C5", "url": "http://www.ci.port-washington.wi.us/", "feature_id": "35651", "state_name": "Wisconsin", "fips_county_cd": "89", "state_abbreviation": "WI", "full_county_name": "Ozaukee County", "county_name": "Ozaukee", "feat_class": "Populated Place", "primary_latitude": "43.38", "primary_longitude": "-87.87", "name": "Port Washington"}, {"link_title": null, "guid": "b973eeca53cb41969905855cc4e10082", "description": null, "fips_class": "C5", "url": "http://www.windpointwi.us/", "feature_id": "36164", "state_name": "Wisconsin", "fips_county_cd": "101", "state_abbreviation": "WI", "full_county_name": "Racine County", "county_name": "Racine", "feat_class": "Populated Place", "primary_latitude": "42.78", "primary_longitude": "-87.76", "name": "Wind Point"}, {"link_title": null, "guid": "961f9ff9a1144bc884b38adaaea3ef36", "description": null, "fips_class": "C5", "url": "http://www.ci.portage.wi.us/", "feature_id": "35654", "state_name": "Wisconsin", "fips_county_cd": "21", "state_abbreviation": "WI", "full_county_name": "Columbia County", "county_name": "Columbia", "feat_class": "Populated Place", "primary_latitude": "43.53", "primary_longitude": "-89.46", "name": "Portage"}, {"link_title": null, "guid": "e9903d7457f04b68a24ddf2c64589835", "description": null, "fips_class": "C5", "url": "http://www.antigo-city.org/", "feature_id": "34376", "state_name": "Wisconsin", "fips_county_cd": "67", "state_abbreviation": "WI", "full_county_name": "Langlade County", "county_name": "Langlade", "feat_class": "Populated Place", "primary_latitude": "45.14", "primary_longitude": "-89.15", "name": "Antigo"}, {"link_title": null, "guid": "1867f2ce757d4af9a458aa384f9ffa60", "description": null, "fips_class": "C5", "url": "http://www.chenequa.wi.us/", "feature_id": "34635", "state_name": "Wisconsin", "fips_county_cd": "133", "state_abbreviation": "WI", "full_county_name": "Waukesha County", "county_name": "Waukesha", "feat_class": "Populated Place", "primary_latitude": "43.11", "primary_longitude": "-88.39", "name": "Chenequa"}, {"link_title": null, "guid": "ac04232c437e4f009d1c4ba91d82c3d2", "description": null, "fips_class": "C5", "url": "http://www.appleton.org/", "feature_id": "34380", "state_name": "Wisconsin", "fips_county_cd": "87", "state_abbreviation": "WI", "full_county_name": "Outagamie County", "county_name": "Outagamie", "feat_class": "Populated Place", "primary_latitude": "44.26", "primary_longitude": "-88.41", "name": "Appleton"}, {"link_title": null, "guid": "aacc4549a2124627a94ac4957b6b59ce", "description": null, "fips_class": "C5", "url": "http://www.ci.middleton.wi.us/", "feature_id": "35405", "state_name": "Wisconsin", "fips_county_cd": "25", "state_abbreviation": "WI", "full_county_name": "Dane County", "county_name": "Dane", "feat_class": "Populated Place", "primary_latitude": "43.09", "primary_longitude": "-89.5", "name": "Middleton"}, {"link_title": null, "guid": "50d639698898468b9a69596605834264", "description": null, "fips_class": "C5", "url": "http://www.citywd.govoffice2.com/", "feature_id": "36173", "state_name": "Wisconsin", "fips_county_cd": "21", "state_abbreviation": "WI", "full_county_name": "Columbia County", "county_name": "Columbia", "feat_class": "Populated Place", "primary_latitude": "43.62", "primary_longitude": "-89.77", "name": "Wisconsin Dells"}, {"link_title": null, "guid": "a84b928435bb49609527213d88af74a8", "description": null, "fips_class": "C5", "url": "http://www.wirapids.org/", "feature_id": "36174", "state_name": "Wisconsin", "fips_county_cd": "141", "state_abbreviation": "WI", "full_county_name": "Wood County", "county_name": "Wood", "feat_class": "Populated Place", "primary_latitude": "44.38", "primary_longitude": "-89.81", "name": "Wisconsin Rapids"}, {"link_title": null, "guid": "fcb59f7de32946ea9385b99fc1b2c4bd", "description": null, "fips_class": "C5", "url": "http://www.chilton.govoffice.com/", "feature_id": "34640", "state_name": "Wisconsin", "fips_county_cd": "15", "state_abbreviation": "WI", "full_county_name": "Calumet County", "county_name": "Calumet", "feat_class": "Populated Place", "primary_latitude": "44.02", "primary_longitude": "-88.16", "name": "Chilton"}, {"link_title": null, "guid": "44807067f94b4f8b91ef7eb147fb5bae", "description": null, "fips_class": "C5", "url": "http://www.ci.fond-du-lac.wi.us/", "feature_id": "34897", "state_name": "Wisconsin", "fips_county_cd": "39", "state_abbreviation": "WI", "full_county_name": "Fond du Lac County", "county_name": "Fond du Lac", "feat_class": "Populated Place", "primary_latitude": "43.77", "primary_longitude": "-88.44", "name": "Fond du Lac"}, {"link_title": null, "guid": "e1c031e9c7ff465c9e5ccfdd882d761f", "description": null, "fips_class": "C5", "url": "http://www.ci.kaukauna.wi.us/", "feature_id": "35153", "state_name": "Wisconsin", "fips_county_cd": "87", "state_abbreviation": "WI", "full_county_name": "Outagamie County", "county_name": "Outagamie", "feat_class": "Populated Place", "primary_latitude": "44.27", "primary_longitude": "-88.27", "name": "Kaukauna"}, {"link_title": null, "guid": "6a429369392744cfabf2e9918249ac02", "description": null, "fips_class": "C5", "url": "http://www.stevenspoint.com/", "feature_id": "35923", "state_name": "Wisconsin", "fips_county_cd": "97", "state_abbreviation": "WI", "full_county_name": "Portage County", "county_name": "Portage", "feat_class": "Populated Place", "primary_latitude": "44.52", "primary_longitude": "-89.57", "name": "Stevens Point"}, {"link_title": null, "guid": "92a649545ae845e7b54ca27f21d5e82a", "description": null, "fips_class": "C5", "url": "http://www.ci.chippewa-falls.wi.us/", "feature_id": "34644", "state_name": "Wisconsin", "fips_county_cd": "17", "state_abbreviation": "WI", "full_county_name": "Chippewa County", "county_name": "Chippewa", "feat_class": "Populated Place", "primary_latitude": "44.93", "primary_longitude": "-91.39", "name": "Chippewa Falls"}, {"link_title": null, "guid": "4363b71ee05345099fd77efb9c3b4dc4", "description": null, "fips_class": "C5", "url": "http://www.prairiedusac.net/", "feature_id": "35669", "state_name": "Wisconsin", "fips_county_cd": "111", "state_abbreviation": "WI", "full_county_name": "Sauk County", "county_name": "Sauk", "feat_class": "Populated Place", "primary_latitude": "43.28", "primary_longitude": "-89.72", "name": "Prairie du Sac"}, {"link_title": null, "guid": "86f92813b8b34867bfaf514fb4b21c25", "description": null, "fips_class": "C5", "url": "http://www.kenosha.org/", "feature_id": "35162", "state_name": "Wisconsin", "fips_county_cd": "59", "state_abbreviation": "WI", "full_county_name": "Kenosha County", "county_name": "Kenosha", "feat_class": "Populated Place", "primary_latitude": "42.58", "primary_longitude": "-87.82", "name": "Kenosha"}, {"link_title": null, "guid": "c20b36d8179344ee85115d3f764aa8e0", "description": null, "fips_class": "C5", "url": "http://www.city.milwaukee.gov/", "feature_id": "35418", "state_name": "Wisconsin", "fips_county_cd": "79", "state_abbreviation": "WI", "full_county_name": "Milwaukee County", "county_name": "Milwaukee", "feat_class": "Populated Place", "primary_latitude": "43.03", "primary_longitude": "-87.9", "name": "Milwaukee"}, {"link_title": null, "guid": "7281aab727f943caadea0a493f7cb398", "description": null, "fips_class": "C5", "url": "http://www.prescottwi.org/", "feature_id": "35676", "state_name": "Wisconsin", "fips_county_cd": "93", "state_abbreviation": "WI", "full_county_name": "Pierce County", "county_name": "Pierce", "feat_class": "Populated Place", "primary_latitude": "44.74", "primary_longitude": "-92.8", "name": "Prescott"}, {"link_title": null, "guid": "079ae67c68904f9abea7e2ed2aa8bb85", "description": null, "fips_class": "C5", "url": "http://www.gokewaunee.net/", "feature_id": "35165", "state_name": "Wisconsin", "fips_county_cd": "61", "state_abbreviation": "WI", "full_county_name": "Kewaunee County", "county_name": "Kewaunee", "feat_class": "Populated Place", "primary_latitude": "44.45", "primary_longitude": "-87.5", "name": "Kewaunee"}, {"link_title": null, "guid": "bdd80b5fd94d4614ba3607b4bf333f41", "description": null, "fips_class": "C5", "url": "http://www.ci.stoughton.wi.us/", "feature_id": "35933", "state_name": "Wisconsin", "fips_county_cd": "25", "state_abbreviation": "WI", "full_county_name": "Dane County", "county_name": "Dane", "feat_class": "Populated Place", "primary_latitude": "42.91", "primary_longitude": "-89.21", "name": "Stoughton"}, {"link_title": null, "guid": "c3e833e9f00f4103ae9293ec7da82cd4", "description": null, "fips_class": "C5", "url": "http://www.ci.ashland.wi.us/", "feature_id": "34400", "state_name": "Wisconsin", "fips_county_cd": "3", "state_abbreviation": "WI", "full_county_name": "Ashland County", "county_name": "Ashland", "feat_class": "Populated Place", "primary_latitude": "46.59", "primary_longitude": "-90.88", "name": "Ashland"}, {"link_title": null, "guid": "819ce118a5684eefa69feaec670fd84b", "description": null, "fips_class": "C5", "url": "http://www.ashwaubenon.com/", "feature_id": "34403", "state_name": "Wisconsin", "fips_county_cd": "9", "state_abbreviation": "WI", "full_county_name": "Brown County", "county_name": "Brown", "feat_class": "Populated Place", "primary_latitude": "44.48", "primary_longitude": "-88.07", "name": "Ashwaubenon"}, {"link_title": null, "guid": "260d70ed03d247e182582238c935ab94", "description": null, "fips_class": "C5", "url": "http://www.vokimberly.org/", "feature_id": "35171", "state_name": "Wisconsin", "fips_county_cd": "87", "state_abbreviation": "WI", "full_county_name": "Outagamie County", "county_name": "Outagamie", "feat_class": "Populated Place", "primary_latitude": "44.27", "primary_longitude": "-88.33", "name": "Kimberly"}, {"link_title": null, "guid": "1c15d7db9fe2408e83e5df7b929aa7be", "description": null, "fips_class": "C5", "url": "http://www.sturgeonbaywi.org/", "feature_id": "35939", "state_name": "Wisconsin", "fips_county_cd": "29", "state_abbreviation": "WI", "full_county_name": "Door County", "county_name": "Door", "feat_class": "Populated Place", "primary_latitude": "44.83", "primary_longitude": "-87.37", "name": "Sturgeon Bay"}, {"link_title": null, "guid": "96ef2e9dc614401c93f2cfd8118cd649", "description": null, "fips_class": "C5", "url": "http://www.clevelandwi.gov/", "feature_id": "34660", "state_name": "Wisconsin", "fips_county_cd": "71", "state_abbreviation": "WI", "full_county_name": "Manitowoc County", "county_name": "Manitowoc", "feat_class": "Populated Place", "primary_latitude": "43.91", "primary_longitude": "-87.74", "name": "Cleveland"}, {"link_title": null, "guid": "66c0d88f64eb4a7da6643043d740f97a", "description": null, "fips_class": "C5", "url": "http://www.vil.fox-point.wi.us/", "feature_id": "34916", "state_name": "Wisconsin", "fips_county_cd": "79", "state_abbreviation": "WI", "full_county_name": "Milwaukee County", "county_name": "Milwaukee", "feat_class": "Populated Place", "primary_latitude": "43.15", "primary_longitude": "-87.9", "name": "Fox Point"}, {"link_title": null, "guid": "7bc123687fde42878002c9568161df3f", "description": null, "fips_class": "C5", "url": "http://www.vil.wrightstown.wi.us/", "feature_id": "36196", "state_name": "Wisconsin", "fips_county_cd": "9", "state_abbreviation": "WI", "full_county_name": "Brown County", "county_name": "Brown", "feat_class": "Populated Place", "primary_latitude": "44.32", "primary_longitude": "-88.16", "name": "Wrightstown"}, {"link_title": null, "guid": "6fbb9ca568514656811a6a03fc6adf6c", "description": null, "fips_class": "C5", "url": "http://www.sturtevant-wi.gov/", "feature_id": "35941", "state_name": "Wisconsin", "fips_county_cd": "101", "state_abbreviation": "WI", "full_county_name": "Racine County", "county_name": "Racine", "feat_class": "Populated Place", "primary_latitude": "42.69", "primary_longitude": "-87.89", "name": "Sturtevant"}, {"link_title": null, "guid": "beeeac098c1d4fb1aa0ffdf5098708ec", "description": null, "fips_class": "C5", "url": "http://www.suamico.org/", "feature_id": "35942", "state_name": "Wisconsin", "fips_county_cd": "9", "state_abbreviation": "WI", "full_county_name": "Brown County", "county_name": "Brown", "feat_class": "Populated Place", "primary_latitude": "44.63", "primary_longitude": "-88.03", "name": "Suamico"}, {"link_title": null, "guid": "979eda653a9c45818ece6e6a89762d5e", "description": null, "fips_class": "C5", "url": "http://www.franklinwi.gov", "feature_id": "34920", "state_name": "Wisconsin", "fips_county_cd": "79", "state_abbreviation": "WI", "full_county_name": "Milwaukee County", "county_name": "Milwaukee", "feat_class": "Populated Place", "primary_latitude": "42.88", "primary_longitude": "-88.03", "name": "Franklin"}, {"link_title": null, "guid": "e542d162028140029afae1c7d430ee3f", "description": null, "fips_class": "C5", "url": "http://www.monona.wi.us/", "feature_id": "35432", "state_name": "Wisconsin", "fips_county_cd": "25", "state_abbreviation": "WI", "full_county_name": "Dane County", "county_name": "Dane", "feat_class": "Populated Place", "primary_latitude": "43.06", "primary_longitude": "-89.33", "name": "Monona"}, {"link_title": null, "guid": "2ab6ff9155264cacbf99e445de5fa230", "description": null, "fips_class": "C5", "url": "http://www.cityofmonroe.org/", "feature_id": "35433", "state_name": "Wisconsin", "fips_county_cd": "45", "state_abbreviation": "WI", "full_county_name": "Green County", "county_name": "Green", "feat_class": "Populated Place", "primary_latitude": "42.6", "primary_longitude": "-89.63", "name": "Monroe"}, {"link_title": null, "guid": "bee72b9205f34296b5e73feddaf74358", "description": null, "fips_class": "C5", "url": "http://www.cityofracine.org/", "feature_id": "35689", "state_name": "Wisconsin", "fips_county_cd": "101", "state_abbreviation": "WI", "full_county_name": "Racine County", "county_name": "Racine", "feat_class": "Populated Place", "primary_latitude": "42.72", "primary_longitude": "-87.78", "name": "Racine"}, {"link_title": null, "guid": "df8b3a91c0394c789f216e684edaba49", "description": null, "fips_class": "C5", "url": "http://www.clintonwi.us/", "feature_id": "34668", "state_name": "Wisconsin", "fips_county_cd": "105", "state_abbreviation": "WI", "full_county_name": "Rock County", "county_name": "Rock", "feat_class": "Populated Place", "primary_latitude": "42.55", "primary_longitude": "-88.86", "name": "Clinton"}, {"link_title": null, "guid": "8ac72bad5e4b4dbfb3cc6eaeb8c72bda", "description": null, "fips_class": "C5", "url": "http://www.kohlervillage.org/", "feature_id": "35182", "state_name": "Wisconsin", "fips_county_cd": "117", "state_abbreviation": "WI", "full_county_name": "Sheboygan County", "county_name": "Sheboygan", "feat_class": "Populated Place", "primary_latitude": "43.73", "primary_longitude": "-87.78", "name": "Kohler"}, {"link_title": null, "guid": "57e4206ac92e4dd7b61c555c2695662a", "description": null, "fips_class": "C5", "url": "http://www.village.fredonia.wi.us/", "feature_id": "34929", "state_name": "Wisconsin", "fips_county_cd": "89", "state_abbreviation": "WI", "full_county_name": "Ozaukee County", "county_name": "Ozaukee", "feat_class": "Populated Place", "primary_latitude": "43.47", "primary_longitude": "-87.95", "name": "Fredonia"}, {"link_title": null, "guid": "6b4583b5c0634867ae292906ac9ad7c2", "description": null, "fips_class": "C5", "url": "http://www.cityoflacrosse.org/", "feature_id": "35187", "state_name": "Wisconsin", "fips_county_cd": "63", "state_abbreviation": "WI", "full_county_name": "La Crosse County", "county_name": "La Crosse", "feat_class": "Populated Place", "primary_latitude": "43.8", "primary_longitude": "-91.23", "name": "La Crosse"}, {"link_title": null, "guid": "de498360737a47d9b6207a5af5ee8066", "description": null, "fips_class": "C5", "url": "http://www.cityofsunprairie.com/", "feature_id": "35955", "state_name": "Wisconsin", "fips_county_cd": "25", "state_abbreviation": "WI", "full_county_name": "Dane County", "county_name": "Dane", "feat_class": "Populated Place", "primary_latitude": "43.18", "primary_longitude": "-89.21", "name": "Sun Prairie"}, {"link_title": null, "guid": "223bfcd164fc4041aefd4ad7c4f20415", "description": null, "fips_class": "C5", "url": "http://www.ci.superior.wi.us/", "feature_id": "35957", "state_name": "Wisconsin", "fips_county_cd": "31", "state_abbreviation": "WI", "full_county_name": "Douglas County", "county_name": "Douglas", "feat_class": "Populated Place", "primary_latitude": "46.72", "primary_longitude": "-92.1", "name": "Superior"}, {"link_title": null, "guid": "bf39ff6f475a4b17b56ecd7041d804ca", "description": null, "fips_class": "C5", "url": "http://www.village.sussex.wi.us/", "feature_id": "35961", "state_name": "Wisconsin", "fips_county_cd": "133", "state_abbreviation": "WI", "full_county_name": "Waukesha County", "county_name": "Waukesha", "feat_class": "Populated Place", "primary_latitude": "43.13", "primary_longitude": "-88.22", "name": "Sussex"}, {"link_title": null, "guid": "c8a300855fe94f3d8eb64247e633d0d4", "description": null, "fips_class": "C5", "url": "http://cityofbaraboo.com/", "feature_id": "34427", "state_name": "Wisconsin", "fips_county_cd": "111", "state_abbreviation": "WI", "full_county_name": "Sauk County", "county_name": "Sauk", "feat_class": "Populated Place", "primary_latitude": "43.47", "primary_longitude": "-89.74", "name": "Baraboo"}, {"link_title": null, "guid": "5914b5ac1e5747abaf0f14e4d2744170", "description": null, "fips_class": "C5", "url": "http://www.mosinee.wi.us/", "feature_id": "35451", "state_name": "Wisconsin", "fips_county_cd": "73", "state_abbreviation": "WI", "full_county_name": "Marathon County", "county_name": "Marathon", "feat_class": "Populated Place", "primary_latitude": "44.79", "primary_longitude": "-89.7", "name": "Mosinee"}, {"link_title": null, "guid": "4eaafa2f05cd42b2a5bd6e87d4dd03d0", "description": null, "fips_class": "C5", "url": "http://www.mounthorebwi.info/", "feature_id": "35457", "state_name": "Wisconsin", "fips_county_cd": "25", "state_abbreviation": "WI", "full_county_name": "Dane County", "county_name": "Dane", "feat_class": "Populated Place", "primary_latitude": "43", "primary_longitude": "-89.73", "name": "Mount Horeb"}, {"link_title": null, "guid": "b4ea2dc3ced345518d5781592005fcfa", "description": null, "fips_class": "C5", "url": "http://www.cityofcolumbuswi.com/", "feature_id": "34692", "state_name": "Wisconsin", "fips_county_cd": "21", "state_abbreviation": "WI", "full_county_name": "Columbia County", "county_name": "Columbia", "feat_class": "Populated Place", "primary_latitude": "43.33", "primary_longitude": "-89.01", "name": "Columbus"}, {"link_title": null, "guid": "f5bf5fea45764ed981bdeed77f45bc4d", "description": null, "fips_class": "C5", "url": "http://www.cityoflakegeneva.com/", "feature_id": "35206", "state_name": "Wisconsin", "fips_county_cd": "127", "state_abbreviation": "WI", "full_county_name": "Walworth County", "county_name": "Walworth", "feat_class": "Populated Place", "primary_latitude": "42.59", "primary_longitude": "-88.43", "name": "Lake Geneva"}, {"link_title": null, "guid": "f81bc24bdeb741b5a78fcbb1cdafd3c8", "description": null, "fips_class": "C5", "url": "http://www.ci.rice-lake.wi.us/", "feature_id": "35718", "state_name": "Wisconsin", "fips_county_cd": "5", "state_abbreviation": "WI", "full_county_name": "Barron County", "county_name": "Barron", "feat_class": "Populated Place", "primary_latitude": "45.5", "primary_longitude": "-91.73", "name": "Rice Lake"}, {"link_title": null, "guid": "ee661d36e69742388b545aa79fc661b7", "description": null, "fips_class": "C5", "url": "http://www.baycitywi.org/", "feature_id": "34441", "state_name": "Wisconsin", "fips_county_cd": "93", "state_abbreviation": "WI", "full_county_name": "Pierce County", "county_name": "Pierce", "feat_class": "Populated Place", "primary_latitude": "44.58", "primary_longitude": "-92.45", "name": "Bay City"}, {"link_title": null, "guid": "63176d03386445eab6981c41f8a185bd", "description": null, "fips_class": "C5", "url": "http://www.ci.lake-mills.wi.us/", "feature_id": "35209", "state_name": "Wisconsin", "fips_county_cd": "55", "state_abbreviation": "WI", "full_county_name": "Jefferson County", "county_name": "Jefferson", "feat_class": "Populated Place", "primary_latitude": "43.08", "primary_longitude": "-88.91", "name": "Lake Mills"}, {"link_title": null, "guid": "72a2af3420234a7d88f506c1de1bb939", "description": null, "fips_class": "C5", "url": "http://www.villageofmukwonago.com/", "feature_id": "35466", "state_name": "Wisconsin", "fips_county_cd": "133", "state_abbreviation": "WI", "full_county_name": "Waukesha County", "county_name": "Waukesha", "feat_class": "Populated Place", "primary_latitude": "42.86", "primary_longitude": "-88.33", "name": "Mukwonago"}, {"link_title": null, "guid": "57693cdaf72b40f799a19e76c5a11a0e", "description": null, "fips_class": "C5", "url": "http://www.tigerton.govoffice2.com/", "feature_id": "35979", "state_name": "Wisconsin", "fips_county_cd": "115", "state_abbreviation": "WI", "full_county_name": "Shawano County", "county_name": "Shawano", "feat_class": "Populated Place", "primary_latitude": "44.74", "primary_longitude": "-89.06", "name": "Tigerton"}, {"link_title": null, "guid": "e456ff910e81493f886f7cd1a75e3c96", "description": null, "fips_class": "C5", "url": "http://www.bayside-wi.gov/", "feature_id": "34444", "state_name": "Wisconsin", "fips_county_cd": "79", "state_abbreviation": "WI", "full_county_name": "Milwaukee County", "county_name": "Milwaukee", "feat_class": "Populated Place", "primary_latitude": "43.18", "primary_longitude": "-87.9", "name": "Bayside"}, {"link_title": null, "guid": "6b3d7b11add14e3599bd765d9a8cbc01", "description": null, "fips_class": "C5", "url": "http://www.village.germantown.wi.us/", "feature_id": "34957", "state_name": "Wisconsin", "fips_county_cd": "131", "state_abbreviation": "WI", "full_county_name": "Washington County", "county_name": "Washington", "feat_class": "Populated Place", "primary_latitude": "43.22", "primary_longitude": "-88.11", "name": "Germantown"}, {"link_title": null, "guid": "b693e74bbc964d428b55ee3abaeaf336", "description": null, "fips_class": "C5", "url": "http://www.ci.muskego.wi.us/", "feature_id": "35470", "state_name": "Wisconsin", "fips_county_cd": "133", "state_abbreviation": "WI", "full_county_name": "Waukesha County", "county_name": "Waukesha", "feat_class": "Populated Place", "primary_latitude": "42.9", "primary_longitude": "-88.13", "name": "Muskego"}, {"link_title": null, "guid": "0b9ee5286d814bca983435ac6c314b99", "description": null, "fips_class": "C5", "url": "http://village.cottage-grove.wi.us/", "feature_id": "34705", "state_name": "Wisconsin", "fips_county_cd": "25", "state_abbreviation": "WI", "full_county_name": "Dane County", "county_name": "Dane", "feat_class": "Populated Place", "primary_latitude": "43.07", "primary_longitude": "-89.19", "name": "Cottage Grove"}, {"link_title": null, "guid": "59dd670e996f45ffbee60ed513876857", "description": null, "fips_class": "C5", "url": "http://www.ci.gillett.wi.us/", "feature_id": "34962", "state_name": "Wisconsin", "fips_county_cd": "83", "state_abbreviation": "WI", "full_county_name": "Oconto County", "county_name": "Oconto", "feat_class": "Populated Place", "primary_latitude": "44.88", "primary_longitude": "-88.3", "name": "Gillett"}, {"link_title": null, "guid": "21b1c7907e734d0c8aa4c1f43db15cfd", "description": null, "fips_class": "C5", "url": "http://www.lancasterwisconsin.com/", "feature_id": "35220", "state_name": "Wisconsin", "fips_county_cd": "43", "state_abbreviation": "WI", "full_county_name": "Grant County", "county_name": "Grant", "feat_class": "Populated Place", "primary_latitude": "42.84", "primary_longitude": "-90.71", "name": "Lancaster"}, {"link_title": null, "guid": "f6bf75e66edf484384ff0f40cb849add", "description": null, "fips_class": "C5", "url": "http://www.cityofbeaverdam.com/", "feature_id": "34455", "state_name": "Wisconsin", "fips_county_cd": "27", "state_abbreviation": "WI", "full_county_name": "Dodge County", "county_name": "Dodge", "feat_class": "Populated Place", "primary_latitude": "43.45", "primary_longitude": "-88.83", "name": "Beaver Dam"}, {"link_title": null, "guid": "e82b22bf53f14c63903d93319827a36a", "description": null, "fips_class": "C5", "url": "http://www.ci.neenah.wi.us/", "feature_id": "35479", "state_name": "Wisconsin", "fips_county_cd": "139", "state_abbreviation": "WI", "full_county_name": "Winnebago County", "county_name": "Winnebago", "feat_class": "Populated Place", "primary_latitude": "44.18", "primary_longitude": "-88.46", "name": "Neenah"}, {"link_title": null, "guid": "f31c5e252b64402da1393af34194d780", "description": null, "fips_class": "H1", "url": "http://www.co.adams.wi.us/", "feature_id": "39577", "state_name": "Wisconsin", "fips_county_cd": "1", "state_abbreviation": "WI", "full_county_name": null, "county_name": null, "feat_class": "Civil", "primary_latitude": "43.93", "primary_longitude": "-89.76", "name": "Adams County"}, {"link_title": null, "guid": "ae6fb3f6bdaf4c0a8e0868c26f4e74e5", "description": null, "fips_class": "C5", "url": "http://www.cityofripon.com/", "feature_id": "35738", "state_name": "Wisconsin", "fips_county_cd": "39", "state_abbreviation": "WI", "full_county_name": "Fond du Lac County", "county_name": "Fond du Lac", "feat_class": "Populated Place", "primary_latitude": "43.84", "primary_longitude": "-88.83", "name": "Ripon"}, {"link_title": null, "guid": "efcacba1a0284381b49776bce60747f0", "description": null, "fips_class": "H1", "url": "http://www.co.ashland.wi.us/", "feature_id": "39578", "state_name": "Wisconsin", "fips_county_cd": "3", "state_abbreviation": "WI", "full_county_name": null, "county_name": null, "feat_class": "Civil", "primary_latitude": "46.39", "primary_longitude": "-90.83", "name": "Ashland County"}, {"link_title": null, "guid": "0497a0f791c24e3eb7c1ad1822282ed5", "description": null, "fips_class": "H1", "url": "http://www.barroncountywi.gov/", "feature_id": "39579", "state_name": "Wisconsin", "fips_county_cd": "5", "state_abbreviation": "WI", "full_county_name": null, "county_name": null, "feat_class": "Civil", "primary_latitude": "45.41", "primary_longitude": "-91.85", "name": "Barron County"}, {"link_title": null, "guid": "9638bc71133b4a63afde0d99fa943d92", "description": null, "fips_class": "C5", "url": "http://cross-plains.wi.us/", "feature_id": "34716", "state_name": "Wisconsin", "fips_county_cd": "25", "state_abbreviation": "WI", "full_county_name": "Dane County", "county_name": "Dane", "feat_class": "Populated Place", "primary_latitude": "43.11", "primary_longitude": "-89.65", "name": "Cross Plains"}, {"link_title": null, "guid": "82ee099f2a7c4d00bbdd55287b6a90bf", "description": null, "fips_class": "C5", "url": "http://www.glendale-wi.org/", "feature_id": "34972", "state_name": "Wisconsin", "fips_county_cd": "79", "state_abbreviation": "WI", "full_county_name": "Milwaukee County", "county_name": "Milwaukee", "feat_class": "Populated Place", "primary_latitude": "43.13", "primary_longitude": "-87.93", "name": "Glendale"}, {"link_title": null, "guid": "3ae1cdd7066a4b6a8183b69b08806672", "description": null, "fips_class": "C5", "url": "http://www.rfcity.org/", "feature_id": "35740", "state_name": "Wisconsin", "fips_county_cd": "93", "state_abbreviation": "WI", "full_county_name": "Pierce County", "county_name": "Pierce", "feat_class": "Populated Place", "primary_latitude": "44.86", "primary_longitude": "-92.62", "name": "River Falls"}, {"link_title": null, "guid": "0a97d00cb0f0413b9038f19ca975ce51", "description": null, "fips_class": "H1", "url": "http://www.bayfieldcounty.org/", "feature_id": "39580", "state_name": "Wisconsin", "fips_county_cd": "7", "state_abbreviation": "WI", "full_county_name": null, "county_name": null, "feat_class": "Civil", "primary_latitude": "46.54", "primary_longitude": "-91.15", "name": "Bayfield County"}, {"link_title": null, "guid": "2768401c374745b1aa70e47a3b1cb651", "description": null, "fips_class": "H1", "url": "http://www.co.brown.wi.us/", "feature_id": "39581", "state_name": "Wisconsin", "fips_county_cd": "9", "state_abbreviation": "WI", "full_county_name": null, "county_name": null, "feat_class": "Civil", "primary_latitude": "44.46", "primary_longitude": "-87.96", "name": "Brown County"}, {"link_title": null, "guid": "199f8c142f8046bcb12ae2bad2929796", "description": null, "fips_class": "H1", "url": "http://www.buffalocounty.com/", "feature_id": "39582", "state_name": "Wisconsin", "fips_county_cd": "11", "state_abbreviation": "WI", "full_county_name": null, "county_name": null, "feat_class": "Civil", "primary_latitude": "44.36", "primary_longitude": "-91.78", "name": "Buffalo County"}, {"link_title": null, "guid": "a8a9a01b3fc4450e824f300657b0cdc2", "description": null, "fips_class": "H1", "url": "http://www.burnettcounty.com/", "feature_id": "39583", "state_name": "Wisconsin", "fips_county_cd": "13", "state_abbreviation": "WI", "full_county_name": null, "county_name": null, "feat_class": "Civil", "primary_latitude": "45.84", "primary_longitude": "-92.38", "name": "Burnett County"}, {"link_title": null, "guid": "61358d6306054b3b94697189d3498165", "description": null, "fips_class": "H1", "url": "http://www.co.calumet.wi.us/", "feature_id": "39584", "state_name": "Wisconsin", "fips_county_cd": "15", "state_abbreviation": "WI", "full_county_name": null, "county_name": null, "feat_class": "Civil", "primary_latitude": "44.08", "primary_longitude": "-88.2", "name": "Calumet County"}, {"link_title": null, "guid": "44f3091cbf334c76925ced44b2351ed5", "description": null, "fips_class": "H1", "url": "http://www.co.chippewa.wi.us/", "feature_id": "39585", "state_name": "Wisconsin", "fips_county_cd": "17", "state_abbreviation": "WI", "full_county_name": null, "county_name": null, "feat_class": "Civil", "primary_latitude": "45.06", "primary_longitude": "-91.26", "name": "Chippewa County"}, {"link_title": null, "guid": "d03d301256544864b1b61fd9afb495a8", "description": null, "fips_class": "H1", "url": "http://www.co.clark.wi.us/", "feature_id": "39586", "state_name": "Wisconsin", "fips_county_cd": "19", "state_abbreviation": "WI", "full_county_name": null, "county_name": null, "feat_class": "Civil", "primary_latitude": "44.73", "primary_longitude": "-90.63", "name": "Clark County"}, {"link_title": null, "guid": "4b030359aee5496bbb33dc8d901ea05c", "description": null, "fips_class": "C5", "url": "http://www.ci.cudahy.wi.us/", "feature_id": "34723", "state_name": "Wisconsin", "fips_county_cd": "79", "state_abbreviation": "WI", "full_county_name": "Milwaukee County", "county_name": "Milwaukee", "feat_class": "Populated Place", "primary_latitude": "42.95", "primary_longitude": "-87.86", "name": "Cudahy"}, {"link_title": null, "guid": "2c658aba8a87471f92ed1ced27a176e4", "description": null, "fips_class": "H1", "url": "http://www.co.columbia.wi.us/", "feature_id": "39587", "state_name": "Wisconsin", "fips_county_cd": "21", "state_abbreviation": "WI", "full_county_name": null, "county_name": null, "feat_class": "Civil", "primary_latitude": "43.46", "primary_longitude": "-89.33", "name": "Columbia County"}, {"link_title": null, "guid": "0ae9af2fd85b48f28099f31cb58aea11", "description": null, "fips_class": "C5", "url": "http://cityofcumberland.net/", "feature_id": "34724", "state_name": "Wisconsin", "fips_county_cd": "5", "state_abbreviation": "WI", "full_county_name": "Barron County", "county_name": "Barron", "feat_class": "Populated Place", "primary_latitude": "45.53", "primary_longitude": "-92.01", "name": "Cumberland"}, {"link_title": null, "guid": "ccbb26d52d824b9e90818e9e50d6002a", "description": null, "fips_class": "H1", "url": "http://www.countyofdane.com", "feature_id": "39589", "state_name": "Wisconsin", "fips_county_cd": "25", "state_abbreviation": "WI", "full_county_name": null, "county_name": null, "feat_class": "Civil", "primary_latitude": "43.06", "primary_longitude": "-89.43", "name": "Dane County"}, {"link_title": null, "guid": "56893549507a4694b99f921867339aa4", "description": null, "fips_class": "C5", "url": "http://www.ci.beloit.wi.us/", "feature_id": "34470", "state_name": "Wisconsin", "fips_county_cd": "105", "state_abbreviation": "WI", "full_county_name": "Rock County", "county_name": "Rock", "feat_class": "Populated Place", "primary_latitude": "42.5", "primary_longitude": "-89.03", "name": "Beloit"}, {"link_title": null, "guid": "0f717257f5324e0db3a52ad320fc1b5b", "description": null, "fips_class": "C5", "url": "http://www.newberlin.org/", "feature_id": "35494", "state_name": "Wisconsin", "fips_county_cd": "133", "state_abbreviation": "WI", "full_county_name": "Waukesha County", "county_name": "Waukesha", "feat_class": "Populated Place", "primary_latitude": "42.97", "primary_longitude": "-88.1", "name": "New Berlin"}, {"link_title": null, "guid": "942fb285e397437bb026589b6b3a6fb4", "description": null, "fips_class": "H1", "url": "http://www.co.dodge.wi.us/", "feature_id": "39590", "state_name": "Wisconsin", "fips_county_cd": "27", "state_abbreviation": "WI", "full_county_name": null, "county_name": null, "feat_class": "Civil", "primary_latitude": "43.41", "primary_longitude": "-88.7", "name": "Dodge County"}, {"link_title": null, "guid": "c153c1dfd85e4a63a8a0295ba9c5b69a", "description": null, "fips_class": "C5", "url": "http://www.village.grafton.wi.us/", "feature_id": "34983", "state_name": "Wisconsin", "fips_county_cd": "89", "state_abbreviation": "WI", "full_county_name": "Ozaukee County", "county_name": "Ozaukee", "feat_class": "Populated Place", "primary_latitude": "43.31", "primary_longitude": "-87.95", "name": "Grafton"}, {"link_title": null, "guid": "fb07fcb73e06429e93e41957e5b779d1", "description": null, "fips_class": "H1", "url": "http://www.co.door.wi.gov/", "feature_id": "39591", "state_name": "Wisconsin", "fips_county_cd": "29", "state_abbreviation": "WI", "full_county_name": null, "county_name": null, "feat_class": "Civil", "primary_latitude": "44.91", "primary_longitude": "-87.3", "name": "Door County"}, {"link_title": null, "guid": "89252f6a1bd34da0b972d652c148331b", "description": null, "fips_class": "H1", "url": "http://www.douglascountywi.org/", "feature_id": "39592", "state_name": "Wisconsin", "fips_county_cd": "31", "state_abbreviation": "WI", "full_county_name": null, "county_name": null, "feat_class": "Civil", "primary_latitude": "46.43", "primary_longitude": "-91.9", "name": "Douglas County"}, {"link_title": null, "guid": "183c0a9719ce4da7b9a6cab61aa1db37", "description": null, "fips_class": "H1", "url": "http://dunncountywi.govoffice2.com/", "feature_id": "39593", "state_name": "Wisconsin", "fips_county_cd": "33", "state_abbreviation": "WI", "full_county_name": null, "county_name": null, "feat_class": "Civil", "primary_latitude": "44.94", "primary_longitude": "-91.88", "name": "Dunn County"}, {"link_title": null, "guid": "97ea7ddfaf8944b5b0492dec3758b681", "description": null, "fips_class": "C5", "url": "http://www.newglarusvillage.com/", "feature_id": "35498", "state_name": "Wisconsin", "fips_county_cd": "45", "state_abbreviation": "WI", "full_county_name": "Green County", "county_name": "Green", "feat_class": "Populated Place", "primary_latitude": "42.81", "primary_longitude": "-89.63", "name": "New Glarus"}, {"link_title": null, "guid": "4a7ef74016894329972a1d50a59a0dfd", "description": null, "fips_class": "H1", "url": "http://www.co.eau-claire.wi.us/", "feature_id": "39594", "state_name": "Wisconsin", "fips_county_cd": "35", "state_abbreviation": "WI", "full_county_name": null, "county_name": null, "feat_class": "Civil", "primary_latitude": "44.73", "primary_longitude": "-91.3", "name": "Eau Claire County"}, {"link_title": null, "guid": "7b83c9cfc2524c558f976c79f654d789", "description": null, "fips_class": "H1", "url": "http://www.florencewisconsin.com/", "feature_id": "39595", "state_name": "Wisconsin", "fips_county_cd": "37", "state_abbreviation": "WI", "full_county_name": null, "county_name": null, "feat_class": "Civil", "primary_latitude": "45.84", "primary_longitude": "-88.36", "name": "Florence County"}, {"link_title": null, "guid": "ad405089602149aa92f3aa1c4553175f", "description": null, "fips_class": "C5", "url": "http://www.ci.two-rivers.wi.us/", "feature_id": "36012", "state_name": "Wisconsin", "fips_county_cd": "71", "state_abbreviation": "WI", "full_county_name": "Manitowoc County", "county_name": "Manitowoc", "feat_class": "Populated Place", "primary_latitude": "44.15", "primary_longitude": "-87.56", "name": "Two Rivers"}, {"link_title": null, "guid": "fd0b33ca679e43bf8ca762c391a3ef59", "description": null, "fips_class": "H1", "url": "http://www.fdlco.wi.gov/", "feature_id": "39596", "state_name": "Wisconsin", "fips_county_cd": "39", "state_abbreviation": "WI", "full_county_name": null, "county_name": null, "feat_class": "Civil", "primary_latitude": "43.75", "primary_longitude": "-88.46", "name": "Fond du Lac County"}, {"link_title": null, "guid": "1f942fc926914bfe8a2cdc0f6c3670a1", "description": null, "fips_class": "C5", "url": "http://www.1berlin.com/", "feature_id": "34478", "state_name": "Wisconsin", "fips_county_cd": "47", "state_abbreviation": "WI", "full_county_name": "Green Lake County", "county_name": "Green Lake", "feat_class": "Populated Place", "primary_latitude": "43.96", "primary_longitude": "-88.94", "name": "Berlin"}, {"link_title": null, "guid": "4e380664ab61472a92696fa39d7c8131", "description": null, "fips_class": "H1", "url": "http://grantcounty.org/", "feature_id": "39598", "state_name": "Wisconsin", "fips_county_cd": "43", "state_abbreviation": "WI", "full_county_name": null, "county_name": null, "feat_class": "Civil", "primary_latitude": "42.86", "primary_longitude": "-90.7", "name": "Grant County"}, {"link_title": null, "guid": "ecd0d8eb9b96477db692d1697c3695c8", "description": null, "fips_class": "H1", "url": "http://www.co.green.wi.gov/", "feature_id": "39599", "state_name": "Wisconsin", "fips_county_cd": "45", "state_abbreviation": "WI", "full_county_name": null, "county_name": null, "feat_class": "Civil", "primary_latitude": "42.83", "primary_longitude": "-89.6", "name": "Green County"}, {"link_title": null, "guid": "6dec80c75a924a8096963dcee210f813", "description": null, "fips_class": "H1", "url": "http://www.co.green-lake.wi.us/", "feature_id": "39600", "state_name": "Wisconsin", "fips_county_cd": "47", "state_abbreviation": "WI", "full_county_name": null, "county_name": null, "feat_class": "Civil", "primary_latitude": "43.79", "primary_longitude": "-89.03", "name": "Green Lake County"}, {"link_title": null, "guid": "5b6e838f773b41cab237b3e62f26a79c", "description": null, "fips_class": "C5", "url": "http://www.newlisbon.net/", "feature_id": "35505", "state_name": "Wisconsin", "fips_county_cd": "57", "state_abbreviation": "WI", "full_county_name": "Juneau County", "county_name": "Juneau", "feat_class": "Populated Place", "primary_latitude": "43.87", "primary_longitude": "-90.16", "name": "New Lisbon"}, {"link_title": null, "guid": "98fdde64dc894d3790e09fd066e9bf42", "description": null, "fips_class": "H1", "url": "http://www.iowacounty.org/", "feature_id": "39601", "state_name": "Wisconsin", "fips_county_cd": "49", "state_abbreviation": "WI", "full_county_name": null, "county_name": null, "feat_class": "Civil", "primary_latitude": "43", "primary_longitude": "-90.15", "name": "Iowa County"}, {"link_title": null, "guid": "d1795bae626241789fb22c4313b4357c", "description": null, "fips_class": "H1", "url": "http://www.co.jackson.wi.us/", "feature_id": "39603", "state_name": "Wisconsin", "fips_county_cd": "53", "state_abbreviation": "WI", "full_county_name": null, "county_name": null, "feat_class": "Civil", "primary_latitude": "44.33", "primary_longitude": "-90.86", "name": "Jackson County"}, {"link_title": null, "guid": "92d6c8001aef4630800f13ae1e8d0982", "description": null, "fips_class": "H1", "url": "http://www.jeffersoncountywi.gov/", "feature_id": "39604", "state_name": "Wisconsin", "fips_county_cd": "55", "state_abbreviation": "WI", "full_county_name": null, "county_name": null, "feat_class": "Civil", "primary_latitude": "43.03", "primary_longitude": "-88.76", "name": "Jefferson County"}, {"link_title": null, "guid": "4f1ee1ad85464d339e31172aa25ef60e", "description": null, "fips_class": "C5", "url": "http://ci.new-richmond.wi.us/", "feature_id": "35509", "state_name": "Wisconsin", "fips_county_cd": "109", "state_abbreviation": "WI", "full_county_name": "St. Croix County", "county_name": "St. Croix", "feat_class": "Populated Place", "primary_latitude": "45.12", "primary_longitude": "-92.53", "name": "New Richmond"}, {"link_title": null, "guid": "a516fc13024b4f5387c044ccf2844264", "description": null, "fips_class": "C5", "url": "http://www.rosholtvillage.com/", "feature_id": "35765", "state_name": "Wisconsin", "fips_county_cd": "97", "state_abbreviation": "WI", "full_county_name": "Portage County", "county_name": "Portage", "feat_class": "Populated Place", "primary_latitude": "44.62", "primary_longitude": "-89.3", "name": "Rosholt"}, {"link_title": null, "guid": "c8d9d9f2fc774d0892bc138975e7e070", "description": null, "fips_class": "H1", "url": "http://www.juneaucounty.com/", "feature_id": "39605", "state_name": "Wisconsin", "fips_county_cd": "57", "state_abbreviation": "WI", "full_county_name": null, "county_name": null, "feat_class": "Civil", "primary_latitude": "43.91", "primary_longitude": "-90.13", "name": "Juneau County"}, {"link_title": null, "guid": "88f8e4df48dc47838c1c688876e867f6", "description": null, "fips_class": "C5", "url": "http://www.ci.green-bay.wi.us/", "feature_id": "34998", "state_name": "Wisconsin", "fips_county_cd": "9", "state_abbreviation": "WI", "full_county_name": "Brown County", "county_name": "Brown", "feat_class": "Populated Place", "primary_latitude": "44.51", "primary_longitude": "-88.01", "name": "Green Bay"}, {"link_title": null, "guid": "3cfa8076e1294797aba814704d645f97", "description": null, "fips_class": "H1", "url": "http://www.co.kenosha.wi.us/", "feature_id": "39606", "state_name": "Wisconsin", "fips_county_cd": "59", "state_abbreviation": "WI", "full_county_name": null, "county_name": null, "feat_class": "Civil", "primary_latitude": "42.56", "primary_longitude": "-88.05", "name": "Kenosha County"}, {"link_title": null, "guid": "2e47d2f4be5d4f2fa733b1b539852ce5", "description": null, "fips_class": "H1", "url": "http://www.kewauneeco.org/", "feature_id": "39607", "state_name": "Wisconsin", "fips_county_cd": "61", "state_abbreviation": "WI", "full_county_name": null, "county_name": null, "feat_class": "Civil", "primary_latitude": "44.51", "primary_longitude": "-87.63", "name": "Kewaunee County"}, {"link_title": null, "guid": "ce61105c28c6434a9dff96210973966d", "description": null, "fips_class": "H1", "url": "http://www.co.la-crosse.wi.us/", "feature_id": "39608", "state_name": "Wisconsin", "fips_county_cd": "63", "state_abbreviation": "WI", "full_county_name": null, "county_name": null, "feat_class": "Civil", "primary_latitude": "43.75", "primary_longitude": "-91.1", "name": "La Crosse County"}, {"link_title": null, "guid": "9a960ce0a95d4b89bd642668232de305", "description": null, "fips_class": "C5", "url": "http://www.vi.deforest.wi.us/", "feature_id": "34745", "state_name": "Wisconsin", "fips_county_cd": "25", "state_abbreviation": "WI", "full_county_name": "Dane County", "county_name": "Dane", "feat_class": "Populated Place", "primary_latitude": "43.24", "primary_longitude": "-89.34", "name": "De Forest"}, {"link_title": null, "guid": "fe664eb5a4a8463b88a8a958ab0b9cd3", "description": null, "fips_class": "C5", "url": "http://www.de-pere.org/", "feature_id": "34746", "state_name": "Wisconsin", "fips_county_cd": "9", "state_abbreviation": "WI", "full_county_name": "Brown County", "county_name": "Brown", "feat_class": "Populated Place", "primary_latitude": "44.44", "primary_longitude": "-88.06", "name": "De Pere"}, {"link_title": null, "guid": "74ba580186934fdc8114bc3548d8498a", "description": null, "fips_class": "H1", "url": "http://www.co.langlade.wi.us/", "feature_id": "39610", "state_name": "Wisconsin", "fips_county_cd": "67", "state_abbreviation": "WI", "full_county_name": null, "county_name": null, "feat_class": "Civil", "primary_latitude": "45.25", "primary_longitude": "-89.05", "name": "Langlade County"}, {"link_title": null, "guid": "1f15e5e509a44abfaef2e1e25132dab3", "description": null, "fips_class": "H1", "url": "http://www.co.lincoln.wi.us/", "feature_id": "39611", "state_name": "Wisconsin", "fips_county_cd": "69", "state_abbreviation": "WI", "full_county_name": null, "county_name": null, "feat_class": "Civil", "primary_latitude": "45.31", "primary_longitude": "-89.75", "name": "Lincoln County"}, {"link_title": null, "guid": "9b5e85eb3ddd465da4470175a393ad5a", "description": null, "fips_class": "H1", "url": "http://www.co.manitowoc.wi.us/", "feature_id": "39612", "state_name": "Wisconsin", "fips_county_cd": "71", "state_abbreviation": "WI", "full_county_name": null, "county_name": null, "feat_class": "Civil", "primary_latitude": "44.06", "primary_longitude": "-87.8", "name": "Manitowoc County"}, {"link_title": null, "guid": "10b4470ba10347bca825743af50fe11c", "description": null, "fips_class": "H1", "url": "http://www.co.marathon.wi.us/", "feature_id": "39613", "state_name": "Wisconsin", "fips_county_cd": "73", "state_abbreviation": "WI", "full_county_name": null, "county_name": null, "feat_class": "Civil", "primary_latitude": "44.89", "primary_longitude": "-89.76", "name": "Marathon County"}, {"link_title": null, "guid": "0930522e102842fdaa6e63952e281603", "description": null, "fips_class": "C5", "url": "http://www.greendale.org/", "feature_id": "35006", "state_name": "Wisconsin", "fips_county_cd": "79", "state_abbreviation": "WI", "full_county_name": "Milwaukee County", "county_name": "Milwaukee", "feat_class": "Populated Place", "primary_latitude": "42.94", "primary_longitude": "-87.99", "name": "Greendale"}, {"link_title": null, "guid": "d9da566f1d4c4f2ba5d4e53980cbef01", "description": null, "fips_class": "C5", "url": "http://valders.org/", "feature_id": "36030", "state_name": "Wisconsin", "fips_county_cd": "71", "state_abbreviation": "WI", "full_county_name": "Manitowoc County", "county_name": "Manitowoc", "feat_class": "Populated Place", "primary_latitude": "44.06", "primary_longitude": "-87.88", "name": "Valders"}, {"link_title": null, "guid": "3646804b4a5d42958aaa9b339ca16bf1", "description": null, "fips_class": "H1", "url": "http://www.marinettecounty.com/", "feature_id": "39614", "state_name": "Wisconsin", "fips_county_cd": "75", "state_abbreviation": "WI", "full_county_name": null, "county_name": null, "feat_class": "Civil", "primary_latitude": "45.36", "primary_longitude": "-88.06", "name": "Marinette County"}, {"link_title": null, "guid": "080a2afe176d458ebd21938efd70735a", "description": null, "fips_class": "C5", "url": "http://www.ci.greenfield.wi.us/", "feature_id": "35007", "state_name": "Wisconsin", "fips_county_cd": "79", "state_abbreviation": "WI", "full_county_name": "Milwaukee County", "county_name": "Milwaukee", "feat_class": "Populated Place", "primary_latitude": "42.96", "primary_longitude": "-88.01", "name": "Greenfield"}, {"link_title": null, "guid": "01fe8d1ca6ee41218e31930009d7258a", "description": null, "fips_class": "H1", "url": "http://www.co.marquette.wi.us/", "feature_id": "39615", "state_name": "Wisconsin", "fips_county_cd": "77", "state_abbreviation": "WI", "full_county_name": null, "county_name": null, "feat_class": "Civil", "primary_latitude": "43.81", "primary_longitude": "-89.4", "name": "Marquette County"}, {"link_title": null, "guid": "f51d286b4d96464b84e575a4a438b982", "description": null, "fips_class": "C5", "url": "http://www.deerfieldwi.com/", "feature_id": "34753", "state_name": "Wisconsin", "fips_county_cd": "25", "state_abbreviation": "WI", "full_county_name": "Dane County", "county_name": "Dane", "feat_class": "Populated Place", "primary_latitude": "43.05", "primary_longitude": "-89.07", "name": "Deerfield"}, {"link_title": null, "guid": "c2d8ea61c63642389800de8c1f6ac837", "description": null, "fips_class": "H1", "url": "http://www.county.milwaukee.gov/", "feature_id": "39617", "state_name": "Wisconsin", "fips_county_cd": "79", "state_abbreviation": "WI", "full_county_name": null, "county_name": null, "feat_class": "Civil", "primary_latitude": "43", "primary_longitude": "-87.96", "name": "Milwaukee County"}, {"link_title": null, "guid": "a5c1d3c2d9b744ad8a154386ff3a1be4", "description": null, "fips_class": "H1", "url": "http://www.co.monroe.wi.us/", "feature_id": "39618", "state_name": "Wisconsin", "fips_county_cd": "81", "state_abbreviation": "WI", "full_county_name": null, "county_name": null, "feat_class": "Civil", "primary_latitude": "43.93", "primary_longitude": "-90.61", "name": "Monroe County"}, {"link_title": null, "guid": "24e84fc8dba44568a72abcb7fbcc782c", "description": null, "fips_class": "C5", "url": "http://www.blackearthwisconsin.com/", "feature_id": "34499", "state_name": "Wisconsin", "fips_county_cd": "25", "state_abbreviation": "WI", "full_county_name": "Dane County", "county_name": "Dane", "feat_class": "Populated Place", "primary_latitude": "43.13", "primary_longitude": "-89.74", "name": "Black Earth"}, {"link_title": null, "guid": "8f77ebec63354bacb3c28e41f2fecd05", "description": null, "fips_class": "C5", "url": "http://www.nfdl.org/", "feature_id": "35523", "state_name": "Wisconsin", "fips_county_cd": "39", "state_abbreviation": "WI", "full_county_name": "Fond du Lac County", "county_name": "Fond du Lac", "feat_class": "Populated Place", "primary_latitude": "43.81", "primary_longitude": "-88.48", "name": "North Fond du Lac"}, {"link_title": null, "guid": "75e949a940024d14b742d382b20acbf7", "description": null, "fips_class": "C5", "url": "http://www.ci.verona.wi.us/", "feature_id": "36035", "state_name": "Wisconsin", "fips_county_cd": "25", "state_abbreviation": "WI", "full_county_name": "Dane County", "county_name": "Dane", "feat_class": "Populated Place", "primary_latitude": "42.99", "primary_longitude": "-89.53", "name": "Verona"}, {"link_title": null, "guid": "992338656ec34f4196305efaeafe74c4", "description": null, "fips_class": "H1", "url": "http://www.co.oconto.wi.us/", "feature_id": "39619", "state_name": "Wisconsin", "fips_county_cd": "83", "state_abbreviation": "WI", "full_county_name": null, "county_name": null, "feat_class": "Civil", "primary_latitude": "45", "primary_longitude": "-88.18", "name": "Oconto County"}, {"link_title": null, "guid": "cc67b4181d644895b7fdfa6903f8eaae", "description": null, "fips_class": "H1", "url": "http://www.co.oneida.wi.gov/", "feature_id": "39620", "state_name": "Wisconsin", "fips_county_cd": "85", "state_abbreviation": "WI", "full_county_name": null, "county_name": null, "feat_class": "Civil", "primary_latitude": "45.66", "primary_longitude": "-89.5", "name": "Oneida County"}, {"link_title": null, "guid": "e70baca7a12349cd8152d4deedf184eb", "description": null, "fips_class": "C5", "url": "http://www.blackriverfalls.com/", "feature_id": "34501", "state_name": "Wisconsin", "fips_county_cd": "53", "state_abbreviation": "WI", "full_county_name": "Jackson County", "county_name": "Jackson", "feat_class": "Populated Place", "primary_latitude": "44.29", "primary_longitude": "-90.85", "name": "Black River Falls"}, {"link_title": null, "guid": "aecd940478c24b5aaf3837f29e804274", "description": null, "fips_class": "C5", "url": "http://www.cityofdelafield.com/", "feature_id": "34757", "state_name": "Wisconsin", "fips_county_cd": "133", "state_abbreviation": "WI", "full_county_name": "Waukesha County", "county_name": "Waukesha", "feat_class": "Populated Place", "primary_latitude": "43.06", "primary_longitude": "-88.4", "name": "Delafield"}, {"link_title": null, "guid": "14cf1b0c1bef4c51b4123daa0f7e2dda", "description": null, "fips_class": "C5", "url": "http://www.northhudsonvillage.org/", "feature_id": "35525", "state_name": "Wisconsin", "fips_county_cd": "109", "state_abbreviation": "WI", "full_county_name": "St. Croix County", "county_name": "St. Croix", "feat_class": "Populated Place", "primary_latitude": "44.99", "primary_longitude": "-92.75", "name": "North Hudson"}, {"link_title": null, "guid": "b4b6942998a049bd88a11d167690f77d", "description": null, "fips_class": "H1", "url": "http://www.co.outagamie.wi.us/", "feature_id": "39621", "state_name": "Wisconsin", "fips_county_cd": "87", "state_abbreviation": "WI", "full_county_name": null, "county_name": null, "feat_class": "Civil", "primary_latitude": "44.41", "primary_longitude": "-88.46", "name": "Outagamie County"}, {"link_title": null, "guid": "2283efb9b399402991cfb5e1eb616e9e", "description": null, "fips_class": "H1", "url": "http://www.co.ozaukee.wi.us/", "feature_id": "39622", "state_name": "Wisconsin", "fips_county_cd": "89", "state_abbreviation": "WI", "full_county_name": null, "county_name": null, "feat_class": "Civil", "primary_latitude": "43.38", "primary_longitude": "-87.95", "name": "Ozaukee County"}, {"link_title": null, "guid": "4ee1de6bee0048f799bdf2e2afc899eb", "description": null, "fips_class": "C5", "url": "http://ci.delavan.wi.us", "feature_id": "34759", "state_name": "Wisconsin", "fips_county_cd": "127", "state_abbreviation": "WI", "full_county_name": "Walworth County", "county_name": "Walworth", "feat_class": "Populated Place", "primary_latitude": "42.63", "primary_longitude": "-88.64", "name": "Delavan"}, {"link_title": null, "guid": "6d5130aafdbb43a6b8799815ecf8816f", "description": null, "fips_class": "C5", "url": "http://www.northprairie.net/", "feature_id": "35527", "state_name": "Wisconsin", "fips_county_cd": "133", "state_abbreviation": "WI", "full_county_name": "Waukesha County", "county_name": "Waukesha", "feat_class": "Populated Place", "primary_latitude": "42.93", "primary_longitude": "-88.4", "name": "North Prairie"}, {"link_title": null, "guid": "d308e6d711244acb84c437524098d8df", "description": null, "fips_class": "H1", "url": "http://www.co.pepin.wi.us/", "feature_id": "39623", "state_name": "Wisconsin", "fips_county_cd": "91", "state_abbreviation": "WI", "full_county_name": null, "county_name": null, "feat_class": "Civil", "primary_latitude": "44.59", "primary_longitude": "-92.05", "name": "Pepin County"}, {"link_title": null, "guid": "7661efa33d0f428695ab30953a98bb0d", "description": null, "fips_class": "H1", "url": "http://www.co.pierce.wi.us/", "feature_id": "39624", "state_name": "Wisconsin", "fips_county_cd": "93", "state_abbreviation": "WI", "full_county_name": null, "county_name": null, "feat_class": "Civil", "primary_latitude": "44.73", "primary_longitude": "-92.43", "name": "Pierce County"}, {"link_title": null, "guid": "911d114dbcd0472c8e82c8520bcc2bec", "description": null, "fips_class": "H1", "url": "http://www.co.polk.wi.us/", "feature_id": "39625", "state_name": "Wisconsin", "fips_county_cd": "95", "state_abbreviation": "WI", "full_county_name": null, "county_name": null, "feat_class": "Civil", "primary_latitude": "45.44", "primary_longitude": "-92.41", "name": "Polk County"}, {"link_title": null, "guid": "d9fbe8c1b2df475b9b5a4033b2812898", "description": null, "fips_class": "C5", "url": "http://www.ci.stfrancis.wi.gov/", "feature_id": "35786", "state_name": "Wisconsin", "fips_county_cd": "79", "state_abbreviation": "WI", "full_county_name": "Milwaukee County", "county_name": "Milwaukee", "feat_class": "Populated Place", "primary_latitude": "42.96", "primary_longitude": "-87.87", "name": "Saint Francis"}, {"link_title": null, "guid": "83fe4be882e647278ed236054c04ce57", "description": null, "fips_class": "H1", "url": "http://www.co.portage.wi.us/", "feature_id": "39626", "state_name": "Wisconsin", "fips_county_cd": "97", "state_abbreviation": "WI", "full_county_name": null, "county_name": null, "feat_class": "Civil", "primary_latitude": "44.46", "primary_longitude": "-89.5", "name": "Portage County"}, {"link_title": null, "guid": "fc8985fae4bf4429b507a9e312d3d881", "description": null, "fips_class": "H1", "url": "http://www.co.price.wi.us/", "feature_id": "39627", "state_name": "Wisconsin", "fips_county_cd": "99", "state_abbreviation": "WI", "full_county_name": null, "county_name": null, "feat_class": "Civil", "primary_latitude": "45.68", "primary_longitude": "-90.35", "name": "Price County"}, {"link_title": null, "guid": "f1746482429f4fe79e1a215cd132c7fa", "description": null, "fips_class": "C5", "url": "http://www.oakcreekwi.org/", "feature_id": "35532", "state_name": "Wisconsin", "fips_county_cd": "79", "state_abbreviation": "WI", "full_county_name": "Milwaukee County", "county_name": "Milwaukee", "feat_class": "Populated Place", "primary_latitude": "42.88", "primary_longitude": "-87.86", "name": "Oak Creek"}, {"link_title": null, "guid": "00134a8611f64e828ac5d48f4f804d8d", "description": null, "fips_class": "H1", "url": "http://www.racineco.com/", "feature_id": "39628", "state_name": "Wisconsin", "fips_county_cd": "101", "state_abbreviation": "WI", "full_county_name": null, "county_name": null, "feat_class": "Civil", "primary_latitude": "42.74", "primary_longitude": "-88.07", "name": "Racine County"}, {"link_title": null, "guid": "981a5a7dadbd420b8b18eac24f034337", "description": null, "fips_class": "H1", "url": "http://www.co.richland.wi.us/", "feature_id": "39629", "state_name": "Wisconsin", "fips_county_cd": "103", "state_abbreviation": "WI", "full_county_name": null, "county_name": null, "feat_class": "Civil", "primary_latitude": "43.38", "primary_longitude": "-90.43", "name": "Richland County"}, {"link_title": null, "guid": "0e56268a8b6142e98af5336dbd4b30a4", "description": null, "fips_class": "C5", "url": "http://www.ci.bloomer.wi.us/", "feature_id": "34510", "state_name": "Wisconsin", "fips_county_cd": "17", "state_abbreviation": "WI", "full_county_name": "Chippewa County", "county_name": "Chippewa", "feat_class": "Populated Place", "primary_latitude": "45.1", "primary_longitude": "-91.48", "name": "Bloomer"}, {"link_title": null, "guid": "caa7e658849c4c9a850896d3d2cadc39", "description": null, "fips_class": "C5", "url": "http://www.denmark-wi.org/", "feature_id": "34766", "state_name": "Wisconsin", "fips_county_cd": "9", "state_abbreviation": "WI", "full_county_name": "Brown County", "county_name": "Brown", "feat_class": "Populated Place", "primary_latitude": "44.34", "primary_longitude": "-87.82", "name": "Denmark"}, {"link_title": null, "guid": "63a01a94a47d455ea983a75ab9f8de6f", "description": null, "fips_class": "H1", "url": "http://www.co.rock.wi.us/", "feature_id": "39630", "state_name": "Wisconsin", "fips_county_cd": "105", "state_abbreviation": "WI", "full_county_name": null, "county_name": null, "feat_class": "Civil", "primary_latitude": "42.66", "primary_longitude": "-89.06", "name": "Rock County"}, {"link_title": null, "guid": "98d6fb33d95e48ff960fb16583c80fe9", "description": null, "fips_class": "C5", "url": "http://village.saint-nazianz.wi.us/", "feature_id": "35791", "state_name": "Wisconsin", "fips_county_cd": "71", "state_abbreviation": "WI", "full_county_name": "Manitowoc County", "county_name": "Manitowoc", "feat_class": "Populated Place", "primary_latitude": "44", "primary_longitude": "-87.92", "name": "Saint Nazianz"}, {"link_title": null, "guid": "2019b2c7aaf8440b92c6d17dd3b07b31", "description": null, "fips_class": "H1", "url": "http://www.ruskcounty.org/", "feature_id": "39631", "state_name": "Wisconsin", "fips_county_cd": "107", "state_abbreviation": "WI", "full_county_name": null, "county_name": null, "feat_class": "Civil", "primary_latitude": "45.46", "primary_longitude": "-91.16", "name": "Rusk County"}, {"link_title": null, "guid": "a2fc25070ce2446b8d388cb4eb4099c9", "description": null, "fips_class": "H1", "url": "http://www.co.saint-croix.wi.us/", "feature_id": "39632", "state_name": "Wisconsin", "fips_county_cd": "109", "state_abbreviation": "WI", "full_county_name": null, "county_name": null, "feat_class": "Civil", "primary_latitude": "45.04", "primary_longitude": "-92.43", "name": "Saint Croix County"}, {"link_title": null, "guid": "dd8230547014448e8d96ccf36edc94ca", "description": null, "fips_class": "C5", "url": "http://www.vi.wales.wi.gov/", "feature_id": "36049", "state_name": "Wisconsin", "fips_county_cd": "133", "state_abbreviation": "WI", "full_county_name": "Waukesha County", "county_name": "Waukesha", "feat_class": "Populated Place", "primary_latitude": "43", "primary_longitude": "-88.37", "name": "Wales"}, {"link_title": null, "guid": "17860c6d1b494241b388c6da651ee730", "description": null, "fips_class": "H1", "url": "http://www.co.sauk.wi.us/", "feature_id": "39633", "state_name": "Wisconsin", "fips_county_cd": "111", "state_abbreviation": "WI", "full_county_name": null, "county_name": null, "feat_class": "Civil", "primary_latitude": "43.44", "primary_longitude": "-89.95", "name": "Sauk County"}, {"link_title": null, "guid": "3f9c39c549d44576b14dc7ecd2b9cd81", "description": null, "fips_class": "H1", "url": "http://www.sawyercountygov.org/", "feature_id": "39634", "state_name": "Wisconsin", "fips_county_cd": "113", "state_abbreviation": "WI", "full_county_name": null, "county_name": null, "feat_class": "Civil", "primary_latitude": "45.86", "primary_longitude": "-91.23", "name": "Sawyer County"}, {"link_title": null, "guid": "44d6578ca4874fbda8e6309b53055bd1", "description": null, "fips_class": "C5", "url": "http://www.ci.lodi.wi.gov/", "feature_id": "35283", "state_name": "Wisconsin", "fips_county_cd": "21", "state_abbreviation": "WI", "full_county_name": "Columbia County", "county_name": "Columbia", "feat_class": "Populated Place", "primary_latitude": "43.31", "primary_longitude": "-89.52", "name": "Lodi"}, {"link_title": null, "guid": "ce30bfa225974f088abe0413824f69f6", "description": null, "fips_class": "C5", "url": "http://www.townofwalworth.com/", "feature_id": "36051", "state_name": "Wisconsin", "fips_county_cd": "127", "state_abbreviation": "WI", "full_county_name": "Walworth County", "county_name": "Walworth", "feat_class": "Populated Place", "primary_latitude": "42.53", "primary_longitude": "-88.59", "name": "Walworth"}, {"link_title": null, "guid": "d2389ed9cb03458aa9f9d3c60168d454", "description": null, "fips_class": "H1", "url": "http://www.co.shawano.wi.us/", "feature_id": "39635", "state_name": "Wisconsin", "fips_county_cd": "115", "state_abbreviation": "WI", "full_county_name": null, "county_name": null, "feat_class": "Civil", "primary_latitude": "44.79", "primary_longitude": "-88.76", "name": "Shawano County"}, {"link_title": null, "guid": "6440d1e924b647d8965d922a79d5be85", "description": null, "fips_class": "H1", "url": "http://www.co.sheboygan.wi.us/", "feature_id": "39636", "state_name": "Wisconsin", "fips_county_cd": "117", "state_abbreviation": "WI", "full_county_name": null, "county_name": null, "feat_class": "Civil", "primary_latitude": "43.73", "primary_longitude": "-87.93", "name": "Sheboygan County"}, {"link_title": null, "guid": "7e9d7c8f7afc45749bfc7336c02235d3", "description": null, "fips_class": "C5", "url": "http://www.mybluemounds.com/", "feature_id": "34517", "state_name": "Wisconsin", "fips_county_cd": "25", "state_abbreviation": "WI", "full_county_name": "Dane County", "county_name": "Dane", "feat_class": "Populated Place", "primary_latitude": "43.01", "primary_longitude": "-89.83", "name": "Blue Mounds"}, {"link_title": null, "guid": "b699771c9eb74bb99071a8fa3da10fc7", "description": null, "fips_class": "H1", "url": "http://www.co.taylor.wi.us/", "feature_id": "39637", "state_name": "Wisconsin", "fips_county_cd": "119", "state_abbreviation": "WI", "full_county_name": null, "county_name": null, "feat_class": "Civil", "primary_latitude": "45.21", "primary_longitude": "-90.51", "name": "Taylor County"}, {"link_title": null, "guid": "c3172bab562f43a08fec50b25279400b", "description": null, "fips_class": "H1", "url": "http://www.tremplocounty.com/", "feature_id": "39638", "state_name": "Wisconsin", "fips_county_cd": "121", "state_abbreviation": "WI", "full_county_name": null, "county_name": null, "feat_class": "Civil", "primary_latitude": "44.31", "primary_longitude": "-91.35", "name": "Trempealeau County"}, {"link_title": null, "guid": "fb0c44f4052548e39c4fb5f65ad2abc0", "description": null, "fips_class": "C5", "url": "http://www.lomiragov.com/", "feature_id": "35287", "state_name": "Wisconsin", "fips_county_cd": "27", "state_abbreviation": "WI", "full_county_name": "Dodge County", "county_name": "Dodge", "feat_class": "Populated Place", "primary_latitude": "43.59", "primary_longitude": "-88.44", "name": "Lomira"}, {"link_title": null, "guid": "ed66d334082140139ac064e998fbe53d", "description": null, "fips_class": "C5", "url": "http://www.oconomowocusa.com/", "feature_id": "35544", "state_name": "Wisconsin", "fips_county_cd": "133", "state_abbreviation": "WI", "full_county_name": "Waukesha County", "county_name": "Waukesha", "feat_class": "Populated Place", "primary_latitude": "43.11", "primary_longitude": "-88.49", "name": "Oconomowoc"}, {"link_title": null, "guid": "3841a31d77334587a380dfef9c9b0ad6", "description": null, "fips_class": "H1", "url": "http://co.vilas.wi.us/", "feature_id": "39640", "state_name": "Wisconsin", "fips_county_cd": "125", "state_abbreviation": "WI", "full_county_name": null, "county_name": null, "feat_class": "Civil", "primary_latitude": "46.06", "primary_longitude": "-89.46", "name": "Vilas County"}, {"link_title": null, "guid": "89cea9d5610244fe980c975cc24754f6", "description": null, "fips_class": "C5", "url": "http://www.saukcity.net/", "feature_id": "35801", "state_name": "Wisconsin", "fips_county_cd": "111", "state_abbreviation": "WI", "full_county_name": "Sauk County", "county_name": "Sauk", "feat_class": "Populated Place", "primary_latitude": "43.27", "primary_longitude": "-89.72", "name": "Sauk City"}, {"link_title": null, "guid": "b8cf83603f144b7893059198ae38dd88", "description": null, "fips_class": "H1", "url": "http://www.co.walworth.wi.us/", "feature_id": "39641", "state_name": "Wisconsin", "fips_county_cd": "127", "state_abbreviation": "WI", "full_county_name": null, "county_name": null, "feat_class": "Civil", "primary_latitude": "42.66", "primary_longitude": "-88.53", "name": "Walworth County"}, {"link_title": null, "guid": "7752c1de0cb74d34848baef8d9e4322e", "description": null, "fips_class": "H1", "url": "http://www.co.washburn.wi.us/", "feature_id": "39642", "state_name": "Wisconsin", "fips_county_cd": "129", "state_abbreviation": "WI", "full_county_name": null, "county_name": null, "feat_class": "Civil", "primary_latitude": "45.89", "primary_longitude": "-91.78", "name": "Washburn County"}, {"link_title": null, "guid": "6db384dd97c344e6a76a2ccbc6325a89", "description": null, "fips_class": "C5", "url": "http://www.boscobelwisconsin.com/", "feature_id": "34523", "state_name": "Wisconsin", "fips_county_cd": "43", "state_abbreviation": "WI", "full_county_name": "Grant County", "county_name": "Grant", "feat_class": "Populated Place", "primary_latitude": "43.13", "primary_longitude": "-90.7", "name": "Boscobel"}, {"link_title": null, "guid": "7daee87f53024823962c7fd2584799bb", "description": null, "fips_class": "C5", "url": "http://www.village.saukville.wi.us/", "feature_id": "35803", "state_name": "Wisconsin", "fips_county_cd": "89", "state_abbreviation": "WI", "full_county_name": "Ozaukee County", "county_name": "Ozaukee", "feat_class": "Populated Place", "primary_latitude": "43.38", "primary_longitude": "-87.94", "name": "Saukville"}, {"link_title": null, "guid": "5a10e37c56814924b8f8a6a0e0ae0b9d", "description": null, "fips_class": "H1", "url": "http://www.co.washington.wi.us/", "feature_id": "39643", "state_name": "Wisconsin", "fips_county_cd": "131", "state_abbreviation": "WI", "full_county_name": null, "county_name": null, "feat_class": "Civil", "primary_latitude": "43.36", "primary_longitude": "-88.23", "name": "Washington County"}, {"link_title": null, "guid": "972c501cd6fb450d87bf7c63d48ad12c", "description": null, "fips_class": "H1", "url": "http://www.waukeshacounty.gov/", "feature_id": "39644", "state_name": "Wisconsin", "fips_county_cd": "133", "state_abbreviation": "WI", "full_county_name": null, "county_name": null, "feat_class": "Civil", "primary_latitude": "43.03", "primary_longitude": "-88.3", "name": "Waukesha County"}, {"link_title": null, "guid": "005948d116804dd68e793072b7369c9e", "description": null, "fips_class": "C5", "url": "http://www.ci.ocontofalls.wi.us/", "feature_id": "35549", "state_name": "Wisconsin", "fips_county_cd": "83", "state_abbreviation": "WI", "full_county_name": "Oconto County", "county_name": "Oconto", "feat_class": "Populated Place", "primary_latitude": "44.87", "primary_longitude": "-88.14", "name": "Oconto Falls"}, {"link_title": null, "guid": "304f0ceb756a42348035895f4540a90a", "description": null, "fips_class": "H1", "url": "http://www.co.waupaca.wi.us/", "feature_id": "39645", "state_name": "Wisconsin", "fips_county_cd": "135", "state_abbreviation": "WI", "full_county_name": null, "county_name": null, "feat_class": "Civil", "primary_latitude": "44.46", "primary_longitude": "-88.98", "name": "Waupaca County"}, {"link_title": null, "guid": "0c744cbc84c44aefaee3bd7f5196feb4", "description": null, "fips_class": "H1", "url": "http://www.1waushara.com/", "feature_id": "39646", "state_name": "Wisconsin", "fips_county_cd": "137", "state_abbreviation": "WI", "full_county_name": null, "county_name": null, "feat_class": "Civil", "primary_latitude": "44.11", "primary_longitude": "-89.25", "name": "Waushara County"}, {"link_title": null, "guid": "67bf7a716bc0424eb9040731ef4066eb", "description": null, "fips_class": "H1", "url": "http://www.co.winnebago.wi.us/", "feature_id": "39647", "state_name": "Wisconsin", "fips_county_cd": "139", "state_abbreviation": "WI", "full_county_name": null, "county_name": null, "feat_class": "Civil", "primary_latitude": "44.06", "primary_longitude": "-88.65", "name": "Winnebago County"}, {"link_title": null, "guid": "395882251ede4c168f1a5e0ad7651898", "description": null, "fips_class": "C5", "url": "http://www.cityofonalaska.com/", "feature_id": "35558", "state_name": "Wisconsin", "fips_county_cd": "63", "state_abbreviation": "WI", "full_county_name": "La Crosse County", "county_name": "La Crosse", "feat_class": "Populated Place", "primary_latitude": "43.88", "primary_longitude": "-91.23", "name": "Onalaska"}, {"link_title": null, "guid": "bbfeb56393624ca2b943a7036d983bf4", "description": null, "fips_class": "C5", "url": "http://ci.hartford.wi.us/", "feature_id": "35048", "state_name": "Wisconsin", "fips_county_cd": "131", "state_abbreviation": "WI", "full_county_name": "Washington County", "county_name": "Washington", "feat_class": "Populated Place", "primary_latitude": "43.31", "primary_longitude": "-88.37", "name": "Hartford"}, {"link_title": null, "guid": "59bf4fbfc4a94917b956e5cdbe43070a", "description": null, "fips_class": "C5", "url": "http://luxemburgusa.com/", "feature_id": "35304", "state_name": "Wisconsin", "fips_county_cd": "61", "state_abbreviation": "WI", "full_county_name": "Kewaunee County", "county_name": "Kewaunee", "feat_class": "Populated Place", "primary_latitude": "44.53", "primary_longitude": "-87.7", "name": "Luxemburg"}, {"link_title": null, "guid": "00e650c9c8ec41c691a099648d6d6a33", "description": null, "fips_class": "C5", "url": "http://www.waterloowi.us/", "feature_id": "36072", "state_name": "Wisconsin", "fips_county_cd": "55", "state_abbreviation": "WI", "full_county_name": "Jefferson County", "county_name": "Jefferson", "feat_class": "Populated Place", "primary_latitude": "43.18", "primary_longitude": "-88.98", "name": "Waterloo"}, {"link_title": null, "guid": "e9fa29b69e704b5e8963477fcb412f64", "description": null, "fips_class": "C5", "url": "http://www.villageofhartland.com/", "feature_id": "35050", "state_name": "Wisconsin", "fips_county_cd": "133", "state_abbreviation": "WI", "full_county_name": "Waukesha County", "county_name": "Waukesha", "feat_class": "Populated Place", "primary_latitude": "43.1", "primary_longitude": "-88.34", "name": "Hartland"}, {"link_title": null, "guid": "32e01d2d838d419d873f24b75f1cf792", "description": null, "fips_class": "C5", "url": "http://www.oostburg.org/", "feature_id": "35562", "state_name": "Wisconsin", "fips_county_cd": "117", "state_abbreviation": "WI", "full_county_name": "Sheboygan County", "county_name": "Sheboygan", "feat_class": "Populated Place", "primary_latitude": "43.62", "primary_longitude": "-87.79", "name": "Oostburg"}, {"link_title": null, "guid": "8deb742b7a3a428fb3b70ce1906cad36", "description": null, "fips_class": "C5", "url": "http://www.ci.watertown.wi.us/", "feature_id": "36075", "state_name": "Wisconsin", "fips_county_cd": "55", "state_abbreviation": "WI", "full_county_name": "Jefferson County", "county_name": "Jefferson", "feat_class": "Populated Place", "primary_latitude": "43.19", "primary_longitude": "-88.72", "name": "Watertown"}, {"link_title": null, "guid": "6704e7e75b154fbdb644869e8f5e7250", "description": null, "fips_class": "C5", "url": "http://www.ci.brillion.wi.us/", "feature_id": "34540", "state_name": "Wisconsin", "fips_county_cd": "15", "state_abbreviation": "WI", "full_county_name": "Calumet County", "county_name": "Calumet", "feat_class": "Populated Place", "primary_latitude": "44.17", "primary_longitude": "-88.06", "name": "Brillion"}, {"link_title": null, "guid": "c8795bb1426741a5954e05c0c99c980e", "description": null, "fips_class": "C5", "url": "http://cityofdurand.com/", "feature_id": "34796", "state_name": "Wisconsin", "fips_county_cd": "91", "state_abbreviation": "WI", "full_county_name": "Pepin County", "county_name": "Pepin", "feat_class": "Populated Place", "primary_latitude": "44.62", "primary_longitude": "-91.96", "name": "Durand"}, {"link_title": null, "guid": "b4924d60b10b48b1b1c08fe4ab6cab4a", "description": null, "fips_class": "C5", "url": "http://www.vil.oregon.wi.us/", "feature_id": "35564", "state_name": "Wisconsin", "fips_county_cd": "25", "state_abbreviation": "WI", "full_county_name": "Dane County", "county_name": "Dane", "feat_class": "Populated Place", "primary_latitude": "42.92", "primary_longitude": "-89.38", "name": "Oregon"}, {"link_title": null, "guid": "59cfd169d95049dea9cb79d4a2836757", "description": null, "fips_class": "C5", "url": "http://fp1.centurytel.net/villageofeagle/", "feature_id": "34798", "state_name": "Wisconsin", "fips_county_cd": "133", "state_abbreviation": "WI", "full_county_name": "Waukesha County", "county_name": "Waukesha", "feat_class": "Populated Place", "primary_latitude": "42.87", "primary_longitude": "-88.47", "name": "Eagle"}, {"link_title": null, "guid": "3697f2791e744f0cb0ebfeb8b246dd72", "description": null, "fips_class": "C5", "url": "http://www.cityofbrodheadwi.us/", "feature_id": "34545", "state_name": "Wisconsin", "fips_county_cd": "45", "state_abbreviation": "WI", "full_county_name": "Green County", "county_name": "Green", "feat_class": "Populated Place", "primary_latitude": "42.61", "primary_longitude": "-89.37", "name": "Brodhead"}, {"link_title": null, "guid": "17249ce706514233a5c3034d23ff8584", "description": null, "fips_class": "C5", "url": "http://www.ci.waukesha.wi.us/", "feature_id": "36081", "state_name": "Wisconsin", "fips_county_cd": "133", "state_abbreviation": "WI", "full_county_name": "Waukesha County", "county_name": "Waukesha", "feat_class": "Populated Place", "primary_latitude": "43.01", "primary_longitude": "-88.23", "name": "Waukesha"}, {"link_title": null, "guid": "76e96bb9740a4f27beefbafbac4ce1b1", "description": null, "fips_class": "C5", "url": "http://www.easttroy-wi.com/", "feature_id": "34803", "state_name": "Wisconsin", "fips_county_cd": "127", "state_abbreviation": "WI", "full_county_name": "Walworth County", "county_name": "Walworth", "feat_class": "Populated Place", "primary_latitude": "42.78", "primary_longitude": "-88.4", "name": "East Troy"}, {"link_title": null, "guid": "334012beae7b47a2bcb2821af243049f", "description": null, "fips_class": "C5", "url": "http://www.cityofmadison.com/", "feature_id": "35315", "state_name": "Wisconsin", "fips_county_cd": "25", "state_abbreviation": "WI", "full_county_name": "Dane County", "county_name": "Dane", "feat_class": "Populated Place", "primary_latitude": "43.07", "primary_longitude": "-89.4", "name": "Madison"},